,StationName,Latitude,Longitude,2018-12-15 03:00:00,2018-12-15 07:00:00,2018-12-15 11:00:00,2018-12-15 15:00:00,2018-12-15 19:00:00,2018-12-15 23:00:00,2018-12-16 03:00:00,2018-12-16 07:00:00,2018-12-16 11:00:00,2018-12-16 15:00:00,2018-12-16 19:00:00,2018-12-16 23:00:00,2018-12-17 03:00:00,2018-12-17 07:00:00,2018-12-17 11:00:00,2018-12-17 15:00:00,2018-12-17 19:00:00,2018-12-17 23:00:00,2018-12-18 03:00:00,2018-12-18 07:00:00,2018-12-18 11:00:00,2018-12-18 15:00:00,2018-12-18 19:00:00,2018-12-18 23:00:00,2018-12-19 03:00:00,2018-12-19 07:00:00,2018-12-19 11:00:00,2018-12-19 15:00:00,2018-12-19 19:00:00,2018-12-19 23:00:00,2018-12-20 03:00:00,2018-12-20 07:00:00,2018-12-20 11:00:00,2018-12-20 15:00:00,2018-12-20 19:00:00,2018-12-20 23:00:00,2018-12-21 03:00:00,2018-12-21 07:00:00,2018-12-21 11:00:00,2018-12-21 15:00:00,2018-12-21 19:00:00
0,34 ST-HERALD SQ,40.748897899999996,-73.98878859999998,3453.0,17946.0,39444.0,54188.0,35417.0,12946.0,2601.0,13175.0,33798.0,39922.0,20314.0,4462.0,6689.0,62413.0,45238.0,90749.0,42078.0,6392.0,7545.0,64655.0,47326.0,77681.0,45762.0,6977.0,7460.0,52882.0,49505.0,94838.0,46919.0,8114.0,7285.0,60838.0,50089.0,96642.0,45345.0,8236.0,6794.0,52693.0,52035.0,85702.0,40941.0
1,TIMES SQ-42 ST,40.7545563,-73.98667370000001,3056.0,15353.0,36166.0,49624.0,35332.0,14027.0,2287.0,10139.0,26159.0,29816.0,16682.0,5172.0,6234.0,50461.0,33075.0,66942.0,31478.0,6745.0,6379.0,51094.0,33876.0,69291.0,35304.0,7151.0,6032.0,49696.0,36082.0,69753.0,34982.0,8144.0,6246.0,47065.0,35887.0,70103.0,32780.0,7758.0,4869.0,37887.0,34049.0,57570.0,32723.0
2,34 ST-PENN STA,40.751056,-73.99031020000001,3933.0,18166.0,33599.0,41567.0,27737.0,10543.0,2860.0,14592.0,32313.0,36161.0,18434.0,3751.0,11707.0,74179.0,37314.0,86471.0,33793.0,4821.0,12441.0,74861.0,38744.0,84370.0,34678.0,5140.0,11970.0,73618.0,40382.0,87497.0,36734.0,5908.0,11507.0,70468.0,41404.0,90086.0,37527.0,5716.0,10689.0,60121.0,45573.0,75388.0,28940.0
3,59 ST COLUMBUS,40.7684839,-73.98180699999999,1840.0,11559.0,25936.0,31949.0,18954.0,6910.0,1547.0,8293.0,20595.0,21505.0,10041.0,2591.0,4294.0,34471.0,29360.0,47287.0,21681.0,3913.0,4417.0,35015.0,28847.0,47986.0,22526.0,4174.0,4446.0,34647.0,29935.0,49258.0,23277.0,4491.0,4357.0,32417.0,29069.0,46549.0,21855.0,4251.0,3790.0,26423.0,27443.0,39250.0,18017.0
4,86 ST,40.7795016,-73.95557240000001,1699.0,11197.0,20573.0,25705.0,15004.0,4207.0,1318.0,7738.0,18426.0,18195.0,7797.0,1562.0,5028.0,34656.0,23398.0,43574.0,17505.0,2278.0,5213.0,35185.0,24134.0,43603.0,18065.0,2390.0,5007.0,35543.0,25213.0,42083.0,17794.0,2633.0,4654.0,34285.0,25720.0,42183.0,16607.0,2718.0,4422.0,31065.0,28310.0,38187.0,15443.0
5,GRD CNTRL-42 ST,40.75216470000001,-73.97715339999998,1711.0,10803.0,22656.0,26764.0,14335.0,5024.0,1056.0,7250.0,18888.0,18617.0,8251.0,1818.0,6498.0,48785.0,25200.0,44254.0,15981.0,2768.0,6614.0,50062.0,26894.0,57158.0,21892.0,3164.0,6417.0,48043.0,27285.0,18555.0,4900.0,3561.0,6181.0,45487.0,28478.0,57578.0,20618.0,3378.0,5595.0,38599.0,30232.0,8878.0,2751.0
6,59 ST,40.6415685,-74.0176783,2413.0,12240.0,20797.0,25182.0,13238.0,4727.0,1525.0,7926.0,15966.0,16468.0,7934.0,1170.0,5641.0,35906.0,12735.0,45172.0,16441.0,3446.0,6193.0,38091.0,25633.0,45789.0,18594.0,3677.0,5876.0,37805.0,26320.0,47065.0,18708.0,3754.0,5772.0,36845.0,26951.0,45734.0,17300.0,3866.0,5089.0,32200.0,26494.0,40406.0,15131.0
7,FLUSHING-MAIN,40.75955820000001,-73.82992209999998,2943.0,14854.0,16224.0,19335.0,12992.0,4011.0,2167.0,9967.0,12910.0,13257.0,8717.0,2587.0,8216.0,29539.0,17066.0,29746.0,16628.0,2983.0,8106.0,29054.0,16940.0,30326.0,17062.0,3300.0,7962.0,29589.0,16971.0,31176.0,17405.0,3366.0,8148.0,29272.0,17464.0,29717.0,17685.0,3510.0,7250.0,26250.0,16533.0,29697.0,17763.0
8,ATL AV-BARCLAY,40.6837598,-73.97875739999998,1273.0,7064.0,16279.0,21472.0,13478.0,6085.0,1238.0,5202.0,17113.0,19512.0,7343.0,1875.0,3017.0,24202.0,14840.0,31344.0,13592.0,1876.0,3065.0,24635.0,14724.0,36570.0,21293.0,2569.0,3093.0,24105.0,15413.0,34147.0,21028.0,2961.0,2981.0,23335.0,15917.0,31284.0,13945.0,2987.0,2728.0,4753684.0,16949.0,31423.0,18222.0
9,23 ST,40.7413626,-73.9891335,1071.0,7729.0,17269.0,22752.0,13506.0,5119.0,972.0,5024.0,14260.0,15708.0,7807.0,1715.0,2468.0,30598.0,22328.0,45381.0,21021.0,2805.0,2691.0,31915.0,23561.0,46417.0,21924.0,3012.0,2638.0,31272.0,24517.0,46288.0,21771.0,3103.0,2604.0,29700.0,24838.0,45134.0,19775.0,3402.0,2326.0,24691.0,24085.0,37345.0,15532.0
10,42 ST-PORT AUTH,40.7578346,-73.99146259999998,2341.0,12229.0,15530.0,17920.0,13645.0,3884.0,1347.0,9374.0,14793.0,16681.0,10855.0,2019.0,9222.0,39032.0,16434.0,34784.0,16579.0,2390.0,9417.0,40905.0,16619.0,36562.0,17845.0,2641.0,9178.0,39044.0,17003.0,34632.0,17170.0,2598.0,9082.0,37225.0,16891.0,37629.0,18908.0,2728.0,8356.0,35916.0,19657.0,31329.0,15586.0
11,14 ST,40.73747540000001,-73.9970975,1127.0,5349.0,13669.0,17995.0,11273.0,5035.0,986.0,3902.0,11320.0,12283.0,5940.0,1496.0,1700.0,18624.0,14195.0,26592.0,13319.0,2440.0,1841.0,18663.0,14080.0,27142.0,13563.0,2744.0,1880.0,15045.0,12299.0,27494.0,13971.0,3169.0,1858.0,17310.0,14879.0,26631.0,12714.0,3176.0,1557.0,13749.0,15002.0,22949.0,11122.0
12,JKSN HT-ROOSVLT,40.746739,-73.89099859999999,3189.0,11678.0,14207.0,16523.0,10578.0,4975.0,2409.0,7871.0,10560.0,11579.0,7174.0,3129.0,6173.0,23260.0,15336.0,25483.0,13147.0,4032.0,6430.0,23537.0,14510.0,25180.0,13546.0,3979.0,6441.0,23431.0,15304.0,25228.0,12916.0,3942.0,6433.0,23086.0,15471.0,24620.0,13203.0,4245.0,5638.0,20268.0,14794.0,24041.0,13584.0
13,BEDFORD AV,40.717354,-73.956972,927.0,4544.0,13207.0,17361.0,12801.0,5848.0,974.0,3426.0,10463.0,11691.0,5918.0,1357.0,1538.0,14523.0,8752.0,17551.0,11251.0,1727.0,1609.0,14829.0,8515.0,17599.0,11318.0,1906.0,1615.0,14427.0,9173.0,17311.0,11442.0,2289.0,1493.0,13325.0,9551.0,16099.0,10667.0,2317.0,1329.0,10964.0,9455.0,15910.0,10070.0
14,47-50 STS ROCK,40.75885,-73.98118610000002,1455.0,6828.0,15405.0,28787.0,21289.0,6558.0,999.0,5065.0,13611.0,16395.0,7892.0,1743.0,4014.0,44470.0,24104.0,53512.0,22182.0,3437.0,4638.0,45854.0,24980.0,54505.0,23525.0,3658.0,4707.0,44928.0,26264.0,55282.0,24095.0,3864.0,4272.0,42300.0,25863.0,54686.0,19988.0,3425.0,4106.0,34136.0,26313.0,44446.0,19202.0
15,34 ST-HUDSON YD,40.7549713,-74.0010084,708.0,1526.0,2663.0,3017.0,1473.0,565.0,300.0,907.0,1737.0,1912.0,915.0,237.0,2408.0,5829.0,3544.0,6889.0,1811.0,166.0,2528.0,5931.0,3565.0,7065.0,2071.0,396.0,2529.0,5982.0,3738.0,7314.0,1925.0,450.0,2554.0,5456.0,3884.0,7193.0,1851.0,410.0,2389.0,4514.0,3934.0,5141.0,1524.0
16,CHAMBERS ST,40.7155134,-74.00922270000001,1046.0,7572.0,14744.0,14938.0,8039.0,3103.0,725.0,4549.0,10233.0,8847.0,4187.0,1066.0,3121.0,32595.0,23268.0,41901.0,13647.0,1792.0,3348.0,32974.0,23671.0,43258.0,14048.0,1945.0,3221.0,31039.0,23137.0,39314.0,12662.0,2042.0,3110.0,29588.0,22848.0,39793.0,11703.0,2194.0,2586.0,23699.0,20275.0,31919.0,9159.0
17,125 ST,40.8043863,-73.9374292,1657.0,8033.0,13236.0,15586.0,10869.0,4153.0,1438.0,5840.0,11049.0,11281.0,6566.0,1930.0,3236.0,17970.0,12803.0,21550.0,10475.0,2366.0,3216.0,18195.0,12095.0,21365.0,10276.0,2426.0,3284.0,18095.0,12890.0,21143.0,10860.0,2744.0,3303.0,15841.0,12114.0,21365.0,10105.0,2729.0,3049.0,17291.0,13429.0,20040.0,9952.0
18,57 ST-7 AV,40.765564000000005,-73.9803309,1053.0,5585.0,11123.0,15058.0,9737.0,4384.0,809.0,4241.0,8816.0,10928.0,5591.0,1542.0,2070.0,16816.0,11324.0,23220.0,11071.0,2598.0,2105.0,17056.0,11765.0,24367.0,12307.0,2620.0,2121.0,16920.0,12328.0,23848.0,12143.0,2586.0,2029.0,15274.0,11984.0,22105.0,10885.0,2284.0,1740.0,12940.0,11689.0,18697.0,9040.0
19,GRAND ST,40.7182003,-73.9935756,941.0,6331.0,10464.0,12553.0,7476.0,2621.0,707.0,4465.0,8294.0,8705.0,4452.0,986.0,1929.0,15220.0,11635.0,17275.0,7890.0,1173.0,1910.0,14769.0,11353.0,17299.0,8480.0,1570.0,1964.0,15012.0,11613.0,17657.0,8774.0,1468.0,1922.0,14713.0,12233.0,17368.0,8209.0,1435.0,1750.0,13082.0,11020.0,16909.0,8521.0
20,145 ST,40.8240532,-73.94476230000001,2118.0,8281.0,11755.0,13741.0,10170.0,5139.0,1825.0,5911.0,9225.0,10167.0,6603.0,2385.0,3608.0,18506.0,11768.0,18632.0,10843.0,3075.0,3639.0,18568.0,11493.0,19173.0,11327.0,3250.0,3626.0,18486.0,12299.0,18892.0,11329.0,3469.0,3626.0,15976.0,12053.0,5065.0,3173.0,3393.0,3274.0,15422.0,11497.0,16952.0,9736.0
21,42 ST-BRYANT PK,40.75483679999999,-73.9841215,913.0,4259.0,10984.0,15853.0,9636.0,3157.0,636.0,2719.0,7659.0,8300.0,3778.0,1209.0,2264.0,24159.0,15722.0,33170.0,13669.0,2175.0,2641.0,25006.0,15489.0,34324.0,14303.0,2337.0,2480.0,24626.0,16337.0,33803.0,14867.0,2438.0,2517.0,23584.0,16899.0,32560.0,12833.0,2448.0,2111.0,19866.0,16219.0,28040.0,11432.0
22,2 AV,40.723412700000004,-73.9902885,669.0,2943.0,6777.0,8864.0,7513.0,3779.0,795.0,2489.0,6665.0,7227.0,4291.0,1045.0,951.0,7943.0,5537.0,9672.0,6297.0,1377.0,946.0,7779.0,5528.0,10577.0,7397.0,1805.0,1028.0,8232.0,5533.0,10892.0,7471.0,1751.0,930.0,7512.0,5913.0,11200.0,7365.0,1981.0,965.0,6632.0,6051.0,10393.0,7183.0
23,50 ST,40.7620363,-73.98632909999998,1267.0,6997.0,14667.0,20339.0,16828.0,6506.0,1272.0,5826.0,14441.0,16093.0,9297.0,2029.0,3033.0,26660.0,15472.0,32683.0,15745.0,3087.0,3360.0,26660.0,16358.0,34247.0,17600.0,3409.0,3084.0,25883.0,17611.0,34375.0,17333.0,3767.0,2689.0,23823.0,17415.0,34532.0,17377.0,3650.0,2754.0,20877.0,17666.0,28532.0,15647.0
24,CHURCH AV,40.6495233,-73.96328390000001,2246.0,8041.0,9100.0,10516.0,6755.0,2966.0,1620.0,5957.0,7485.0,7684.0,4727.0,1707.0,3545.0,15589.0,8359.0,14436.0,7750.0,1652.0,3429.0,15777.0,8223.0,14640.0,7751.0,1525.0,3365.0,15546.0,8288.0,14634.0,7816.0,1766.0,3325.0,15304.0,8393.0,14427.0,7072.0,1822.0,3055.0,13532.0,8787.0,13274.0,6619.0
25,PRINCE ST,40.7242353,-73.99780600000001,290.0,2618.0,8923.0,12177.0,5128.0,1377.0,208.0,1556.0,6333.0,7722.0,2741.0,427.0,439.0,5603.0,6817.0,11774.0,4975.0,519.0,426.0,5712.0,7353.0,12780.0,5530.0,579.0,385.0,5479.0,7550.0,12806.0,5464.0,559.0,364.0,4939.0,8225.0,13034.0,4920.0,486.0,348.0,4247.0,7693.0,11882.0,4536.0
26,SPRING ST,40.7257799,-74.00395209999998,386.0,2926.0,9030.0,11955.0,6320.0,1824.0,345.0,1929.0,7525.0,8123.0,3534.0,680.0,785.0,7913.0,8472.0,16078.0,7270.0,1016.0,724.0,8057.0,8657.0,17035.0,8031.0,1180.0,730.0,7749.0,9012.0,16974.0,7999.0,1373.0,732.0,7344.0,9590.0,17445.0,7504.0,1434.0,697.0,6410.0,9767.0,14571.0,6395.0
27,LEXINGTON AV/63,40.764629,-73.96611299999998,773.0,4344.0,6695.0,7785.0,4583.0,1639.0,441.0,2673.0,5155.0,5165.0,2572.0,707.0,1935.0,13811.0,8935.0,15305.0,6390.0,1254.0,2160.0,13921.0,8939.0,15961.0,6931.0,1335.0,2192.0,13576.0,8959.0,15696.0,6737.0,1503.0,2170.0,13551.0,9231.0,15151.0,6261.0,1499.0,1930.0,11026.0,8395.0,12800.0,4856.0
28,NOSTRAND AV,40.6697362,-73.95050890000002,975.0,4924.0,7122.0,7790.0,5448.0,2142.0,766.0,3463.0,5713.0,5751.0,3454.0,1038.0,1930.0,11936.0,6378.0,10752.0,6493.0,1422.0,1964.0,12094.0,6234.0,10375.0,6507.0,1327.0,2053.0,11910.0,6678.0,10071.0,6495.0,1525.0,1936.0,11430.0,6595.0,10169.0,6216.0,1491.0,1767.0,9498.0,6809.0,9532.0,5605.0
29,JAY ST-METROTEC,40.6922507,-73.9872792,488.0,523.0,8810.0,9817.0,5623.0,1867.0,565.0,3047.0,6278.0,6695.0,3128.0,869.0,1856.0,18693.0,15467.0,26587.0,8761.0,1250.0,1804.0,19203.0,15361.0,27130.0,9713.0,1340.0,1829.0,18402.0,16199.0,26625.0,9182.0,1442.0,1854.0,18113.0,15586.0,26264.0,8753.0,1423.0,1683.0,14040.0,13425.0,20166.0,6938.0
30,1 AV,40.7312776,-73.9823439,783.0,3732.0,7327.0,9766.0,9195.0,3798.0,712.0,2620.0,6711.0,7781.0,5119.0,1064.0,1675.0,11748.0,7095.0,13693.0,8190.0,1461.0,1701.0,12069.0,7351.0,14227.0,8772.0,1627.0,1714.0,11774.0,7530.0,13598.0,8553.0,1826.0,1574.0,11333.0,7717.0,13690.0,8605.0,1773.0,1581.0,10696.0,8376.0,12407.0,7757.0
31,STEINWAY ST,40.756691700000005,-73.92064090000001,661.0,3369.0,5547.0,6693.0,4187.0,1597.0,502.0,2228.0,4163.0,4350.0,2610.0,679.0,1331.0,8236.0,4879.0,8324.0,4747.0,814.0,1351.0,8322.0,4698.0,8253.0,4351.0,796.0,1377.0,8516.0,4925.0,8440.0,4372.0,942.0,1282.0,8092.0,5054.0,8344.0,4215.0,872.0,1128.0,7244.0,5072.0,8281.0,4348.0
32,JUNCTION BLVD,40.749203,-73.8693365,2218.0,5934.0,5520.0,6726.0,4254.0,2067.0,1296.0,3982.0,4921.0,5371.0,2950.0,1278.0,4317.0,10462.0,5404.0,12161.0,5038.0,1544.0,4418.0,10369.0,5518.0,12220.0,5078.0,1687.0,4416.0,10264.0,5286.0,12469.0,5347.0,1788.0,4481.0,10475.0,5558.0,11931.0,5279.0,1804.0,4035.0,9885.0,5743.0,11818.0,5470.0
33,DEKALB AV,40.68982020000001,-73.9811611,1103.0,5350.0,8674.0,9606.0,5228.0,1975.0,842.0,4058.0,7335.0,6776.0,3169.0,846.0,2522.0,16576.0,8571.0,13979.0,6091.0,1069.0,2650.0,17018.0,8686.0,13890.0,6180.0,1191.0,2622.0,16686.0,8583.0,14034.0,6279.0,1345.0,2665.0,15482.0,8798.0,13889.0,5859.0,1210.0,2318.0,13162.0,8386.0,12897.0,5536.0
34,BOROUGH HALL,40.6931492,-73.9900883,509.0,3726.0,7718.0,8253.0,4639.0,1523.0,321.0,2288.0,5561.0,5546.0,2490.0,520.0,1548.0,18359.0,13342.0,21745.0,7007.0,783.0,1605.0,18811.0,13848.0,22278.0,7551.0,883.0,1645.0,18436.0,14022.0,22131.0,7229.0,901.0,1545.0,17530.0,14044.0,21024.0,6549.0,882.0,1329.0,14339.0,13075.0,16324.0,5038.0
35,CROWN HTS-UTICA,40.6689469,-73.93183379999998,1590.0,5294.0,6286.0,7323.0,5028.0,2076.0,1133.0,3657.0,4920.0,5098.0,3604.0,1109.0,3930.0,14374.0,7270.0,12222.0,6883.0,1604.0,4062.0,14403.0,7099.0,12415.0,6797.0,1679.0,3980.0,14248.0,7322.0,12203.0,7089.0,1919.0,3855.0,14059.0,7304.0,12136.0,7062.0,1748.0,3511.0,12196.0,7595.0,11405.0,6068.0
36,8 ST-NYU,40.7306065,-73.99244159999998,351.0,2111.0,6070.0,8304.0,6342.0,2891.0,347.0,1441.0,4940.0,5910.0,3710.0,907.0,462.0,7015.0,4995.0,10478.0,5947.0,1026.0,520.0,7372.0,5501.0,11260.0,6738.0,816.0,510.0,6329.0,5194.0,10938.0,6305.0,859.0,476.0,6125.0,6129.0,11196.0,6161.0,852.0,416.0,4925.0,5290.0,9193.0,5310.0
37,CANAL ST,40.722713899999995,-74.00630600000001,394.0,2513.0,5747.0,6892.0,3699.0,1355.0,298.0,1693.0,4155.0,4310.0,1914.0,477.0,1181.0,10419.0,7040.0,14284.0,5051.0,928.0,1330.0,10663.0,7306.0,14567.0,5286.0,1032.0,1253.0,10038.0,7320.0,14820.0,5539.0,1217.0,1266.0,9686.0,7599.0,14676.0,5429.0,1096.0,1166.0,8330.0,7516.0,11949.0,4235.0
38,QUEENSBORO PLZ,40.7505127,-73.9398439,588.0,2639.0,4266.0,4336.0,2536.0,1110.0,467.0,1945.0,3072.0,2747.0,1322.0,475.0,870.0,5794.0,3266.0,6608.0,2298.0,784.0,1012.0,5604.0,3172.0,6676.0,2195.0,553.0,879.0,5561.0,3411.0,6415.0,2281.0,631.0,869.0,5448.0,3362.0,6280.0,2262.0,716.0,808.0,4551.0,3454.0,5720.0,2199.0
39,MYRTLE-WYCKOFF,40.699686,-73.9117713,1881.0,5924.0,7009.0,7664.0,5243.0,2438.0,1126.0,4101.0,5599.0,5275.0,3461.0,1150.0,2942.0,9539.0,5267.0,8355.0,4588.0,1365.0,2909.0,9879.0,5083.0,8158.0,4708.0,1355.0,2831.0,9768.0,5357.0,7979.0,5064.0,1527.0,2903.0,9455.0,5132.0,7671.0,4675.0,1542.0,2588.0,8298.0,5285.0,7329.0,4749.0
40,51 ST,40.757135,-73.97191190000001,736.0,3052.0,5823.0,8646.0,5102.0,1552.0,519.0,2260.0,4747.0,5015.0,2312.0,580.0,1465.0,14846.0,8699.0,16179.0,6088.0,1094.0,1585.0,14843.0,8938.0,17147.0,6498.0,1207.0,1478.0,15028.0,9329.0,16931.0,6535.0,1236.0,1487.0,13975.0,9533.0,16940.0,5747.0,1191.0,1339.0,11851.0,9074.0,13424.0,5055.0
41,COURT SQ,40.7467885,-73.944548,1306.0,4496.0,5758.0,6851.0,4202.0,1726.0,678.0,2744.0,4355.0,4671.0,2624.0,786.0,2095.0,12037.0,5448.0,12391.0,4718.0,1165.0,2096.0,12040.0,5066.0,12281.0,4709.0,1280.0,2158.0,11709.0,5217.0,11769.0,4689.0,1408.0,2201.0,11335.0,5223.0,11230.0,4319.0,1336.0,1907.0,9117.0,3579.0,6841.0,2381.0
42,JAMAICA CENTER,40.702144700000005,-73.8008771,1117.0,3310.0,3594.0,4155.0,2659.0,987.0,839.0,2077.0,2638.0,2746.0,1897.0,759.0,7732.0,19370.0,11427.0,19875.0,8889.0,2201.0,8210.0,19364.0,11008.0,19916.0,9591.0,2059.0,8141.0,18685.0,11053.0,19613.0,8962.0,2356.0,8047.0,18385.0,10796.0,18930.0,8803.0,2067.0,7133.0,16161.0,10021.0,16573.0,7850.0
43,49 ST,40.7598372,-73.98418249999999,893.0,4283.0,8265.0,12652.0,10416.0,4257.0,826.0,3139.0,7275.0,8524.0,4952.0,1490.0,1464.0,11919.0,7639.0,16591.0,8805.0,1953.0,1446.0,12004.0,8261.0,17483.0,9726.0,2125.0,1408.0,11820.0,8646.0,18029.0,9737.0,1975.0,1382.0,10988.0,8735.0,18400.0,9096.0,2131.0,1211.0,9674.0,8685.0,14838.0,8567.0
44,BOWLING GREEN,40.7048108,-74.0144596,659.0,3356.0,6047.0,5142.0,2215.0,877.0,432.0,2173.0,4067.0,3704.0,1574.0,541.0,2387.0,18712.0,9415.0,20300.0,4347.0,836.0,2369.0,19258.0,10324.0,21285.0,5291.0,1015.0,2555.0,18642.0,10365.0,20243.0,4960.0,947.0,2255.0,18023.0,10470.0,19947.0,4664.0,1023.0,1918.0,15164.0,9271.0,14981.0,3452.0
45,BLEECKER ST,40.7259346,-73.9946724,397.0,1508.0,4038.0,6313.0,3773.0,1901.0,359.0,1087.0,3463.0,4333.0,2110.0,677.0,529.0,5261.0,3839.0,7917.0,4604.0,863.0,535.0,5237.0,4065.0,8674.0,5194.0,1123.0,543.0,5143.0,4076.0,8349.0,5018.0,1121.0,509.0,4815.0,4247.0,8161.0,4316.0,1201.0,500.0,3841.0,4224.0,7471.0,3777.0
46,VERNON-JACKSON,40.7426713,-73.9537248,401.0,2312.0,4480.0,5008.0,3173.0,1177.0,228.0,1567.0,3303.0,3218.0,1635.0,307.0,1238.0,9580.0,3672.0,7201.0,3577.0,295.0,1192.0,9701.0,3721.0,7595.0,3894.0,662.0,1207.0,9624.0,3944.0,7533.0,3856.0,766.0,1248.0,9225.0,4068.0,7079.0,3601.0,706.0,983.0,7491.0,4158.0,6523.0,3326.0
47,28 ST,40.7470686,-73.99350919999998,417.0,2799.0,4887.0,6011.0,4186.0,1722.0,360.0,1847.0,4266.0,4483.0,2450.0,611.0,667.0,8418.0,5735.0,11086.0,4737.0,872.0,675.0,8673.0,6690.0,12242.0,5269.0,745.0,673.0,8327.0,6469.0,11644.0,5131.0,820.0,651.0,7480.0,6941.0,12264.0,4851.0,756.0,629.0,6629.0,6525.0,9430.0,3633.0
48,SUTPHIN-ARCHER,40.700572799999996,-73.8077071,1006.0,2672.0,3076.0,3310.0,2071.0,892.0,687.0,1653.0,2087.0,2250.0,1659.0,681.0,4284.0,11568.0,7520.0,13256.0,7036.0,1831.0,4858.0,11646.0,7414.0,12936.0,6521.0,1539.0,4519.0,11252.0,7398.0,13011.0,6224.0,1742.0,4416.0,11371.0,7618.0,13021.0,6556.0,1626.0,4160.0,10358.0,7934.0,12309.0,6553.0
49,FORDHAM RD,40.8614886,-73.8905408,1431.0,4034.0,4666.0,5340.0,3101.0,1160.0,1105.0,2674.0,3675.0,3597.0,1950.0,794.0,3159.0,8135.0,5457.0,8467.0,3175.0,1008.0,3178.0,8205.0,5443.0,8170.0,3399.0,1055.0,3211.0,8197.0,3029.0,5168.0,3554.0,1066.0,3186.0,8055.0,5498.0,8064.0,3487.0,1141.0,2898.0,7735.0,5413.0,7453.0,3454.0
50,HIGH ST,40.6993673,-73.99126559999998,166.0,1823.0,3740.0,4335.0,2219.0,697.0,117.0,1092.0,2510.0,2052.0,1063.0,223.0,702.0,6919.0,4342.0,6764.0,2949.0,358.0,753.0,6932.0,4325.0,7057.0,2853.0,388.0,725.0,6522.0,4368.0,6781.0,2830.0,414.0,718.0,6029.0,4113.0,6126.0,2461.0,443.0,588.0,4605.0,3214.0,5013.0,1997.0
51,BROOKLYN BRIDGE,40.6993673,-73.99126559999998,370.0,2260.0,4670.0,5195.0,2362.0,904.0,272.0,1410.0,2894.0,2463.0,1166.0,359.0,1268.0,11282.0,8631.0,13001.0,3506.0,592.0,1363.0,11583.0,8399.0,13003.0,3677.0,709.0,1332.0,11096.0,8257.0,12980.0,3560.0,693.0,1339.0,10638.0,8476.0,11494.0,2914.0,720.0,1131.0,8585.0,6722.0,9391.0,2485.0
52,103 ST-CORONA,40.7498268,-73.862746,2255.0,5888.0,5139.0,6498.0,4274.0,2142.0,1376.0,4064.0,4721.0,4798.0,2824.0,1416.0,4721.0,9598.0,4952.0,9564.0,4549.0,1621.0,4835.0,9602.0,4923.0,9696.0,4715.0,1788.0,4918.0,9550.0,4889.0,9518.0,5060.0,1849.0,4908.0,9484.0,4892.0,9668.0,5054.0,1894.0,4387.0,8988.0,5026.0,9114.0,5180.0
53,GRAND-NEWTOWN,40.736835,-73.87758840000001,1003.0,4565.0,4806.0,5388.0,3167.0,1180.0,664.0,3119.0,3925.0,4070.0,2237.0,763.0,2784.0,10293.0,4866.0,7862.0,4060.0,893.0,2854.0,10414.0,4919.0,8076.0,4163.0,882.0,2811.0,10236.0,4992.0,7845.0,4307.0,904.0,2792.0,10121.0,5150.0,8120.0,4135.0,940.0,2557.0,9370.0,4835.0,7764.0,3944.0
54,181 ST,40.84913,-73.93372889999998,862.0,3014.0,4390.0,4896.0,3350.0,1480.0,606.0,2128.0,3497.0,3826.0,2384.0,849.0,1385.0,6038.0,4695.0,7005.0,3593.0,1111.0,1447.0,5872.0,4466.0,7606.0,3689.0,1236.0,1414.0,6100.0,4694.0,7251.0,3804.0,1227.0,1447.0,6985.0,4709.0,7246.0,3715.0,1272.0,1308.0,5299.0,4744.0,6592.0,3424.0
55,167 ST,40.835598,-73.9213791,1097.0,2867.0,3025.0,3861.0,2443.0,1233.0,853.0,1975.0,2367.0,2867.0,1821.0,818.0,2228.0,5991.0,3499.0,6435.0,3134.0,1064.0,2203.0,6267.0,4469.0,6580.0,2925.0,1253.0,2221.0,6176.0,4306.0,6927.0,3291.0,1156.0,2279.0,5961.0,4710.0,6983.0,3226.0,1137.0,2079.0,5575.0,3839.0,,
56,82 ST-JACKSON H,40.7477145,-73.8839373,1115.0,4150.0,6996.0,7685.0,4589.0,2097.0,845.0,2647.0,5255.0,5428.0,2890.0,1031.0,1955.0,7412.0,6812.0,11253.0,4952.0,1172.0,1891.0,7409.0,6671.0,11144.0,5059.0,1382.0,1865.0,7301.0,6710.0,10982.0,5267.0,1484.0,1850.0,7171.0,6886.0,10564.0,5300.0,1486.0,1807.0,6704.0,6880.0,10231.0,5481.0
57,KINGS HWY,40.60867440000001,-73.9578059,699.0,3515.0,4618.0,5046.0,2979.0,1186.0,517.0,2915.0,3844.0,3859.0,2151.0,511.0,2437.0,11946.0,6410.0,11694.0,5413.0,792.0,2567.0,11030.0,6135.0,11355.0,5543.0,824.0,2503.0,12047.0,6377.0,11669.0,5609.0,813.0,2468.0,11921.0,6326.0,11402.0,5218.0,794.0,2177.0,10214.0,6867.0,9848.0,4067.0
58,3 AV-149 ST,40.816129,-73.917811,1177.0,4103.0,5161.0,3007.0,1481.0,876.0,831.0,2636.0,3448.0,3277.0,1768.0,624.0,2707.0,9139.0,7360.0,9449.0,3032.0,524.0,2770.0,9368.0,7173.0,9395.0,3220.0,379.0,2659.0,9181.0,7553.0,9445.0,3277.0,366.0,2575.0,9113.0,7702.0,9533.0,3246.0,327.0,2304.0,8122.0,6972.0,8613.0,3540.0
59,EAST BROADWAY,40.714402899999996,-73.98991880000001,422.0,2392.0,3682.0,4262.0,2914.0,1130.0,317.0,1706.0,3600.0,3430.0,1791.0,492.0,882.0,5666.0,4234.0,6615.0,2973.0,599.0,941.0,5819.0,4175.0,6688.0,2046.0,392.0,977.0,5759.0,4210.0,6849.0,3069.0,648.0,902.0,5656.0,4411.0,6683.0,3055.0,702.0,817.0,5302.0,4362.0,5985.0,3122.0
60,72 ST,40.778453000000006,-73.98196999999998,45.0,504.0,1238.0,1396.0,705.0,239.0,66.0,350.0,1133.0,1146.0,452.0,97.0,223.0,3943.0,3479.0,5186.0,2059.0,240.0,274.0,3930.0,3562.0,5174.0,2150.0,203.0,230.0,3928.0,3349.0,5231.0,2034.0,247.0,222.0,3649.0,3550.0,5107.0,1973.0,260.0,230.0,3550.0,3381.0,4623.0,1617.0
61,WALL ST,40.706396500000004,-74.0094441,340.0,2111.0,4169.0,4454.0,2644.0,1179.0,160.0,1598.0,3357.0,3131.0,1461.0,364.0,1522.0,17088.0,6487.0,17635.0,4750.0,572.0,1452.0,17287.0,6778.0,18007.0,5385.0,658.0,1526.0,17037.0,6820.0,17449.0,5320.0,715.0,1351.0,16172.0,6935.0,16940.0,4583.0,712.0,1100.0,10733.0,6996.0,12729.0,3371.0
62,21 ST-QNSBRIDGE,40.75417770000001,-73.94247419999998,341.0,1531.0,1807.0,1969.0,1131.0,581.0,272.0,1104.0,1324.0,1417.0,799.0,306.0,1163.0,4806.0,2854.0,5133.0,2293.0,641.0,1390.0,5138.0,3057.0,5026.0,2242.0,627.0,1380.0,5160.0,3029.0,5070.0,2324.0,683.0,1354.0,5272.0,3058.0,4872.0,2389.0,705.0,1239.0,4563.0,3177.0,4739.0,2288.0
63,HOYT-SCHER,40.688828799999996,-73.98531249999998,238.0,1724.0,3545.0,4393.0,2617.0,926.0,196.0,1342.0,3256.0,3234.0,1748.0,386.0,686.0,5328.0,4413.0,7170.0,3161.0,427.0,648.0,5325.0,4190.0,6814.0,3181.0,485.0,708.0,5187.0,4447.0,7004.0,3304.0,481.0,668.0,4933.0,4344.0,6988.0,2987.0,533.0,604.0,4236.0,4436.0,6455.0,2989.0
64,FRANKLIN AV,40.7190056,-74.0066801,479.0,2428.0,4008.0,4343.0,2954.0,1306.0,362.0,1748.0,3529.0,3227.0,1769.0,585.0,1046.0,7649.0,3153.0,5636.0,3771.0,693.0,1112.0,7901.0,3290.0,5536.0,3594.0,754.0,1086.0,7558.0,3273.0,5493.0,3642.0,811.0,1042.0,7224.0,3566.0,5337.0,3298.0,735.0,866.0,5971.0,3611.0,5057.0,2549.0
65,168 ST,40.841041,-73.939971,1110.0,4311.0,5910.0,6340.0,4202.0,1522.0,797.0,2973.0,4413.0,4559.0,2757.0,834.0,2288.0,13707.0,8492.0,14177.0,4880.0,1104.0,2472.0,13622.0,8309.0,15410.0,5287.0,1116.0,2269.0,13402.0,8251.0,13986.0,5066.0,1235.0,2330.0,13834.0,8395.0,14687.0,4697.0,1127.0,1624.0,11291.0,7610.0,11242.0,4405.0
66,NEVINS ST,40.6882963,-73.98052059999999,410.0,2244.0,3757.0,4481.0,2533.0,917.0,262.0,1170.0,2653.0,2560.0,1264.0,486.0,900.0,6173.0,4129.0,6973.0,2775.0,554.0,892.0,6264.0,4041.0,6967.0,2724.0,552.0,970.0,6087.0,4234.0,7143.0,2916.0,552.0,949.0,6039.0,4359.0,6394.0,2499.0,560.0,792.0,5087.0,4180.0,6519.0,2378.0
67,5 AVE,40.760216299999996,-73.975543,243.0,1356.0,3853.0,5700.0,3168.0,766.0,134.0,970.0,2859.0,3315.0,1204.0,232.0,683.0,6590.0,4451.0,10165.0,4138.0,521.0,747.0,6995.0,4574.0,10375.0,4529.0,605.0,768.0,6800.0,4793.0,10143.0,4590.0,711.0,758.0,6540.0,4818.0,10580.0,3767.0,680.0,714.0,5631.0,4813.0,8340.0,3370.0
68,PROSPECT PARK,40.66087879999999,-73.9621109,413.0,2010.0,3126.0,3807.0,2416.0,1106.0,388.0,1429.0,2594.0,2674.0,1613.0,544.0,915.0,5739.0,3043.0,5455.0,3517.0,746.0,1030.0,5916.0,2970.0,5458.0,3537.0,609.0,992.0,5764.0,3086.0,5365.0,3603.0,701.0,943.0,5646.0,3147.0,5149.0,3024.0,653.0,784.0,4944.0,3001.0,4736.0,2819.0
69,CENTRAL PK N110,40.798737599999995,-73.9522934,490.0,2194.0,3389.0,3715.0,2324.0,1028.0,396.0,1600.0,2677.0,2503.0,1624.0,498.0,838.0,5171.0,2773.0,4866.0,2184.0,590.0,975.0,5141.0,2924.0,5076.0,2325.0,587.0,978.0,5050.0,2949.0,4860.0,2296.0,639.0,944.0,4962.0,3069.0,4699.0,2143.0,566.0,512.0,2339.0,2633.0,4243.0,2017.0
70,LEXINGTON AV/53,40.757698100000006,-73.96907420000001,959.0,5579.0,8798.0,11403.0,7057.0,2428.0,658.0,3764.0,7690.0,7820.0,4040.0,918.0,3185.0,31658.0,13440.0,31408.0,11130.0,1622.0,3364.0,33409.0,14639.0,33658.0,12006.0,1705.0,3212.0,32414.0,14881.0,32704.0,11977.0,1918.0,3128.0,31042.0,16095.0,33220.0,11785.0,1897.0,2923.0,26722.0,16213.0,26757.0,8402.0
71,63 DR-REGO PARK,40.7301359,-73.86236729999999,446.0,2514.0,3966.0,3475.0,1628.0,528.0,331.0,1828.0,3192.0,3015.0,1395.0,296.0,1534.0,8034.0,4324.0,6171.0,2707.0,328.0,1602.0,8142.0,4390.0,6067.0,2685.0,415.0,1577.0,8052.0,4447.0,6249.0,2932.0,401.0,1526.0,7929.0,4535.0,6302.0,2692.0,416.0,1353.0,6881.0,4133.0,5779.0,2529.0
72,3 AV,40.733135299999994,-73.98675829999998,232.0,1076.0,2270.0,3397.0,3162.0,1419.0,207.0,779.0,2026.0,2503.0,1777.0,414.0,408.0,3185.0,2179.0,4087.0,2859.0,541.0,468.0,3158.0,2233.0,4282.0,2908.0,613.0,450.0,3104.0,2250.0,4211.0,2934.0,661.0,457.0,2937.0,2258.0,4335.0,2811.0,558.0,397.0,2602.0,2271.0,3754.0,2415.0
73,175 ST,40.847916600000005,-73.9394823,559.0,2380.0,3275.0,3627.0,2301.0,858.0,434.0,1687.0,2486.0,2771.0,1658.0,381.0,1506.0,6386.0,3124.0,5458.0,2635.0,501.0,1521.0,6419.0,3120.0,5565.0,2721.0,537.0,1485.0,6347.0,3451.0,5444.0,2753.0,530.0,1426.0,5473.0,3420.0,5223.0,2900.0,591.0,1362.0,5300.0,3250.0,5466.0,2506.0
74,53 ST,40.760216299999996,-73.975543,616.0,2433.0,3038.0,3590.0,2143.0,909.0,439.0,1793.0,2367.0,2529.0,1551.0,581.0,1381.0,5065.0,2933.0,5887.0,2692.0,691.0,1405.0,5318.0,3070.0,,,738.0,1355.0,5217.0,3153.0,5655.0,2745.0,713.0,1365.0,5118.0,2947.0,5587.0,2563.0,810.0,1260.0,4758.0,3000.0,5414.0,2519.0
75,110 ST,40.798737599999995,-73.9522934,588.0,2499.0,3171.0,3606.0,2194.0,1004.0,435.0,1601.0,2349.0,2505.0,1430.0,531.0,1122.0,6237.0,3703.0,6354.0,2593.0,710.0,1183.0,6323.0,3732.0,6065.0,2697.0,698.0,1140.0,6481.0,3935.0,6042.0,2670.0,815.0,1148.0,4835.0,3294.0,5993.0,2675.0,781.0,1066.0,6005.0,4138.0,6188.0,2833.0
76,BEDFORD-NOSTRAN,40.6898534,-73.9516398,607.0,2523.0,3531.0,3623.0,2516.0,1001.0,385.0,1773.0,2911.0,3021.0,1570.0,549.0,759.0,5142.0,2086.0,3443.0,2226.0,834.0,800.0,5256.0,2058.0,3461.0,2377.0,740.0,757.0,5137.0,2070.0,3323.0,2317.0,882.0,731.0,4868.0,2113.0,3235.0,2008.0,817.0,684.0,4054.0,2205.0,3098.0,1986.0
77,GRAHAM AV,40.714526299999996,-73.94438180000002,321.0,1587.0,3172.0,3485.0,2851.0,1301.0,205.0,1137.0,2738.0,2572.0,1529.0,327.0,668.0,5684.0,2604.0,4325.0,2554.0,486.0,665.0,5679.0,2490.0,4369.0,2873.0,761.0,672.0,5529.0,2733.0,4279.0,2518.0,563.0,655.0,5217.0,2756.0,4074.0,2460.0,526.0,548.0,4363.0,2826.0,3895.0,2360.0
78,46 ST BLISS ST,40.7430691,-73.91824030000002,847.0,3102.0,3925.0,4454.0,2832.0,1312.0,517.0,2056.0,3017.0,3155.0,1946.0,666.0,1664.0,6830.0,3703.0,6504.0,3370.0,832.0,1628.0,6869.0,3610.0,6480.0,3521.0,926.0,1639.0,6891.0,3779.0,6713.0,3518.0,998.0,1639.0,6811.0,3943.0,6113.0,3437.0,1003.0,1525.0,6016.0,3867.0,6208.0,3428.0
79,CHRISTOPHER ST,40.733578400000006,-74.00287279999998,347.0,1329.0,4152.0,5729.0,4698.0,2525.0,337.0,1089.0,3753.0,4294.0,2600.0,669.0,405.0,3953.0,3241.0,5519.0,3475.0,312.0,339.0,3909.0,3299.0,5688.0,3950.0,386.0,341.0,1873.0,1625.0,5745.0,3914.0,383.0,352.0,3744.0,3499.0,6249.0,4151.0,527.0,264.0,3008.0,3395.0,5214.0,3739.0
80,191 ST,40.855738,-73.9306512,644.0,2227.0,2767.0,3256.0,2316.0,1077.0,438.0,1438.0,2241.0,2746.0,1848.0,634.0,1027.0,4845.0,2926.0,5207.0,2821.0,846.0,1117.0,4810.0,2764.0,5507.0,2984.0,923.0,1066.0,4729.0,3084.0,5085.0,2974.0,994.0,1104.0,5342.0,2968.0,5291.0,3064.0,948.0,977.0,4201.0,3041.0,4556.0,2495.0
81,ROOSEVELT ISLND,40.7591362,-73.9533215,103.0,844.0,1558.0,1631.0,1018.0,413.0,131.0,744.0,1373.0,1313.0,694.0,184.0,444.0,4036.0,2191.0,3648.0,2122.0,333.0,467.0,4022.0,2325.0,3825.0,2236.0,318.0,477.0,4004.0,2256.0,3884.0,2241.0,383.0,441.0,4057.0,2471.0,3728.0,2064.0,350.0,409.0,3431.0,2210.0,3452.0,1909.0
82,BROADWAY JCT,40.6789137,-73.9039,816.0,2312.0,2660.0,2870.0,2088.0,1066.0,594.0,1585.0,1866.0,2052.0,1591.0,600.0,1512.0,4447.0,2808.0,4498.0,2268.0,748.0,1542.0,4369.0,2793.0,4382.0,2377.0,794.0,1555.0,4275.0,2749.0,4390.0,2357.0,854.0,1505.0,4296.0,2886.0,4372.0,2317.0,939.0,1365.0,3795.0,2837.0,4042.0,2365.0
83,HOYT ST,40.688828799999996,-73.98531249999998,162.0,1198.0,2913.0,3356.0,1763.0,469.0,116.0,952.0,2820.0,2636.0,1003.0,174.0,413.0,3944.0,2965.0,5260.0,1925.0,209.0,403.0,3875.0,2935.0,5486.0,2303.0,198.0,390.0,3821.0,3127.0,5527.0,2137.0,230.0,370.0,3707.0,3077.0,5572.0,1979.0,234.0,296.0,2890.0,3209.0,4778.0,1977.0
84,135 ST,40.817894,-73.947647,531.0,2509.0,3352.0,3590.0,2250.0,994.0,430.0,1860.0,2978.0,2442.0,1412.0,522.0,1109.0,6320.0,3548.0,5339.0,2450.0,1133.0,1259.0,6330.0,3572.0,5414.0,2508.0,767.0,1137.0,6278.0,3620.0,5228.0,2523.0,564.0,1003.0,6209.0,3643.0,5314.0,2372.0,597.0,753.0,2458.0,3560.0,4687.0,2331.0
85,ELMHURST AV,40.74244789999999,-73.88198440000001,678.0,2969.0,3069.0,2947.0,1525.0,434.0,494.0,2258.0,2513.0,2283.0,1121.0,255.0,1686.0,6462.0,2961.0,3559.0,1554.0,340.0,1754.0,6694.0,2859.0,3727.0,1595.0,333.0,1707.0,6588.0,2857.0,3561.0,1674.0,347.0,1732.0,6488.0,3062.0,3629.0,1634.0,371.0,,,,,
86,RECTOR ST,40.7078954,-74.01363649999998,306.0,1914.0,3407.0,3867.0,1647.0,712.0,160.0,1189.0,2173.0,1935.0,863.0,220.0,679.0,7252.0,4374.0,8674.0,2578.0,447.0,677.0,7441.0,4465.0,9311.0,2727.0,417.0,642.0,6929.0,4230.0,8976.0,2584.0,513.0,630.0,6982.0,4796.0,8887.0,2555.0,510.0,552.0,6039.0,4636.0,7058.0,2043.0
87,4AV-9 ST,40.6701803,-73.98929150000002,233.0,1543.0,2735.0,3217.0,1837.0,727.0,195.0,1072.0,2329.0,2213.0,1072.0,251.0,696.0,5600.0,2773.0,4563.0,2140.0,322.0,734.0,5702.0,2577.0,4837.0,2236.0,353.0,733.0,5641.0,2617.0,4637.0,2111.0,408.0,713.0,5465.0,2565.0,4638.0,2020.0,402.0,652.0,4510.0,2746.0,4230.0,1759.0
88,96 ST,40.7858701,-73.95093469999998,83.0,512.0,1230.0,1420.0,820.0,279.0,74.0,375.0,1041.0,1082.0,534.0,121.0,455.0,5419.0,3228.0,6385.0,2252.0,241.0,450.0,5588.0,3315.0,6399.0,2371.0,265.0,444.0,5642.0,3384.0,6406.0,2461.0,309.0,418.0,5383.0,3566.0,6408.0,2199.0,272.0,415.0,5152.0,3452.0,5496.0,1795.0
89,JAMAICA 179 ST,40.71264420000001,-73.7838184,1610.0,3690.0,3610.0,3863.0,2572.0,1101.0,1041.0,2536.0,2598.0,2540.0,1765.0,697.0,5136.0,11528.0,4023.0,6708.0,3262.0,857.0,5359.0,11540.0,4328.0,6672.0,3616.0,833.0,5360.0,11787.0,4223.0,6816.0,3498.0,896.0,5112.0,11483.0,4321.0,6601.0,3524.0,928.0,4472.0,10173.0,3862.0,6195.0,3080.0
90,BRIGHTON BEACH,40.5776648,-73.96127690000002,489.0,2249.0,2861.0,2775.0,1402.0,426.0,336.0,1702.0,2172.0,2125.0,1116.0,240.0,1401.0,5619.0,3872.0,5640.0,2494.0,319.0,1404.0,5619.0,3864.0,5792.0,2450.0,312.0,1369.0,5761.0,4043.0,5524.0,2396.0,396.0,1360.0,5323.0,3535.0,4986.0,2160.0,317.0,1196.0,4759.0,3378.0,4450.0,2044.0
91,CARROLL ST,40.679331299999994,-73.9954833,139.0,1436.0,2740.0,3109.0,1888.0,697.0,110.0,1092.0,2373.0,2201.0,1049.0,234.0,550.0,6957.0,2662.0,5073.0,2081.0,288.0,554.0,7090.0,2662.0,5355.0,2232.0,290.0,523.0,7011.0,2700.0,5337.0,2259.0,416.0,494.0,6609.0,2728.0,5138.0,2119.0,346.0,435.0,5281.0,3095.0,4686.0,1926.0
92,149/GRAND CONC,40.8183248,-73.9274121,753.0,2584.0,2848.0,3040.0,2058.0,999.0,583.0,1602.0,1859.0,2106.0,1258.0,615.0,1261.0,5527.0,4676.0,6474.0,2985.0,1896.0,1442.0,5439.0,4593.0,6474.0,2619.0,2012.0,1410.0,5578.0,4839.0,6587.0,2845.0,1455.0,1160.0,5371.0,4978.0,6175.0,2742.0,1450.0,1077.0,5221.0,4156.0,4933.0,2192.0
93,UNION ST,40.6771729,-73.98324670000001,199.0,1105.0,1963.0,2526.0,1548.0,787.0,163.0,823.0,1818.0,1958.0,987.0,244.0,561.0,4108.0,1803.0,3790.0,2311.0,371.0,567.0,4249.0,1840.0,3961.0,2219.0,388.0,544.0,4123.0,1924.0,4122.0,2250.0,497.0,510.0,3910.0,1921.0,3839.0,2114.0,455.0,436.0,3431.0,2028.0,3421.0,1657.0
94,111 ST,40.75172999999999,-73.855334,1366.0,3769.0,3206.0,3769.0,2442.0,1171.0,810.0,2635.0,2840.0,2974.0,1736.0,765.0,3288.0,6748.0,3193.0,5971.0,2771.0,841.0,3399.0,6706.0,3187.0,6092.0,2884.0,883.0,3301.0,6749.0,3232.0,6006.0,2915.0,906.0,3255.0,6799.0,3194.0,5909.0,2799.0,1004.0,2967.0,6299.0,3417.0,5425.0,2764.0
95,MONTROSE AV,40.7077716,-73.93986329999998,352.0,1385.0,2438.0,2679.0,2157.0,1055.0,321.0,1016.0,2020.0,2038.0,1172.0,340.0,540.0,3371.0,1803.0,2771.0,1633.0,412.0,611.0,3442.0,1724.0,2670.0,1813.0,450.0,589.0,3293.0,1821.0,2789.0,1825.0,477.0,575.0,3119.0,1742.0,2724.0,1787.0,499.0,517.0,2688.0,1792.0,2658.0,1574.0
96,MORGAN AV,40.70607589999999,-73.93370999999998,356.0,1193.0,2488.0,2855.0,2096.0,905.0,252.0,893.0,2022.0,1982.0,1126.0,375.0,589.0,3296.0,1795.0,2904.0,1712.0,482.0,616.0,3330.0,1785.0,3028.0,1592.0,385.0,614.0,3149.0,1885.0,3028.0,1583.0,447.0,598.0,3011.0,1861.0,3004.0,1681.0,,,2461.0,1802.0,2839.0,1653.0
97,90 ST-ELMHURST,40.748436700000006,-73.87652890000001,1382.0,4542.0,4074.0,4369.0,2504.0,1056.0,871.0,3057.0,3400.0,2921.0,1634.0,635.0,3138.0,7365.0,3887.0,5935.0,2871.0,813.0,3166.0,6103.0,3265.0,6052.0,2980.0,837.0,3120.0,7430.0,3739.0,5981.0,3041.0,836.0,3118.0,7348.0,3769.0,5923.0,3002.0,922.0,2789.0,6777.0,3827.0,5885.0,3112.0
98,6 AV,40.7373653,-73.99684529999998,157.0,694.0,1658.0,2411.0,1852.0,700.0,112.0,472.0,1504.0,1757.0,994.0,161.0,258.0,2136.0,1543.0,3077.0,1791.0,269.0,292.0,2115.0,1446.0,3216.0,1775.0,299.0,287.0,2121.0,1544.0,3016.0,1625.0,343.0,249.0,1971.0,1600.0,3114.0,1654.0,371.0,224.0,1703.0,1698.0,2675.0,1514.0
99,BOWERY,40.720166799999994,-73.99353470000001,230.0,1203.0,2047.0,2267.0,1488.0,721.0,186.0,850.0,1634.0,1646.0,945.0,298.0,300.0,1849.0,1575.0,2239.0,1172.0,340.0,280.0,1834.0,1483.0,2443.0,1328.0,428.0,286.0,1744.0,1533.0,2322.0,1432.0,485.0,322.0,1758.0,1567.0,2355.0,1325.0,421.0,274.0,1583.0,1502.0,2252.0,1373.0
100,BURNSIDE AV,40.85345299999999,-73.90768400000002,767.0,2173.0,2525.0,2417.0,1523.0,677.0,553.0,1375.0,1611.0,1828.0,1079.0,447.0,1565.0,4317.0,3186.0,4565.0,1927.0,589.0,1600.0,4531.0,4357.0,4773.0,1905.0,708.0,1552.0,4537.0,4490.0,4452.0,2039.0,608.0,1585.0,4342.0,4514.0,4572.0,2066.0,656.0,1466.0,3722.0,3125.0,3674.0,1840.0
101,45 ST,40.6493588,-74.00959069999998,471.0,1879.0,2254.0,2662.0,1409.0,631.0,338.0,1329.0,1859.0,1909.0,1066.0,359.0,1048.0,3985.0,1925.0,3609.0,1633.0,418.0,1086.0,4167.0,1950.0,3637.0,1741.0,414.0,1103.0,4044.0,2044.0,3558.0,1697.0,399.0,1046.0,3939.0,2031.0,3588.0,1632.0,449.0,945.0,3752.0,2249.0,3225.0,1613.0
102,170 ST,40.840050399999996,-73.9133477,786.0,2075.0,2381.0,2633.0,1552.0,612.0,549.0,1343.0,1709.0,1873.0,1082.0,512.0,1469.0,4031.0,2436.0,4262.0,1925.0,612.0,1475.0,3860.0,2080.0,4098.0,1832.0,636.0,1466.0,3647.0,2026.0,4085.0,2077.0,655.0,1446.0,3872.0,2228.0,4138.0,1856.0,542.0,1285.0,3853.0,2493.0,3861.0,1962.0
103,169 ST,40.7104152,-73.79374600000001,639.0,1873.0,2201.0,2726.0,1661.0,749.0,512.0,1230.0,1611.0,1786.0,1079.0,470.0,1301.0,4060.0,2702.0,4851.0,2178.0,586.0,1386.0,4112.0,2754.0,4783.0,2330.0,538.0,1354.0,4099.0,2891.0,4837.0,2190.0,682.0,1376.0,4148.0,2629.0,4694.0,2175.0,527.0,1196.0,3641.0,2354.0,4360.0,2011.0
104,74 ST-BROADWAY,40.746941899999996,-73.89146020000001,194.0,956.0,1635.0,2013.0,1393.0,582.0,162.0,666.0,1200.0,1314.0,1016.0,299.0,261.0,1446.0,1593.0,2582.0,1440.0,372.0,257.0,1249.0,1451.0,2462.0,1396.0,373.0,282.0,1311.0,1518.0,2507.0,1539.0,405.0,247.0,1350.0,1458.0,2308.0,1452.0,401.0,249.0,1204.0,1345.0,2423.0,1565.0
105,40 ST LOWERY ST,40.7438729,-73.92423409999998,459.0,2288.0,2802.0,3437.0,2311.0,972.0,329.0,1483.0,2134.0,2515.0,1467.0,425.0,1051.0,6077.0,3020.0,5841.0,3011.0,551.0,1090.0,6211.0,2928.0,5717.0,3010.0,610.0,1069.0,6165.0,3227.0,5630.0,2900.0,732.0,1017.0,5866.0,3179.0,5584.0,2933.0,710.0,969.0,5243.0,3488.0,5093.0,2657.0
106,CASTLE HILL AV,40.83429599999999,-73.85168399999998,605.0,1584.0,1967.0,2313.0,1471.0,759.0,471.0,1056.0,1351.0,1571.0,976.0,488.0,1434.0,3792.0,2162.0,3880.0,1900.0,731.0,1482.0,3724.0,2113.0,3956.0,2027.0,731.0,1505.0,3658.0,2093.0,4101.0,1988.0,745.0,1518.0,3719.0,2190.0,3878.0,2010.0,766.0,1298.0,3277.0,2269.0,3556.0,1840.0
107,HALSEY ST,40.69577750000001,-73.9044092,535.0,1375.0,1484.0,2490.0,1807.0,1080.0,457.0,1242.0,1709.0,1672.0,1213.0,439.0,1143.0,3914.0,1681.0,3386.0,1909.0,527.0,1236.0,4148.0,1789.0,3438.0,1912.0,568.0,1242.0,4007.0,1853.0,3372.0,1878.0,641.0,1251.0,3398.0,1723.0,3187.0,1939.0,657.0,1116.0,3576.0,1997.0,3047.0,1884.0
108,CLARK ST,40.6974878,-73.99314090000001,72.0,808.0,1948.0,2109.0,1313.0,445.0,56.0,649.0,1595.0,1414.0,766.0,108.0,276.0,2500.0,1564.0,2428.0,1133.0,155.0,241.0,2507.0,1510.0,2652.0,1193.0,185.0,289.0,2505.0,1507.0,2644.0,1250.0,143.0,249.0,2367.0,1488.0,2436.0,1230.0,147.0,194.0,1797.0,1478.0,2132.0,1069.0
109,SUTTER AV-RUTLD,40.664992100000006,-73.92290849999998,558.0,1497.0,1904.0,2271.0,1379.0,609.0,417.0,1105.0,1455.0,1517.0,1080.0,378.0,1345.0,3931.0,2569.0,4221.0,2081.0,572.0,1362.0,4027.0,2367.0,4504.0,2159.0,558.0,1315.0,4030.0,2431.0,4426.0,2226.0,621.0,1304.0,3996.0,2481.0,4185.0,2119.0,567.0,1089.0,3578.0,2683.0,3940.0,2037.0
110,EASTN PKWY-MUSM,40.671993799999996,-73.96420649999999,104.0,823.0,1987.0,2409.0,1199.0,591.0,105.0,580.0,1802.0,1965.0,702.0,176.0,269.0,2547.0,1175.0,2408.0,1461.0,240.0,276.0,2608.0,1233.0,2568.0,1584.0,322.0,288.0,2619.0,1478.0,2643.0,1583.0,331.0,265.0,2417.0,1499.0,2820.0,1512.0,317.0,240.0,2106.0,1552.0,2489.0,1086.0
111,BAY RIDGE AV,40.634968,-74.023376,385.0,1719.0,2357.0,2648.0,1904.0,688.0,297.0,1250.0,1940.0,2080.0,1271.0,284.0,1016.0,4809.0,2694.0,4519.0,2323.0,511.0,,,2591.0,4761.0,2779.0,517.0,1022.0,4929.0,2654.0,4595.0,2549.0,605.0,1018.0,4810.0,2684.0,4403.0,2443.0,623.0,908.0,4472.0,2603.0,4216.0,2128.0
112,OZONE PK LEFFRT,40.685956700000006,-73.8257601,736.0,1588.0,1414.0,1811.0,1231.0,506.0,436.0,1091.0,1107.0,1261.0,968.0,356.0,2266.0,4071.0,1879.0,3729.0,1892.0,53.0,2095.0,4040.0,1842.0,3453.0,2026.0,7.0,2118.0,4119.0,1825.0,3488.0,1919.0,2.0,2091.0,3910.0,1907.0,3601.0,1876.0,102.0,1751.0,3389.0,1900.0,3182.0,1671.0
113,JEFFERSON ST,40.7065868,-73.922872,534.0,1055.0,1854.0,1965.0,1592.0,1033.0,333.0,774.0,1569.0,1361.0,761.0,248.0,631.0,3024.0,1497.0,2341.0,1099.0,308.0,656.0,3098.0,1478.0,2447.0,1113.0,296.0,684.0,2974.0,1501.0,2377.0,1296.0,390.0,695.0,2908.0,1458.0,2255.0,1245.0,498.0,658.0,2466.0,1552.0,2226.0,1288.0
114,MORISN AV/SNDVW,40.8294898,-73.8746754,666.0,1727.0,460402.0,1916.0,1446.0,696.0,528.0,1038.0,1301.0,1423.0,933.0,499.0,1542.0,3288.0,1834.0,2938.0,1599.0,680.0,1582.0,3145.0,1589.0,2875.0,1673.0,660.0,1579.0,3258.0,1839.0,3013.0,1652.0,729.0,1572.0,3236.0,1788.0,2988.0,1626.0,702.0,1392.0,2950.0,1928.0,2649.0,1488.0
115,207 ST,40.8676635,-73.9212009,393.0,1454.0,1957.0,1915.0,1219.0,416.0,272.0,992.0,1416.0,1329.0,713.0,239.0,785.0,2800.0,1721.0,2626.0,1228.0,317.0,819.0,2788.0,1778.0,2680.0,1211.0,331.0,824.0,2920.0,1795.0,2663.0,1311.0,352.0,781.0,3351.0,1771.0,2623.0,1315.0,360.0,678.0,2474.0,1866.0,2452.0,1350.0
116,EUCLID AV,40.6754013,-73.8719033,710.0,2122.0,2061.0,1964.0,1232.0,497.0,492.0,1461.0,1579.0,1437.0,926.0,294.0,1729.0,5122.0,2437.0,2982.0,1372.0,640.0,2159.0,5301.0,2534.0,3046.0,1519.0,848.0,2091.0,5193.0,2522.0,3122.0,1442.0,973.0,2024.0,4955.0,2500.0,3058.0,1472.0,1100.0,1868.0,4425.0,2409.0,2877.0,1486.0
117,GRAND ARMY PLAZ,40.6752403,-73.97104159999998,87.0,950.0,2047.0,2023.0,1223.0,417.0,62.0,698.0,1704.0,1624.0,676.0,110.0,272.0,4086.0,1675.0,2853.0,1351.0,190.0,293.0,4133.0,1684.0,3013.0,1305.0,206.0,266.0,4076.0,1705.0,3131.0,1313.0,192.0,260.0,3804.0,1719.0,2838.0,1270.0,240.0,208.0,3024.0,1752.0,2411.0,1020.0
118,PARSONS BLVD,40.707714,-73.8028238,975.0,2377.0,2500.0,2942.0,1838.0,974.0,732.0,1736.0,1904.0,1927.0,1431.0,651.0,1390.0,3763.0,2310.0,3844.0,1683.0,580.0,1376.0,3817.0,2326.0,3916.0,1810.0,541.0,1388.0,3975.0,2547.0,3903.0,1778.0,563.0,1421.0,3848.0,2459.0,3858.0,1666.0,562.0,1312.0,3507.0,2144.0,3477.0,1731.0
119,231 ST,40.87899229999999,-73.904939,473.0,1747.0,2191.0,2184.0,1072.0,275.0,322.0,1236.0,1778.0,1501.0,697.0,163.0,1486.0,5056.0,2253.0,3182.0,1248.0,242.0,1577.0,5188.0,2225.0,3162.0,1284.0,253.0,1493.0,5050.0,2488.0,3338.0,1341.0,271.0,1469.0,5193.0,2343.0,3357.0,1304.0,265.0,1173.0,4368.0,2245.0,3005.0,1342.0
120,SMITH-9 ST,40.6746048,-73.99703970000002,255.0,1271.0,1817.0,1872.0,1107.0,399.0,132.0,703.0,1190.0,1324.0,653.0,195.0,653.0,3333.0,1893.0,3354.0,1188.0,280.0,693.0,3424.0,1827.0,3334.0,1319.0,235.0,692.0,3395.0,1899.0,3330.0,1348.0,300.0,634.0,3333.0,1802.0,3284.0,1332.0,264.0,568.0,2919.0,2063.0,2685.0,1109.0
121,4 AV-9 ST,40.6701803,-73.98929150000002,140.0,695.0,1297.0,1781.0,1187.0,559.0,130.0,451.0,1051.0,1194.0,638.0,180.0,313.0,2147.0,1160.0,2870.0,1541.0,268.0,355.0,2258.0,1030.0,2835.0,1634.0,321.0,354.0,2153.0,1028.0,2951.0,1531.0,300.0,329.0,2075.0,1137.0,2861.0,1389.0,304.0,317.0,1830.0,1490.0,2432.0,1149.0
122,67 AV,40.7263823,-73.8515929,244.0,1391.0,1865.0,1808.0,1124.0,395.0,183.0,1101.0,1532.0,1458.0,728.0,208.0,944.0,5493.0,2142.0,3417.0,1734.0,254.0,1023.0,5630.0,2107.0,3550.0,1735.0,290.0,1001.0,5541.0,2120.0,3323.0,1827.0,245.0,989.0,5487.0,2108.0,3498.0,1704.0,282.0,826.0,4777.0,2045.0,3106.0,1326.0
123,ROCKAWAY AV,40.6625632,-73.9089054,369.0,1162.0,1511.0,1709.0,1078.0,528.0,292.0,860.0,1122.0,1150.0,753.0,338.0,863.0,3022.0,1929.0,3215.0,1336.0,426.0,905.0,3034.0,1755.0,3360.0,1466.0,430.0,854.0,3053.0,1877.0,2993.0,1476.0,460.0,851.0,3085.0,1947.0,3078.0,1349.0,443.0,789.0,2606.0,1924.0,2985.0,1384.0
124,PELHAM BAY PARK,40.852930799999996,-73.8270555,440.0,1280.0,1638.0,1799.0,1135.0,437.0,298.0,860.0,1304.0,1327.0,793.0,318.0,1432.0,3998.0,1786.0,2778.0,1264.0,407.0,1521.0,4003.0,1842.0,2708.0,1295.0,406.0,1460.0,4015.0,1740.0,2827.0,1349.0,443.0,1475.0,4014.0,1788.0,2730.0,1181.0,451.0,1322.0,3414.0,1659.0,2516.0,1253.0
125,CLASSON AV,40.688873,-73.96007,146.0,938.0,1474.0,1780.0,1126.0,469.0,113.0,629.0,1219.0,1326.0,752.0,183.0,455.0,3301.0,1616.0,3308.0,1899.0,312.0,479.0,3458.0,1588.0,3183.0,1871.0,296.0,457.0,3370.0,1560.0,3125.0,1978.0,292.0,455.0,3167.0,1671.0,3250.0,1778.0,279.0,426.0,2749.0,1677.0,2875.0,1589.0
126,NEW LOTS AV,40.6663015,-73.88371579999998,539.0,1293.0,1556.0,1625.0,1253.0,640.0,440.0,965.0,1167.0,1232.0,930.0,486.0,1339.0,3225.0,1971.0,3349.0,1803.0,602.0,1357.0,3263.0,1881.0,3591.0,1712.0,631.0,1359.0,3177.0,1987.0,3273.0,1858.0,659.0,1340.0,3152.0,1945.0,3390.0,1820.0,627.0,1183.0,2695.0,2047.0,3098.0,1659.0
127,GRANT AV,40.6768777,-73.86534619999998,524.0,1555.0,1490.0,1647.0,1113.0,552.0,354.0,1058.0,1078.0,1127.0,858.0,385.0,1078.0,3442.0,1913.0,3014.0,1594.0,60.0,1001.0,3482.0,1803.0,2903.0,1667.0,53.0,932.0,3454.0,1795.0,2872.0,1670.0,63.0,977.0,3335.0,1897.0,2862.0,1698.0,18.0,845.0,3003.0,1834.0,2771.0,1572.0
128,STERLING ST,40.6632908,-73.951044,208.0,1103.0,1580.0,1581.0,1010.0,412.0,172.0,794.0,1331.0,1257.0,638.0,207.0,600.0,3275.0,1659.0,2376.0,1289.0,234.0,607.0,3302.0,1594.0,2446.0,1422.0,273.0,593.0,3359.0,1597.0,2535.0,1422.0,334.0,593.0,3258.0,1604.0,2615.0,1258.0,282.0,541.0,2786.0,1772.0,2341.0,1133.0
129,PROSPECT AV,40.66541369999999,-73.99292590000002,180.0,1003.0,1417.0,1818.0,1083.0,525.0,147.0,654.0,1186.0,1097.0,637.0,204.0,566.0,4036.0,1506.0,3072.0,1430.0,265.0,608.0,4080.0,1581.0,3378.0,1474.0,309.0,529.0,3995.0,1629.0,2999.0,1490.0,364.0,524.0,3803.0,1600.0,3017.0,1308.0,375.0,476.0,3244.0,1812.0,2686.0,1149.0
130,18 ST,40.74122390000001,-73.9980319,156.0,920.0,2708.0,3326.0,1595.0,606.0,131.0,612.0,2109.0,2324.0,939.0,194.0,269.0,3578.0,3034.0,5767.0,2270.0,109.0,252.0,3838.0,3071.0,6062.0,2433.0,122.0,251.0,3656.0,3451.0,5858.0,2455.0,125.0,232.0,3590.0,3308.0,6261.0,2189.0,136.0,210.0,2823.0,3112.0,4588.0,1788.0
131,SARATOGA AV,40.669094,-73.91828199999998,407.0,1168.0,1326.0,1532.0,1054.0,531.0,300.0,791.0,854.0,1116.0,863.0,323.0,1138.0,3046.0,1667.0,3151.0,1722.0,379.0,1248.0,3034.0,1616.0,3259.0,1834.0,405.0,1202.0,3085.0,1718.0,3240.0,1739.0,461.0,1174.0,2923.0,1651.0,2994.0,1774.0,404.0,1024.0,2716.0,1833.0,2878.0,1582.0
132,WILSON AV,40.6887823,-73.90467240000001,289.0,972.0,1330.0,1633.0,1405.0,859.0,273.0,750.0,1251.0,1351.0,928.0,359.0,539.0,2453.0,1262.0,2407.0,1534.0,410.0,594.0,2446.0,1254.0,2358.0,1500.0,431.0,620.0,2483.0,1379.0,2400.0,1632.0,473.0,584.0,2402.0,1380.0,2241.0,1532.0,504.0,541.0,2117.0,1420.0,2120.0,1413.0
133,V.CORTLANDT PK,40.89642429999999,-73.8852842,485.0,1522.0,1703.0,1834.0,1130.0,476.0,312.0,937.0,1205.0,1148.0,698.0,221.0,1609.0,4017.0,1573.0,2793.0,1042.0,290.0,1666.0,4092.0,1539.0,2760.0,1230.0,283.0,1685.0,4030.0,1636.0,2687.0,1189.0,302.0,1636.0,3903.0,1650.0,2719.0,1159.0,310.0,1366.0,3450.0,1584.0,2495.0,1195.0
134,WESTCHESTER SQ,40.840124700000004,-73.84282579999999,401.0,1319.0,1431.0,1631.0,955.0,426.0,316.0,767.0,944.0,1017.0,635.0,297.0,1056.0,3636.0,2191.0,3740.0,1431.0,486.0,1107.0,3718.0,2159.0,3740.0,1432.0,501.0,1066.0,3698.0,2207.0,3709.0,1524.0,522.0,1061.0,3525.0,2244.0,3510.0,1490.0,485.0,950.0,3177.0,2128.0,3119.0,1251.0
135,FAR ROCKAWAY,40.6077527,-73.7517548,532.0,1051.0,1032.0,1502.0,824.0,441.0,385.0,816.0,772.0,990.0,729.0,329.0,1284.0,2223.0,1443.0,2943.0,1217.0,375.0,1264.0,2355.0,1293.0,2813.0,1255.0,337.0,1224.0,2383.0,1498.0,2845.0,1387.0,354.0,1188.0,2393.0,1491.0,2742.0,1353.0,387.0,1031.0,2163.0,1509.0,2468.0,1135.0
136,WOODLAWN,40.88603699999999,-73.878751,413.0,1216.0,1184.0,1359.0,847.0,378.0,243.0,572.0,833.0,824.0,548.0,213.0,1412.0,2579.0,1290.0,2040.0,878.0,349.0,1397.0,2680.0,1187.0,2006.0,879.0,326.0,1372.0,2694.0,1244.0,2136.0,918.0,418.0,1374.0,2581.0,1239.0,1966.0,879.0,372.0,1211.0,1756.0,1187.0,1786.0,844.0
137,CORTELYOU RD,40.6412697,-73.9639694,289.0,1292.0,1658.0,1533.0,809.0,288.0,212.0,986.0,1439.0,1203.0,508.0,137.0,757.0,3453.0,1426.0,1874.0,791.0,153.0,749.0,3548.0,1437.0,1882.0,733.0,131.0,774.0,3497.0,1475.0,1863.0,843.0,153.0,756.0,3449.0,1554.0,1829.0,868.0,180.0,648.0,2917.0,1621.0,1793.0,851.0
138,BERGEN ST,40.686083200000006,-73.9909074,77.0,635.0,1337.0,1660.0,1121.0,571.0,83.0,533.0,1611.0,1468.0,553.0,135.0,205.0,2625.0,1000.0,1845.0,1128.0,155.0,207.0,2696.0,935.0,2118.0,1308.0,258.0,184.0,2598.0,1053.0,2088.0,1264.0,262.0,184.0,2496.0,1073.0,1961.0,1095.0,228.0,155.0,2005.0,1207.0,1838.0,891.0
139,BEDFORD PK BLVD,40.8732636,-73.8871965,384.0,1181.0,1445.0,1428.0,908.0,462.0,242.0,754.0,1329.0,1471.0,612.0,229.0,953.0,2698.0,1636.0,3060.0,1249.0,399.0,962.0,2577.0,1509.0,3120.0,1284.0,375.0,945.0,2537.0,1382.0,3004.0,1211.0,395.0,915.0,2584.0,1435.0,2914.0,1109.0,365.0,886.0,2364.0,1386.0,2551.0,976.0
140,HARLEM 148 ST,40.8240504,-73.9369385,184.0,885.0,1191.0,1368.0,911.0,400.0,160.0,651.0,1002.0,923.0,682.0,200.0,496.0,2681.0,1288.0,2220.0,1122.0,419.0,510.0,2749.0,1331.0,2433.0,1289.0,467.0,546.0,2650.0,1300.0,2257.0,1216.0,539.0,517.0,2602.0,1233.0,2449.0,1223.0,518.0,335.0,789.0,1319.0,2026.0,1059.0
141,BAY RIDGE-95 ST,40.6167174,-74.0308527,,,,,,,,,,,,,,,,,,,,,,,,,,,,,,,,,,,,,,,,,
142,CLINTON-WASH AV,40.683498900000004,-73.9668944,168.0,1198.0,1702.0,2099.0,1560.0,726.0,148.0,705.0,1568.0,1456.0,826.0,257.0,470.0,4948.0,1893.0,3538.0,1767.0,376.0,506.0,4967.0,1916.0,3303.0,1609.0,330.0,454.0,4992.0,1934.0,3398.0,1754.0,394.0,394.0,4449.0,2107.0,3521.0,1695.0,370.0,372.0,3884.0,2365.0,3074.0,1492.0
143,KINGSTON-THROOP,40.679826500000004,-73.94112940000001,292.0,1297.0,1878.0,2181.0,1483.0,995.0,351.0,970.0,1786.0,1652.0,1098.0,504.0,687.0,3952.0,1937.0,3261.0,1809.0,651.0,703.0,3876.0,1938.0,3400.0,2124.0,723.0,680.0,3810.0,2144.0,3109.0,2073.0,775.0,654.0,3585.0,2034.0,3176.0,1760.0,585.0,591.0,3154.0,2266.0,2823.0,1639.0
144,ST LAWRENCE AV,40.8315326,-73.8672593,485.0,1072.0,1142.0,1401.0,907.0,515.0,354.0,765.0,898.0,1028.0,654.0,391.0,986.0,2126.0,1243.0,2183.0,1060.0,576.0,994.0,2123.0,1116.0,2275.0,1118.0,496.0,983.0,2143.0,1203.0,2141.0,1187.0,501.0,993.0,2156.0,1256.0,2240.0,1077.0,558.0,879.0,1928.0,1347.0,1918.0,1090.0
145,176 ST,40.8484597,-73.9117411,478.0,1472.0,1560.0,1577.0,913.0,405.0,384.0,892.0,1084.0,1163.0,733.0,293.0,1090.0,3014.0,1738.0,2694.0,1169.0,368.0,1066.0,3087.0,1844.0,2890.0,1087.0,390.0,1122.0,3054.0,1746.0,2573.0,1146.0,358.0,1069.0,3007.0,,,1058.0,346.0,937.0,2666.0,1761.0,2349.0,1223.0
146,FULTON ST,40.709893,-74.0079818,101.0,700.0,1498.0,1817.0,1072.0,329.0,70.0,471.0,1342.0,1405.0,565.0,153.0,337.0,2615.0,1990.0,3899.0,1551.0,180.0,361.0,2669.0,1336.0,2491.0,1978.0,205.0,349.0,2755.0,1974.0,3899.0,1783.0,182.0,335.0,2591.0,2017.0,3787.0,1645.0,214.0,300.0,2280.0,2154.0,3641.0,1737.0
147,AVENUE J,40.6252684,-73.9607296,229.0,1093.0,1247.0,1413.0,778.0,247.0,202.0,1093.0,1352.0,1267.0,668.0,154.0,657.0,3258.0,1811.0,2684.0,1175.0,187.0,681.0,3112.0,1845.0,2528.0,1177.0,176.0,677.0,3270.0,1774.0,2769.0,1238.0,212.0,645.0,3150.0,1867.0,2725.0,1178.0,189.0,575.0,2775.0,1899.0,2032.0,855.0
148,183 ST,40.8583924,-73.90397810000002,571.0,1376.0,1386.0,1489.0,1009.0,361.0,421.0,908.0,1086.0,1124.0,689.0,253.0,1197.0,2753.0,1562.0,2207.0,1131.0,335.0,1212.0,2736.0,1268.0,2265.0,1141.0,390.0,1170.0,2784.0,1330.0,2265.0,1076.0,378.0,1200.0,2674.0,1319.0,2204.0,1160.0,363.0,1057.0,2702.0,1582.0,2083.0,1068.0
149,18 AV,40.6201053,-73.9894661,13.0,12.0,10.0,5.0,2.0,2.0,3.0,5.0,7.0,5.0,1.0,0.0,1324.0,5345.0,2638.0,3822.0,1475.0,260.0,1444.0,5327.0,2462.0,3705.0,1552.0,300.0,1393.0,5329.0,2667.0,4017.0,1583.0,350.0,1430.0,5385.0,2699.0,3905.0,1413.0,331.0,1266.0,4793.0,2613.0,3530.0,1325.0
150,KINGSTON AV,40.669284499999996,-73.9422927,201.0,802.0,1108.0,1279.0,1039.0,548.0,186.0,823.0,1326.0,1358.0,762.0,234.0,454.0,2678.0,1525.0,2277.0,1330.0,382.0,452.0,2609.0,1496.0,2397.0,1322.0,325.0,462.0,2584.0,1566.0,2230.0,1494.0,320.0,456.0,2541.0,1534.0,2339.0,1360.0,351.0,394.0,2254.0,2036.0,1964.0,955.0
151,BEVERLEY ROAD,40.644229100000004,-73.96449799999998,163.0,687.0,1004.0,1352.0,941.0,465.0,162.0,529.0,856.0,922.0,640.0,214.0,394.0,1992.0,866.0,1701.0,1152.0,285.0,412.0,2017.0,834.0,1703.0,1162.0,279.0,406.0,2001.0,959.0,1839.0,1186.0,283.0,396.0,1923.0,950.0,1775.0,1047.0,239.0,358.0,1764.0,918.0,1517.0,1017.0
152,71 ST,40.619621200000005,-73.99877699999998,5.0,1.0,4.0,3.0,0.0,0.0,0.0,1.0,0.0,0.0,0.0,0.0,935.0,3273.0,1172.0,1670.0,839.0,149.0,968.0,3299.0,1130.0,1666.0,883.0,152.0,993.0,3260.0,1210.0,1638.0,917.0,170.0,990.0,3187.0,1194.0,1589.0,878.0,168.0,843.0,2885.0,1115.0,1589.0,864.0
153,ST. GEORGE,40.64400390000001,-74.07332480000001,320.0,807.0,929.0,1140.0,771.0,436.0,236.0,514.0,653.0,695.0,461.0,203.0,1579.0,4672.0,1651.0,5261.0,1507.0,301.0,1589.0,4765.0,1539.0,5027.0,1703.0,442.0,1582.0,4648.0,1574.0,4977.0,1934.0,406.0,1612.0,4683.0,1558.0,5212.0,1677.0,381.0,1292.0,3676.0,1571.0,4222.0,1434.0
154,MT EDEN AV,40.844528499999996,-73.9146157,477.0,1364.0,1459.0,1493.0,1049.0,417.0,315.0,934.0,1102.0,1109.0,690.0,354.0,1104.0,2895.0,1718.0,2658.0,1163.0,423.0,1132.0,2876.0,1654.0,2789.0,1115.0,451.0,1147.0,2777.0,1618.0,2613.0,1254.0,451.0,1065.0,2860.0,1730.0,2656.0,1193.0,454.0,980.0,2576.0,1596.0,2383.0,1293.0
155,MARBLE HILL-225,40.8743487,-73.91043309999998,268.0,881.0,1077.0,1046.0,656.0,154.0,157.0,639.0,955.0,1031.0,488.0,140.0,719.0,2357.0,1318.0,1988.0,866.0,156.0,701.0,2341.0,1198.0,2080.0,817.0,158.0,682.0,2358.0,1411.0,1947.0,840.0,167.0,685.0,2336.0,1321.0,2023.0,955.0,186.0,618.0,2056.0,1386.0,1812.0,852.0
156,174-175 STS,40.846524,-73.90972690000001,,,,,,,,,,,,,,,,,,,,,,,,,,,,,,,,,,,,,,,,,
157,33 ST-RAWSON ST,40.744587,-73.93099699999998,362.0,1591.0,1959.0,1777.0,785.0,245.0,277.0,692.0,1001.0,1202.0,412.0,177.0,1034.0,5955.0,4181.0,6898.0,2038.0,229.0,1028.0,5447.0,4035.0,6787.0,1800.0,267.0,962.0,5281.0,3744.0,6260.0,1410.0,269.0,1000.0,4928.0,3223.0,5876.0,1298.0,237.0,926.0,4455.0,2811.0,3898.0,895.0
158,CITY HALL,40.7135245,-74.00671009999998,70.0,423.0,1111.0,1060.0,437.0,172.0,38.0,147.0,265.0,379.0,216.0,89.0,210.0,2567.0,2188.0,4269.0,1117.0,134.0,232.0,2584.0,2314.0,4440.0,1132.0,103.0,228.0,2470.0,2227.0,4311.0,1125.0,110.0,212.0,2336.0,2304.0,4026.0,925.0,134.0,175.0,1978.0,1983.0,3316.0,818.0
159,182-183 STS,40.8560934,-73.90102949999998,436.0,989.0,968.0,1129.0,786.0,360.0,325.0,708.0,790.0,847.0,497.0,282.0,900.0,1955.0,1191.0,1647.0,807.0,346.0,928.0,2135.0,1179.0,1755.0,831.0,397.0,924.0,2167.0,1304.0,1689.0,869.0,361.0,887.0,2096.0,1251.0,1634.0,767.0,293.0,854.0,2091.0,1264.0,1489.0,766.0
160,PRESIDENT ST,40.668158500000004,-73.95065859999998,163.0,806.0,1179.0,1306.0,858.0,429.0,131.0,494.0,931.0,1050.0,606.0,175.0,389.0,2883.0,1411.0,2644.0,1259.0,230.0,377.0,2865.0,1352.0,2620.0,1267.0,279.0,357.0,2873.0,1530.0,2524.0,1269.0,248.0,367.0,2834.0,1531.0,2710.0,1293.0,343.0,340.0,2524.0,1413.0,2313.0,929.0
161,77 ST,40.7736346,-73.95982939999998,202.0,993.0,1193.0,1160.0,745.0,221.0,114.0,686.0,858.0,763.0,397.0,102.0,731.0,3264.0,1238.0,1808.0,836.0,150.0,756.0,3265.0,1221.0,1899.0,1006.0,149.0,780.0,3265.0,1237.0,1900.0,867.0,185.0,730.0,3133.0,1257.0,1999.0,866.0,179.0,618.0,2588.0,1172.0,1806.0,795.0
162,GUN HILL RD,40.87773920000001,-73.86630459999998,285.0,801.0,792.0,749.0,492.0,133.0,201.0,499.0,587.0,497.0,332.0,119.0,1388.0,2648.0,1142.0,1254.0,525.0,145.0,1353.0,2662.0,1084.0,1282.0,544.0,142.0,1418.0,2655.0,1213.0,1289.0,578.0,155.0,1328.0,2641.0,1219.0,1329.0,535.0,130.0,1136.0,2212.0,1079.0,1156.0,571.0
163,79 ST,40.783934,-73.979917,2.0,2.0,3.0,0.0,0.0,0.0,1.0,1.0,2.0,4.0,1.0,0.0,974.0,,1281.0,1753.0,806.0,126.0,1005.0,3823.0,,1727.0,872.0,116.0,1017.0,3819.0,1332.0,1599.0,904.0,171.0,1013.0,3825.0,1408.0,1683.0,740.0,153.0,898.0,3443.0,1281.0,1487.0,851.0
164,190 ST,40.858887700000004,-73.93422159999999,106.0,755.0,1218.0,1047.0,535.0,186.0,89.0,578.0,988.0,765.0,293.0,80.0,421.0,2657.0,931.0,1397.0,544.0,83.0,448.0,2606.0,1016.0,1426.0,626.0,77.0,404.0,2712.0,1076.0,1302.0,574.0,114.0,379.0,2180.0,929.0,1455.0,573.0,92.0,341.0,2194.0,1013.0,1365.0,553.0
165,20 AV,40.617271,-73.9847709,2.0,1.0,0.0,2.0,0.0,0.0,2.0,1.0,1.0,2.0,1.0,0.0,766.0,2567.0,1016.0,1504.0,749.0,85.0,841.0,2509.0,997.0,1483.0,768.0,97.0,863.0,2548.0,981.0,1473.0,722.0,100.0,804.0,2601.0,1001.0,1436.0,704.0,113.0,748.0,2379.0,967.0,1447.0,729.0
166,25 ST,40.6604039,-73.99810550000001,195.0,725.0,1014.0,1116.0,650.0,365.0,135.0,540.0,860.0,841.0,499.0,174.0,435.0,2258.0,1079.0,1887.0,980.0,231.0,483.0,2262.0,24721168.0,999.0,330.0,66.0,290.0,1708.0,701.0,989.0,400.0,73.0,307.0,24725727.0,755.0,1929.0,887.0,343.0,407.0,2022.0,1261.0,1802.0,768.0
167,BRIARWOOD,40.7093666,-73.81988539999998,321.0,1233.0,1449.0,1486.0,771.0,318.0,228.0,768.0,1000.0,871.0,477.0,172.0,800.0,2812.0,1436.0,1952.0,969.0,206.0,802.0,2924.0,1348.0,1945.0,1008.0,218.0,803.0,2796.0,1445.0,2034.0,928.0,223.0,771.0,2772.0,1660.0,1844.0,951.0,225.0,710.0,2275.0,1076.0,1638.0,836.0
168,AQUEDUCT RACETR,40.6721498,-73.8356843,186.0,78.0,382.0,824.0,517.0,223.0,177.0,66.0,345.0,677.0,384.0,116.0,124.0,174.0,474.0,535.0,294.0,94.0,139.0,176.0,359.0,518.0,278.0,110.0,94.0,157.0,332.0,574.0,339.0,136.0,132.0,164.0,405.0,714.0,359.0,87.0,120.0,128.0,315.0,596.0,457.0
169,PENNSYLVANIA AV,40.6646911,-73.8941747,247.0,843.0,1076.0,1005.0,689.0,262.0,162.0,597.0,780.0,658.0,471.0,170.0,744.0,2296.0,1333.0,1968.0,800.0,221.0,707.0,2373.0,1235.0,1995.0,847.0,182.0,731.0,2331.0,1251.0,1939.0,878.0,194.0,709.0,2212.0,1260.0,1835.0,801.0,236.0,660.0,1989.0,1292.0,1699.0,821.0
170,AVENUE M,40.6180725,-73.9593745,169.0,933.0,1055.0,1057.0,592.0,190.0,127.0,867.0,1155.0,996.0,479.0,87.0,550.0,3427.0,1652.0,2489.0,834.0,85.0,588.0,3285.0,1867.0,2296.0,803.0,88.0,531.0,3545.0,1752.0,2434.0,816.0,110.0,545.0,3466.0,1749.0,2446.0,994.0,130.0,476.0,3085.0,2055.0,1861.0,552.0
171,OCEAN PKWY,40.5762935,-73.9684997,143.0,646.0,892.0,852.0,470.0,130.0,94.0,523.0,683.0,603.0,320.0,59.0,398.0,1493.0,1058.0,1202.0,541.0,90.0,359.0,1473.0,1030.0,1290.0,554.0,99.0,375.0,1548.0,1038.0,1270.0,623.0,90.0,166.0,689.0,1049.0,1338.0,549.0,92.0,330.0,1373.0,963.0,1069.0,485.0
172,AVENUE H,40.6297445,-73.96166170000001,158.0,636.0,826.0,931.0,574.0,244.0,111.0,514.0,682.0,671.0,460.0,117.0,318.0,2246.0,1303.0,1871.0,962.0,164.0,314.0,2098.0,1368.0,1809.0,992.0,152.0,355.0,2032.0,1392.0,1903.0,889.0,186.0,327.0,2022.0,1356.0,1852.0,849.0,214.0,293.0,1571.0,1082.0,1342.0,668.0
173,JUNIUS ST,40.67504,-73.904496,125.0,600.0,683.0,779.0,507.0,204.0,124.0,385.0,472.0,561.0,369.0,121.0,377.0,1347.0,806.0,1501.0,657.0,174.0,376.0,1392.0,778.0,1628.0,666.0,189.0,360.0,1423.0,804.0,1587.0,673.0,193.0,353.0,1307.0,794.0,1550.0,637.0,180.0,299.0,1261.0,868.0,1342.0,630.0
174,NECK RD,40.595153100000005,-73.9550266,211.0,1010.0,831.0,862.0,443.0,129.0,168.0,716.0,734.0,675.0,305.0,80.0,625.0,2557.0,866.0,1344.0,690.0,98.0,591.0,2605.0,810.0,1505.0,668.0,97.0,587.0,2524.0,855.0,1431.0,709.0,115.0,592.0,2612.0,848.0,1502.0,682.0,118.0,569.0,2332.0,885.0,1259.0,660.0
175,VAN SICLEN AV,40.67274219999999,-73.8903155,227.0,643.0,788.0,921.0,644.0,293.0,181.0,431.0,581.0,609.0,482.0,25.0,172.0,1780.0,993.0,1698.0,969.0,292.0,635.0,1739.0,851.0,1846.0,928.0,263.0,626.0,1716.0,914.0,1638.0,1024.0,285.0,577.0,1729.0,,,,,,,,,
176,138/GRAND CONC,40.8132249,-73.9298111,375.0,762.0,774.0,828.0,511.0,252.0,237.0,347.0,430.0,461.0,275.0,181.0,762.0,1682.0,1087.0,1800.0,609.0,226.0,750.0,1697.0,1127.0,1855.0,635.0,251.0,714.0,1683.0,1132.0,1865.0,707.0,269.0,705.0,1641.0,1194.0,1711.0,603.0,215.0,697.0,1877.0,1140.0,1532.0,684.0
177,BEVERLY RD,40.8322067,-73.3848891,238.0,766.0,,737.0,482.0,145.0,171.0,488.0,668.0,582.0,284.0,74.0,678.0,2244.0,903.0,1026.0,464.0,97.0,683.0,2273.0,857.0,974.0,513.0,135.0,696.0,2236.0,900.0,1059.0,510.0,142.0,671.0,2248.0,897.0,974.0,454.0,166.0,605.0,1937.0,914.0,981.0,587.0
178,75 AV,40.718331,-73.837324,65.0,528.0,745.0,746.0,381.0,142.0,59.0,456.0,679.0,465.0,254.0,61.0,271.0,1953.0,756.0,1010.0,478.0,66.0,286.0,2033.0,762.0,1041.0,482.0,84.0,266.0,2039.0,790.0,1033.0,444.0,94.0,295.0,1898.0,804.0,1035.0,520.0,85.0,248.0,1742.0,805.0,897.0,421.0
179,BUSHWICK AV,40.7002958,-73.94116439999998,125.0,523.0,667.0,693.0,622.0,299.0,113.0,326.0,567.0,558.0,411.0,151.0,284.0,1158.0,543.0,952.0,637.0,162.0,267.0,1144.0,567.0,1040.0,661.0,200.0,294.0,1120.0,612.0,1013.0,583.0,213.0,284.0,1086.0,613.0,957.0,586.0,163.0,257.0,967.0,582.0,776.0,575.0
180,BEACH 67 ST,40.5909714,-73.79631690000001,228.0,476.0,521.0,538.0,315.0,181.0,169.0,333.0,422.0,343.0,313.0,143.0,544.0,1073.0,602.0,953.0,511.0,152.0,595.0,1085.0,578.0,909.0,575.0,117.0,569.0,1065.0,651.0,942.0,508.0,151.0,556.0,1039.0,603.0,863.0,597.0,146.0,506.0,894.0,615.0,808.0,497.0
181,WHITLOCK AV,40.82674420000001,-73.88634559999998,221.0,519.0,476.0,623.0,473.0,253.0,165.0,343.0,397.0,414.0,282.0,149.0,400.0,1233.0,592.0,1178.0,499.0,256.0,408.0,1214.0,469.0,1096.0,502.0,267.0,419.0,1265.0,574.0,1173.0,502.0,297.0,417.0,1258.0,580.0,1120.0,547.0,291.0,394.0,1086.0,723.0,1000.0,514.0
182,W 8 ST-AQUARIUM,40.57612779999999,-73.97596539999998,51.0,361.0,451.0,490.0,215.0,86.0,43.0,332.0,397.0,341.0,171.0,33.0,224.0,1157.0,981.0,834.0,236.0,38.0,215.0,1161.0,903.0,781.0,260.0,47.0,221.0,1054.0,879.0,880.0,280.0,47.0,216.0,1039.0,816.0,858.0,258.0,51.0,192.0,1003.0,765.0,717.0,242.0
183,PARK PLACE,40.7132422,-74.0092559,48.0,225.0,558.0,619.0,269.0,93.0,23.0,134.0,339.0,320.0,134.0,24.0,171.0,1845.0,1042.0,2276.0,633.0,61.0,182.0,1818.0,996.0,2223.0,622.0,83.0,203.0,1859.0,1083.0,2204.0,640.0,52.0,176.0,1757.0,1118.0,2063.0,554.0,59.0,125.0,1184.0,997.0,1699.0,412.0
184,215 ST,40.8695946,-73.9153019,73.0,281.0,418.0,477.0,249.0,108.0,64.0,215.0,367.0,345.0,171.0,66.0,142.0,723.0,605.0,716.0,305.0,66.0,145.0,749.0,613.0,718.0,307.0,61.0,132.0,779.0,708.0,985.0,320.0,62.0,130.0,858.0,537.0,722.0,287.0,79.0,127.0,660.0,511.0,563.0,270.0
185,HOWARD BCH JFK,40.660476,-73.83030099999998,121.0,290.0,367.0,450.0,348.0,239.0,118.0,269.0,427.0,512.0,448.0,203.0,385.0,780.0,472.0,647.0,473.0,195.0,367.0,713.0,486.0,694.0,448.0,169.0,369.0,686.0,507.0,656.0,451.0,176.0,378.0,698.0,460.0,735.0,473.0,186.0,301.0,584.0,518.0,743.0,591.0
186,BEACH 25 ST,40.59946790000001,-73.7618536,188.0,392.0,381.0,513.0,386.0,212.0,140.0,266.0,344.0,336.0,300.0,154.0,549.0,1104.0,573.0,1067.0,634.0,179.0,559.0,1154.0,553.0,1083.0,619.0,183.0,493.0,1128.0,594.0,1089.0,678.0,197.0,483.0,1129.0,584.0,955.0,679.0,179.0,474.0,945.0,598.0,937.0,531.0
187,BEACH 60 ST,40.59244,-73.78928300000003,225.0,410.0,397.0,552.0,347.0,231.0,193.0,320.0,353.0,388.0,315.0,137.0,582.0,1008.0,600.0,906.0,487.0,152.0,591.0,987.0,571.0,942.0,509.0,168.0,594.0,1002.0,587.0,992.0,520.0,172.0,549.0,1013.0,566.0,923.0,538.0,178.0,515.0,869.0,571.0,816.0,516.0
188,ATLANTIC AV,40.675554,-73.90305759999998,70.0,291.0,264.0,367.0,262.0,108.0,53.0,169.0,206.0,268.0,163.0,64.0,269.0,1031.0,419.0,815.0,316.0,62.0,284.0,962.0,408.0,888.0,329.0,65.0,300.0,997.0,425.0,854.0,307.0,59.0,295.0,971.0,399.0,850.0,361.0,71.0,261.0,943.0,448.0,721.0,335.0
189,BEACH 36 ST,40.595532,-73.7681238,97.0,197.0,190.0,297.0,218.0,107.0,84.0,158.0,179.0,216.0,177.0,78.0,276.0,476.0,271.0,563.0,309.0,71.0,277.0,515.0,244.0,587.0,321.0,100.0,252.0,509.0,277.0,571.0,372.0,96.0,242.0,540.0,271.0,547.0,334.0,92.0,224.0,442.0,293.0,497.0,313.0
190,55 ST,40.6315514,-73.9956328,4.0,2.0,0.0,0.0,1.0,2.0,2.0,1.0,1.0,1.0,1.0,0.0,190.0,1052.0,701.0,1143.0,407.0,41.0,172.0,810.0,576.0,1084.0,378.0,60.0,192.0,1052.0,753.0,1113.0,409.0,61.0,198.0,1034.0,675.0,1127.0,418.0,23.0,44.0,974.0,750.0,875.0,212.0
191,104 ST,40.695145600000004,-73.8443046,246.0,540.0,431.0,394.0,230.0,80.0,149.0,403.0,390.0,303.0,162.0,52.0,831.0,1459.0,626.0,697.0,337.0,30.0,821.0,1491.0,632.0,694.0,343.0,25.0,774.0,1484.0,603.0,763.0,325.0,27.0,782.0,1530.0,573.0,722.0,387.0,26.0,709.0,1370.0,595.0,915.0,509.0
192,BEACH 44 ST,40.592920899999996,-73.77594839999998,105.0,200.0,177.0,264.0,175.0,95.0,67.0,127.0,135.0,161.0,132.0,60.0,225.0,380.0,194.0,438.0,269.0,77.0,216.0,404.0,227.0,399.0,227.0,77.0,224.0,402.0,219.0,454.0,265.0,96.0,202.0,387.0,209.0,435.0,247.0,86.0,207.0,339.0,230.0,347.0,225.0
193,WORLD TRADE CTR,40.712645200000004,-74.00989799999998,194.0,2292.0,4843.0,5616.0,2554.0,375.0,117.0,1738.0,4217.0,3778.0,1518.0,173.0,1002.0,9869.0,5948.0,12652.0,3794.0,513.0,1341.0,9864.0,5926.0,13242.0,4058.0,513.0,1219.0,9487.0,5742.0,12997.0,3993.0,556.0,1157.0,9032.0,6056.0,12578.0,3941.0,619.0,1075.0,7454.0,6216.0,10322.0,3230.0
194,NASSAU AV,40.7238944,-73.9506777,23.0,6.0,3.0,4.0,6.0,3.0,3.0,3.0,3.0,5.0,2.0,0.0,830.0,6166.0,2872.0,6409.0,2763.0,2.0,962.0,6350.0,2857.0,6716.0,2898.0,8.0,854.0,6270.0,3097.0,6476.0,2957.0,5.0,832.0,5856.0,3213.0,6338.0,2682.0,17.0,749.0,5150.0,3203.0,5180.0,1915.0
195,39 AV,40.752689700000005,-73.9328056,,,,,,,,,,,,,,,,,,,,,,,,,,,,,,,,,,,,,,,,,
196,36 AV,40.7668516,-73.921313,271.0,1255.0,1807.0,1803.0,1039.0,457.0,207.0,804.0,1300.0,1262.0,715.0,202.0,973.0,6463.0,3090.0,6453.0,3360.0,747.0,1046.0,6460.0,3100.0,6199.0,3566.0,772.0,991.0,6564.0,3144.0,6476.0,3470.0,867.0,973.0,6630.0,3200.0,6148.0,3242.0,871.0,915.0,5554.0,3211.0,5977.0,2930.0
197,BROADWAY,40.7623472,-73.9256595,,,,,,,,,,,,,,,,,,,,,,,,,,,,,,,,,,,,,,,,,
198,COURT SQ-23 ST,40.748050799999994,-73.94704779999998,181.0,816.0,1156.0,1254.0,653.0,162.0,106.0,585.0,1013.0,931.0,460.0,95.0,438.0,2860.0,1479.0,2767.0,851.0,120.0,549.0,2877.0,1398.0,3009.0,890.0,122.0,511.0,2747.0,1425.0,2852.0,1029.0,103.0,505.0,2683.0,1604.0,2868.0,901.0,121.0,436.0,2459.0,1777.0,2449.0,738.0
199,ASTORIA DITMARS,40.7750119,-73.91211,582.0,2592.0,3871.0,4442.0,3053.0,1607.0,439.0,1692.0,2864.0,2923.0,1951.0,673.0,1754.0,8859.0,3888.0,7471.0,4556.0,1060.0,1773.0,9024.0,4131.0,7449.0,4707.0,1098.0,1638.0,9346.0,4096.0,7661.0,4880.0,1258.0,1637.0,8952.0,4314.0,7129.0,4159.0,1223.0,1468.0,7456.0,4063.0,6762.0,3706.0
200,CYPRESS HILLS,40.68994860000001,-73.87257310000003,107.0,263.0,252.0,265.0,171.0,92.0,69.0,177.0,221.0,215.0,130.0,36.0,334.0,758.0,353.0,644.0,235.0,53.0,317.0,795.0,359.0,693.0,247.0,62.0,313.0,817.0,409.0,640.0,274.0,56.0,335.0,787.0,373.0,637.0,251.0,47.0,300.0,710.0,357.0,590.0,251.0
201,30 AV,40.7668516,-73.921313,420.0,1993.0,3091.0,3122.0,1771.0,652.0,286.0,1374.0,2305.0,2090.0,1134.0,260.0,1484.0,10586.0,4671.0,9296.0,5643.0,1234.0,1615.0,10734.0,4759.0,8940.0,5750.0,1277.0,1505.0,10588.0,4647.0,9041.0,5649.0,1417.0,1551.0,10155.0,4713.0,8917.0,5350.0,1442.0,1397.0,8473.0,4793.0,8267.0,4571.0
202,121 ST,40.7006094,-73.8281286,156.0,382.0,405.0,550.0,306.0,164.0,118.0,244.0,322.0,416.0,235.0,97.0,351.0,886.0,529.0,1047.0,555.0,536.0,412.0,913.0,500.0,1023.0,595.0,424.0,444.0,902.0,574.0,1076.0,666.0,435.0,438.0,892.0,525.0,1003.0,542.0,177.0,322.0,743.0,554.0,972.0,375.0
203,75 ST-ELDERTS,40.69143649999999,-73.8665512,293.0,789.0,662.0,770.0,432.0,188.0,214.0,624.0,776.0,628.0,484.0,146.0,812.0,2083.0,869.0,1658.0,652.0,148.0,812.0,2090.0,818.0,1606.0,683.0,174.0,830.0,2117.0,946.0,1690.0,687.0,141.0,839.0,2090.0,851.0,1664.0,709.0,175.0,749.0,1954.0,971.0,1440.0,648.0
204,AVENUE X,40.589682200000006,-73.9742509,0.0,0.0,0.0,0.0,0.0,0.0,0.0,0.0,0.0,0.0,0.0,0.0,396.0,1509.0,700.0,1156.0,594.0,96.0,478.0,1459.0,703.0,1124.0,600.0,130.0,468.0,1515.0,688.0,1223.0,561.0,126.0,461.0,1432.0,722.0,1152.0,601.0,136.0,435.0,1329.0,704.0,1046.0,456.0
205,AVENUE P,40.6087814,-73.97290840000001,0.0,0.0,0.0,0.0,0.0,0.0,0.0,0.0,0.0,0.0,0.0,0.0,316.0,1395.0,482.0,802.0,346.0,73.0,349.0,1369.0,486.0,840.0,343.0,73.0,349.0,1364.0,483.0,864.0,371.0,100.0,351.0,1398.0,480.0,856.0,349.0,87.0,323.0,1211.0,527.0,669.0,317.0
206,85 ST-FOREST PK,40.6924861,-73.8590708,270.0,,,694.0,419.0,180.0,188.0,503.0,564.0,447.0,260.0,117.0,849.0,1876.0,892.0,1348.0,628.0,167.0,841.0,1823.0,896.0,1435.0,679.0,152.0,856.0,1888.0,893.0,1371.0,634.0,145.0,859.0,1866.0,919.0,1334.0,627.0,159.0,751.0,1622.0,864.0,1289.0,595.0
207,WOODHAVEN BLVD,40.6939097,-73.85139269999998,301.0,896.0,838.0,1011.0,589.0,220.0,194.0,583.0,762.0,794.0,493.0,167.0,910.0,2418.0,1116.0,1940.0,762.0,176.0,903.0,2470.0,1147.0,1896.0,761.0,190.0,909.0,2394.0,1091.0,2013.0,778.0,204.0,889.0,2377.0,1111.0,2008.0,769.0,211.0,757.0,2121.0,1092.0,1707.0,756.0
208,METROPOLITAN AV,40.712132700000005,-73.889276,0.0,0.0,0.0,0.0,1.0,0.0,0.0,0.0,0.0,0.0,0.0,0.0,710.0,2201.0,1182.0,2492.0,786.0,146.0,752.0,2245.0,1074.0,2409.0,887.0,141.0,743.0,2194.0,1257.0,2428.0,884.0,161.0,775.0,2171.0,1178.0,2492.0,921.0,166.0,685.0,1865.0,1172.0,2103.0,592.0
209,GREENPOINT AV,40.7301618,-73.9540458,0.0,0.0,1.0,2.0,1.0,0.0,0.0,3.0,1.0,2.0,0.0,1.0,580.0,3853.0,1796.0,3576.0,1450.0,0.0,613.0,4118.0,1819.0,3684.0,1547.0,31.0,642.0,3846.0,2025.0,3703.0,1780.0,0.0,590.0,3664.0,1977.0,3783.0,1485.0,6.0,541.0,3289.0,2593.0,3891.0,1629.0
