,StationName,Latitude,Longitude,2018-08-25 00:00:00,2018-08-25 04:00:00,2018-08-25 08:00:00,2018-08-25 12:00:00,2018-08-25 16:00:00,2018-08-25 20:00:00,2018-08-26 00:00:00,2018-08-26 04:00:00,2018-08-26 08:00:00,2018-08-26 12:00:00,2018-08-26 16:00:00,2018-08-26 20:00:00,2018-08-27 00:00:00,2018-08-27 04:00:00,2018-08-27 08:00:00,2018-08-27 12:00:00,2018-08-27 16:00:00,2018-08-27 20:00:00,2018-08-28 00:00:00,2018-08-28 04:00:00,2018-08-28 08:00:00,2018-08-28 12:00:00,2018-08-28 16:00:00,2018-08-28 20:00:00,2018-08-29 00:00:00,2018-08-29 04:00:00,2018-08-29 08:00:00,2018-08-29 12:00:00,2018-08-29 16:00:00,2018-08-29 20:00:00,2018-08-30 00:00:00,2018-08-30 04:00:00,2018-08-30 08:00:00,2018-08-30 12:00:00,2018-08-30 16:00:00,2018-08-30 20:00:00,2018-08-31 00:00:00,2018-08-31 04:00:00,2018-08-31 08:00:00,2018-08-31 12:00:00,2018-08-31 16:00:00
0,34 ST-HERALD SQ,40.748897899999996,-73.98878859999998,5531.0,4669.0,18297.0,29431.0,33808.0,20713.0,4260.0,3204.0,14201.0,24656.0,27991.0,14810.0,1880.0,16924.0,58765.0,41857.0,82439.0,24584.0,2734.0,16691.0,60463.0,43144.0,83491.0,26976.0,2974.0,16972.0,57914.0,41167.0,82776.0,27264.0,2802.0,11436.0,39550.0,44266.0,81711.0,27963.0,3379.0,14602.0,50176.0,58940.0,65332.0
1,TIMES SQ-42 ST,40.7545563,-73.98667370000001,7382.0,4856.0,18441.0,30436.0,37706.0,29951.0,7423.0,3252.0,15464.0,26614.0,29514.0,19680.0,3610.0,13748.0,46785.0,31786.0,62550.0,22490.0,4607.0,14566.0,42865.0,28283.0,66345.0,27387.0,4686.0,13978.0,49423.0,35385.0,65051.0,26093.0,4635.0,13581.0,47235.0,36459.0,63879.0,27724.0,5463.0,11942.0,39884.0,41555.0,47231.0
2,34 ST-PENN STA,40.751056,-73.99031020000001,4699.0,6093.0,21336.0,28970.0,31287.0,19351.0,3803.0,3644.0,17760.0,25832.0,29057.0,15479.0,1997.0,24213.0,56677.0,36370.0,74196.0,19139.0,2197.0,24597.0,58379.0,37668.0,76270.0,20919.0,2507.0,24614.0,58265.0,37183.0,72574.0,19481.0,2392.0,23413.0,56747.0,38319.0,73219.0,20903.0,2810.0,19684.0,46488.0,52585.0,54110.0
3,59 ST COLUMBUS,40.7684839,-73.98180699999999,2854.0,3040.0,12396.0,19947.0,21114.0,11040.0,2443.0,2245.0,10471.0,18258.0,18110.0,8513.0,1245.0,9729.0,30127.0,26148.0,40154.0,13929.0,1690.0,10315.0,31266.0,27161.0,41049.0,14630.0,1693.0,10110.0,31636.0,27746.0,41155.0,15007.0,1784.0,10012.0,31162.0,29006.0,41188.0,15487.0,2074.0,8195.0,24392.0,29999.0,28163.0
4,86 ST,40.7795016,-73.95557240000001,1332.0,2281.0,8866.0,14073.0,14758.0,7057.0,1184.0,1549.0,6762.0,11926.0,10561.0,4449.0,656.0,9679.0,22612.0,18550.0,28900.0,8858.0,853.0,9960.0,24002.0,19887.0,29679.0,9466.0,890.0,10093.0,23252.0,19353.0,27939.0,9454.0,1042.0,9848.0,24313.0,19963.0,27860.0,9361.0,1108.0,8820.0,21298.0,23615.0,24954.0
5,GRD CNTRL-42 ST,40.75216470000001,-73.97715339999998,2626.0,3343.0,13668.0,18465.0,18403.0,10381.0,2056.0,2029.0,10324.0,15062.0,16407.0,8239.0,1132.0,14444.0,39923.0,23030.0,46297.0,12075.0,2418.0,15108.0,40684.0,24225.0,47828.0,12697.0,1948.0,14769.0,40047.0,24140.0,47655.0,12635.0,2252.0,14462.0,40003.0,25591.0,47084.0,13541.0,2509.0,11753.0,33205.0,32928.0,34962.0
6,59 ST,40.6415685,-74.0176783,2520.0,5562.0,14987.0,20048.0,19366.0,10189.0,2052.0,3409.0,11436.0,16422.0,15596.0,7159.0,1371.0,11875.0,28790.0,21497.0,36599.0,10532.0,1432.0,12046.0,30765.0,21929.0,36785.0,11324.0,1609.0,11794.0,30302.0,22163.0,36869.0,11344.0,1643.0,11627.0,31007.0,23658.0,36851.0,11676.0,1775.0,10265.0,26096.0,27421.0,26402.0
7,FLUSHING-MAIN,40.75955820000001,-73.82992209999998,2374.0,6321.0,16079.0,18013.0,19857.0,12109.0,2258.0,3518.0,12650.0,14610.0,15825.0,8933.0,1361.0,15579.0,23572.0,17481.0,28721.0,13230.0,1799.0,15676.0,23378.0,16448.0,28778.0,13597.0,1926.0,15624.0,23655.0,16755.0,26638.0,14327.0,2004.0,15443.0,23927.0,17148.0,28505.0,13948.0,2042.0,14283.0,22824.0,19654.0,27740.0
8,ATL AV-BARCLAY,40.6837598,-73.97875739999998,2238.0,2126.0,7708.0,13303.0,13587.0,8185.0,2008.0,1575.0,6180.0,11842.0,13433.0,8253.0,1134.0,7591.0,19092.0,18156.0,28928.0,7435.0,974.0,7765.0,18398.0,13691.0,24707.0,8007.0,1050.0,7351.0,18234.0,13728.0,24533.0,8441.0,998.0,7285.0,18054.0,14543.0,29518.0,13800.0,1469.0,6485.0,15726.0,18162.0,26519.0
9,23 ST,40.7413626,-73.9891335,1859.0,1745.0,7266.0,12661.0,13462.0,7582.0,1709.0,1114.0,5640.0,10479.0,10668.0,5075.0,660.0,4543.0,20276.0,15809.0,30010.0,9302.0,877.0,5085.0,21610.0,17039.0,31189.0,10180.0,900.0,4897.0,21482.0,16633.0,30696.0,10151.0,974.0,4830.0,20439.0,17532.0,30273.0,10207.0,1171.0,3979.0,16274.0,20256.0,21801.0
10,42 ST-PORT AUTH,40.7578346,-73.99146259999998,2068.0,5133.0,15045.0,16281.0,17018.0,11666.0,1872.0,2863.0,12244.0,14243.0,15744.0,11102.0,1106.0,18937.0,29300.0,16943.0,34159.0,11402.0,1380.0,19340.0,30832.0,17062.0,34811.0,11816.0,1274.0,18509.0,30950.0,17674.0,33353.0,11705.0,1379.0,18373.0,30179.0,18054.0,34173.0,13130.0,1585.0,16061.0,25337.0,23350.0,29214.0
11,14 ST,40.73747540000001,-73.9970975,2206.0,1361.0,5475.0,9904.0,10674.0,6490.0,1794.0,941.0,4385.0,8725.0,9135.0,4576.0,665.0,4601.0,19526.0,14719.0,26994.0,8613.0,1039.0,5080.0,20118.0,15068.0,27830.0,9479.0,1042.0,4836.0,19322.0,15309.0,27438.0,9768.0,1104.0,4679.0,19059.0,15701.0,27049.0,10097.0,1379.0,4170.0,16516.0,19001.0,21774.0
12,JKSN HT-ROOSVLT,40.746739,-73.89099859999999,3736.0,5815.0,12871.0,15517.0,16148.0,11172.0,3623.0,3913.0,10681.0,14117.0,13645.0,9310.0,2212.0,10752.0,19061.0,16728.0,22124.0,10503.0,2143.0,11303.0,19761.0,17228.0,23156.0,10856.0,2375.0,11113.0,19775.0,16767.0,23285.0,10937.0,2355.0,11233.0,19734.0,16939.0,23051.0,11139.0,2550.0,10434.0,19026.0,19483.0,22322.0
13,BEDFORD AV,40.717354,-73.956972,3015.0,1322.0,7403.0,17676.0,16882.0,9573.0,2880.0,962.0,5717.0,11650.0,11775.0,5672.0,845.0,3644.0,11816.0,8104.0,15545.0,6859.0,484.0,3619.0,11391.0,7795.0,15289.0,7557.0,788.0,3636.0,11770.0,8062.0,15156.0,7748.0,815.0,3418.0,11968.0,6626.0,15117.0,7989.0,1337.0,3130.0,10182.0,11178.0,14656.0
14,47-50 STS ROCK,40.75885,-73.98118610000002,1376.0,1304.0,3777.0,5308.0,6578.0,3708.0,750.0,854.0,2978.0,4537.0,5046.0,2516.0,481.0,9339.0,35340.0,17306.0,39693.0,7565.0,1311.0,10055.0,37562.0,18938.0,40973.0,8359.0,1263.0,9606.0,36713.0,18778.0,40796.0,8464.0,1235.0,9123.0,37630.0,19162.0,39202.0,8290.0,1386.0,8099.0,28441.0,25802.0,27832.0
15,34 ST-HUDSON YD,40.7549713,-74.0010084,375.0,1128.0,2220.0,3516.0,2973.0,1420.0,242.0,504.0,1204.0,2016.0,2565.0,1057.0,163.0,3448.0,5511.0,4795.0,6153.0,1528.0,348.0,3214.0,5604.0,4535.0,6048.0,1657.0,296.0,3469.0,5403.0,4798.0,5681.0,1652.0,341.0,3498.0,5386.0,5055.0,6104.0,1777.0,171.0,3086.0,4283.0,5985.0,4502.0
16,CHAMBERS ST,40.7155134,-74.00922270000001,1461.0,1814.0,7919.0,12002.0,11873.0,6447.0,1179.0,1053.0,6201.0,10605.0,9650.0,4715.0,592.0,8753.0,29799.0,24736.0,37765.0,9819.0,1234.0,9523.0,31369.0,26352.0,39548.0,10403.0,1248.0,9321.0,30449.0,25459.0,37736.0,10734.0,1157.0,8689.0,29125.0,26699.0,37730.0,10550.0,1413.0,7429.0,24586.0,29102.0,25667.0
17,125 ST,40.8043863,-73.9374292,2368.0,3398.0,10005.0,12648.0,12722.0,8166.0,2261.0,2052.0,8235.0,11119.0,10398.0,5991.0,1357.0,6366.0,14013.0,12454.0,18235.0,7584.0,1327.0,6561.0,14487.0,12638.0,18587.0,7894.0,1419.0,6509.0,14697.0,12496.0,18291.0,8337.0,1478.0,6565.0,14564.0,13084.0,19286.0,9291.0,1733.0,5938.0,13457.0,15526.0,17415.0
18,57 ST-7 AV,40.765564000000005,-73.9803309,1515.0,1915.0,6454.0,9780.0,10438.0,6184.0,1404.0,1307.0,5936.0,8494.0,8740.0,4680.0,592.0,4322.0,14936.0,10987.0,20449.0,6530.0,1009.0,4608.0,16056.0,11489.0,21086.0,7462.0,983.0,4556.0,15815.0,11733.0,20715.0,7668.0,1033.0,4300.0,14902.0,8591.0,14781.0,7633.0,1296.0,3822.0,12481.0,14058.0,14671.0
19,GRAND ST,40.7182003,-73.9935756,537.0,646.0,1563.0,2062.0,1981.0,1238.0,351.0,348.0,1086.0,1719.0,1623.0,927.0,195.0,4303.0,12913.0,11063.0,14671.0,4269.0,16.0,4220.0,12935.0,10431.0,14704.0,4465.0,8.0,4152.0,12418.0,10117.0,14604.0,4641.0,2.0,3801.0,12511.0,10956.0,15065.0,5286.0,14.0,4018.0,12136.0,12878.0,15260.0
20,145 ST,40.8240532,-73.94476230000001,3051.0,3916.0,10586.0,12812.0,10005.0,7077.0,3007.0,2686.0,8913.0,12168.0,11082.0,6437.0,1808.0,6630.0,14823.0,11806.0,17692.0,8453.0,1686.0,6794.0,15526.0,11751.0,17573.0,8802.0,1920.0,6827.0,15589.0,11943.0,17421.0,8896.0,1994.0,6693.0,15008.0,12252.0,17347.0,9071.0,2158.0,6116.0,13257.0,12999.0,14648.0
21,42 ST-BRYANT PK,40.75483679999999,-73.9841215,1377.0,1056.0,3193.0,5013.0,5570.0,3578.0,956.0,681.0,2620.0,4295.0,4256.0,2347.0,454.0,5523.0,22041.0,12970.0,28595.0,6920.0,1126.0,5833.0,21658.0,13356.0,30238.0,7754.0,1141.0,5792.0,22548.0,13686.0,29622.0,7395.0,1172.0,5438.0,22454.0,14402.0,28594.0,8056.0,1273.0,5068.0,18893.0,18687.0,19637.0
22,2 AV,40.723412700000004,-73.9902885,1633.0,608.0,2453.0,4196.0,5147.0,3869.0,1137.0,380.0,2053.0,3746.0,3869.0,2131.0,297.0,1994.0,6025.0,4623.0,8159.0,4203.0,630.0,2123.0,6596.0,4845.0,8988.0,4866.0,679.0,2105.0,6440.0,5037.0,8934.0,4646.0,700.0,2020.0,6959.0,5310.0,9215.0,5207.0,937.0,1889.0,5906.0,6504.0,9106.0
23,50 ST,40.7620363,-73.98632909999998,3206.0,2345.0,8691.0,6011.0,13662.0,10013.0,2999.0,1042.0,8214.0,11123.0,11835.0,7067.0,1274.0,6232.0,20553.0,12883.0,24999.0,8348.0,1537.0,6970.0,21413.0,13832.0,27173.0,10257.0,1552.0,6708.0,21060.0,14847.0,27205.0,9980.0,1763.0,6471.0,20770.0,14446.0,26908.0,10361.0,2060.0,5511.0,16661.0,17926.0,20159.0
24,CHURCH AV,40.6495233,-73.96328390000001,1778.0,2712.0,5928.0,7164.0,7660.0,4917.0,1497.0,2036.0,5113.0,6459.0,6716.0,3899.0,1081.0,6630.0,10966.0,8376.0,12805.0,5565.0,1273.0,7074.0,11353.0,8026.0,13076.0,5798.0,1238.0,7009.0,11421.0,8090.0,12480.0,5858.0,1408.0,6876.0,11280.0,8086.0,13011.0,5770.0,1435.0,6300.0,10288.0,9447.0,11890.0
25,PRINCE ST,40.7242353,-73.99780600000001,965.0,681.0,4071.0,9147.0,10803.0,4400.0,959.0,494.0,3218.0,7957.0,8112.0,2670.0,329.0,1019.0,5521.0,6381.0,9656.0,2629.0,306.0,974.0,6022.0,6280.0,9938.0,2765.0,323.0,976.0,6052.0,6568.0,10186.0,2870.0,295.0,891.0,5868.0,7167.0,10373.0,3130.0,445.0,838.0,5429.0,8733.0,9845.0
26,SPRING ST,40.7257799,-74.00395209999998,948.0,689.0,4614.0,9070.0,9599.0,4672.0,880.0,490.0,3377.0,8264.0,7856.0,2972.0,289.0,1633.0,7144.0,7768.0,14108.0,3534.0,322.0,1692.0,7637.0,8093.0,14290.0,4325.0,430.0,1597.0,7770.0,8095.0,14052.0,4463.0,475.0,1644.0,7721.0,9005.0,14602.0,4632.0,508.0,1436.0,6888.0,11206.0,11858.0
27,LEXINGTON AV/63,40.764629,-73.96611299999998,690.0,1192.0,3979.0,5049.0,5085.0,2390.0,584.0,680.0,2897.0,3872.0,3624.0,1693.0,311.0,4477.0,11841.0,8398.0,13280.0,4017.0,441.0,4585.0,12350.0,9107.0,13755.0,4254.0,425.0,4198.0,11771.0,8377.0,13413.0,4130.0,381.0,4647.0,12402.0,8753.0,13658.0,4041.0,474.0,3955.0,10858.0,10048.0,9982.0
28,NOSTRAND AV,40.6697362,-73.95050890000002,1408.0,1721.0,5079.0,6674.0,6405.0,4470.0,1331.0,1158.0,4168.0,5406.0,5454.0,3403.0,743.0,4299.0,9394.0,6154.0,9930.0,4543.0,792.0,4538.0,9470.0,6196.0,9516.0,4811.0,898.0,4526.0,9636.0,6131.0,9376.0,4764.0,912.0,4107.0,8287.0,5689.0,9525.0,4849.0,970.0,3905.0,8647.0,7713.0,8993.0
29,JAY ST-METROTEC,40.6922507,-73.9872792,1228.0,1406.0,4823.0,8333.0,8381.0,6047.0,1422.0,986.0,4563.0,7678.0,6749.0,4018.0,1188.0,4741.0,17263.0,15730.0,23328.0,5937.0,698.0,4982.0,17652.0,15843.0,22934.0,6371.0,754.0,4793.0,17068.0,15704.0,22843.0,6233.0,830.0,4821.0,16961.0,15662.0,22886.0,6466.0,914.0,4174.0,14473.0,17004.0,17622.0
30,1 AV,40.7312776,-73.9823439,2107.0,1382.0,4701.0,7571.0,8395.0,6586.0,1858.0,988.0,3868.0,6876.0,7719.0,4270.0,629.0,3842.0,8426.0,6948.0,11141.0,5316.0,627.0,3698.0,8723.0,7054.0,11672.0,5888.0,635.0,3798.0,9351.0,7239.0,12118.0,5904.0,606.0,3681.0,8465.0,7628.0,11838.0,6134.0,839.0,3460.0,9074.0,9521.0,11358.0
31,STEINWAY ST,40.756691700000005,-73.92064090000001,522.0,922.0,2880.0,3582.0,3829.0,2016.0,472.0,587.0,2120.0,2931.0,2840.0,1456.0,254.0,2715.0,6182.0,4244.0,6963.0,3165.0,396.0,2823.0,6548.0,4164.0,6895.0,3121.0,435.0,2831.0,6684.0,4290.0,7110.0,3072.0,461.0,2763.0,6571.0,4517.0,7086.0,3098.0,551.0,2455.0,6025.0,5546.0,7012.0
32,JUNCTION BLVD,40.749203,-73.8693365,1473.0,4373.0,5991.0,6591.0,7192.0,3905.0,1410.0,2162.0,4626.0,5783.0,5603.0,3180.0,940.0,7070.0,7025.0,6533.0,10661.0,4338.0,1098.0,7398.0,7490.0,6892.0,10846.0,4561.0,1073.0,7479.0,7427.0,6784.0,9786.0,4704.0,1101.0,7546.0,7512.0,6833.0,10617.0,4707.0,1143.0,6075.0,7537.0,6841.0,9756.0
33,DEKALB AV,40.68982020000001,-73.9811611,1073.0,1975.0,5645.0,7608.0,6636.0,5918.0,1543.0,1369.0,4942.0,7408.0,6697.0,4009.0,1067.0,5319.0,12465.0,7809.0,11868.0,3719.0,396.0,5651.0,12996.0,7809.0,11742.0,3979.0,426.0,5667.0,12964.0,7844.0,12195.0,3841.0,386.0,5448.0,12570.0,7706.0,11657.0,4203.0,457.0,4840.0,10905.0,9548.0,2987.0
34,BOROUGH HALL,40.6931492,-73.9900883,760.0,924.0,4464.0,7187.0,6773.0,3797.0,843.0,611.0,3356.0,5906.0,5633.0,2745.0,436.0,4055.0,16008.0,12824.0,17950.0,4463.0,424.0,4256.0,16289.0,12883.0,18302.0,4802.0,420.0,4300.0,16281.0,13147.0,18231.0,4895.0,470.0,4166.0,16023.0,13675.0,17966.0,4826.0,557.0,3532.0,13545.0,14323.0,13470.0
35,CROWN HTS-UTICA,40.6689469,-73.93183379999998,1605.0,2470.0,4963.0,6548.0,6537.0,4797.0,1453.0,1675.0,4179.0,5558.0,5464.0,3594.0,1231.0,7245.0,9891.0,7561.0,11101.0,4868.0,1180.0,7616.0,10262.0,7172.0,11150.0,5061.0,1251.0,7719.0,10139.0,7525.0,11361.0,5221.0,1219.0,7531.0,10279.0,7857.0,11793.0,5353.0,1357.0,6746.0,9805.0,9102.0,10802.0
36,8 ST-NYU,40.7306065,-73.99244159999998,1195.0,488.0,2834.0,5354.0,6353.0,4666.0,1335.0,432.0,2624.0,5658.0,5937.0,3159.0,493.0,1110.0,6063.0,5411.0,9202.0,3478.0,451.0,1281.0,6503.0,5418.0,9481.0,4046.0,575.0,1311.0,6611.0,5122.0,9782.0,4069.0,615.0,1209.0,6313.0,6013.0,9710.0,4152.0,796.0,975.0,5021.0,6845.0,8270.0
37,CANAL ST,40.722713899999995,-74.00630600000001,681.0,772.0,2793.0,4934.0,5361.0,2744.0,587.0,457.0,2312.0,3957.0,4038.0,1790.0,275.0,2712.0,8873.0,6569.0,12715.0,2856.0,368.0,2657.0,9574.0,7059.0,13142.0,3069.0,428.0,2679.0,9432.0,7242.0,12850.0,3373.0,364.0,2691.0,9373.0,7481.0,12927.0,3413.0,529.0,2277.0,7254.0,9079.0,9539.0
38,QUEENSBORO PLZ,40.7505127,-73.9398439,751.0,1243.0,3098.0,3706.0,3746.0,2218.0,723.0,730.0,2929.0,3317.0,2952.0,1594.0,411.0,2036.0,5299.0,3377.0,5750.0,1843.0,386.0,2091.0,5575.0,3531.0,5757.0,2152.0,421.0,1970.0,5241.0,3675.0,5957.0,2147.0,472.0,2067.0,5465.0,3612.0,5944.0,2182.0,470.0,1852.0,4819.0,4102.0,4897.0
39,MYRTLE-WYCKOFF,40.699686,-73.9117713,1508.0,2486.0,4980.0,6085.0,5884.0,4127.0,1468.0,1455.0,4140.0,5444.0,5085.0,3063.0,797.0,5163.0,7504.0,5253.0,7851.0,3240.0,334.0,5233.0,7831.0,5350.0,7733.0,3502.0,335.0,5161.0,7804.0,5147.0,7783.0,3746.0,377.0,5209.0,7737.0,5394.0,7855.0,3737.0,378.0,5015.0,7160.0,6204.0,7363.0
40,51 ST,40.757135,-73.97191190000001,792.0,1156.0,3566.0,4586.0,4510.0,2638.0,558.0,816.0,3022.0,3921.0,3772.0,1777.0,284.0,3421.0,12324.0,7295.0,12986.0,2964.0,485.0,3370.0,13006.0,7532.0,13151.0,3278.0,553.0,3528.0,12893.0,7451.0,13134.0,3207.0,584.0,3146.0,12623.0,7938.0,12823.0,3252.0,685.0,2868.0,10356.0,9564.0,8736.0
41,COURT SQ,40.7467885,-73.944548,739.0,1151.0,2614.0,4110.0,4364.0,2366.0,623.0,588.0,2291.0,3404.0,2909.0,1625.0,311.0,4055.0,9491.0,4785.0,10972.0,3924.0,1079.0,4295.0,10033.0,4941.0,11066.0,4142.0,975.0,4345.0,9825.0,4943.0,11320.0,4215.0,1160.0,4324.0,9757.0,5514.0,11105.0,4117.0,1160.0,3659.0,7635.0,6657.0,7715.0
42,JAMAICA CENTER,40.702144700000005,-73.8008771,1881.0,4119.0,5807.0,6901.0,7328.0,4648.0,1527.0,2611.0,4433.0,5244.0,5614.0,3670.0,1187.0,13310.0,14191.0,11875.0,19396.0,6487.0,1841.0,13845.0,14496.0,12269.0,18685.0,7263.0,1676.0,13991.0,14513.0,12357.0,18095.0,7263.0,1897.0,13822.0,14035.0,11978.0,18461.0,7463.0,1814.0,12425.0,13218.0,12831.0,15957.0
43,49 ST,40.7598372,-73.98418249999999,1765.0,1434.0,4931.0,7187.0,9087.0,7360.0,1895.0,997.0,4579.0,6480.0,7621.0,4779.0,835.0,3092.0,10465.0,7289.0,14649.0,5385.0,882.0,3176.0,11049.0,7620.0,15702.0,6653.0,1023.0,3242.0,11423.0,8396.0,15840.0,6720.0,997.0,3187.0,10797.0,8114.0,15501.0,6949.0,1328.0,2617.0,9213.0,9728.0,12282.0
44,BOWLING GREEN,40.7048108,-74.0144596,737.0,1194.0,5021.0,7386.0,6441.0,2656.0,596.0,631.0,3849.0,5954.0,5370.0,1958.0,416.0,5346.0,16586.0,10785.0,19082.0,3329.0,534.0,5743.0,16825.0,10720.0,19482.0,3676.0,575.0,5659.0,16208.0,10380.0,19267.0,3642.0,548.0,5631.0,16301.0,11128.0,19372.0,3965.0,650.0,4805.0,13832.0,13049.0,12910.0
45,BLEECKER ST,40.7259346,-73.9946724,1208.0,584.0,2214.0,4251.0,4665.0,2745.0,1105.0,403.0,1621.0,3527.0,3755.0,2006.0,390.0,1026.0,4189.0,3236.0,6190.0,2437.0,409.0,1113.0,4446.0,3435.0,6465.0,2628.0,398.0,1139.0,4345.0,3566.0,6376.0,2802.0,450.0,1016.0,4644.0,3656.0,6617.0,2908.0,501.0,910.0,3478.0,4687.0,5512.0
46,VERNON-JACKSON,40.7426713,-73.9537248,626.0,695.0,2848.0,4117.0,4433.0,2785.0,490.0,390.0,1805.0,2096.0,3610.0,2015.0,233.0,2837.0,7472.0,3754.0,6642.0,2497.0,341.0,2789.0,7640.0,3507.0,7073.0,3093.0,339.0,2950.0,7733.0,3842.0,6264.0,3066.0,371.0,2764.0,7580.0,3910.0,6744.0,3082.0,476.0,2419.0,6209.0,4655.0,6002.0
47,28 ST,40.7470686,-73.99350919999998,873.0,805.0,3404.0,4672.0,4766.0,2939.0,891.0,499.0,2496.0,3731.0,3629.0,1908.0,325.0,1642.0,7755.0,5783.0,9854.0,2695.0,369.0,1832.0,8761.0,6230.0,10887.0,3110.0,426.0,1685.0,8611.0,6654.0,10368.0,3276.0,483.0,1732.0,7935.0,6697.0,10602.0,3195.0,591.0,1523.0,6881.0,7389.0,7684.0
48,SUTPHIN-ARCHER,40.700572799999996,-73.8077071,1361.0,2834.0,5116.0,6037.0,6381.0,4183.0,1271.0,2062.0,4100.0,5402.0,5611.0,3826.0,955.0,7515.0,9083.0,8378.0,11958.0,4718.0,1226.0,7379.0,8746.0,8125.0,11682.0,5025.0,1180.0,7445.0,8862.0,8335.0,11468.0,5340.0,1401.0,7531.0,9195.0,8606.0,11461.0,5135.0,1308.0,6837.0,8610.0,9571.0,11281.0
49,FORDHAM RD,40.8614886,-73.8905408,1083.0,2665.0,4375.0,5133.0,4955.0,3205.0,927.0,1805.0,3280.0,4352.0,3853.0,2036.0,609.0,4954.0,5984.0,5642.0,6964.0,2753.0,756.0,5153.0,5948.0,5601.0,6965.0,2779.0,774.0,5270.0,5511.0,4995.0,7151.0,2905.0,792.0,5245.0,6220.0,5714.0,7098.0,2858.0,909.0,5032.0,6005.0,6411.0,6774.0
50,HIGH ST,40.6993673,-73.99126559999998,364.0,404.0,1982.0,3746.0,4057.0,2853.0,391.0,294.0,1852.0,4010.0,3877.0,2095.0,313.0,1553.0,5816.0,4110.0,7150.0,2531.0,307.0,1599.0,6088.0,4185.0,7159.0,2760.0,222.0,1645.0,5892.0,3858.0,7072.0,2861.0,255.0,1616.0,5839.0,4708.0,7874.0,3537.0,308.0,1382.0,4533.0,4867.0,5321.0
51,BROOKLYN BRIDGE,40.6993673,-73.99126559999998,543.0,652.0,2538.0,4236.0,4465.0,2699.0,411.0,417.0,1961.0,3841.0,3736.0,1750.0,239.0,3290.0,9729.0,7926.0,10808.0,2805.0,402.0,3439.0,9984.0,8058.0,10982.0,2846.0,331.0,3504.0,9731.0,7848.0,10845.0,2886.0,373.0,3242.0,9783.0,8170.0,10825.0,3098.0,405.0,2714.0,8605.0,8964.0,7623.0
52,103 ST-CORONA,40.7498268,-73.862746,1517.0,3735.0,4847.0,5204.0,6173.0,3846.0,1308.0,2097.0,4177.0,4816.0,4553.0,2985.0,965.0,7253.0,5916.0,4651.0,8044.0,4036.0,1070.0,7532.0,5999.0,4536.0,8149.0,4272.0,1163.0,7606.0,6192.0,4592.0,8296.0,4390.0,1181.0,7528.0,6261.0,4685.0,8342.0,4228.0,1211.0,7405.0,5916.0,4893.0,7926.0
53,GRAND-NEWTOWN,40.736835,-73.87758840000001,414.0,1689.0,3588.0,3386.0,3198.0,1709.0,316.0,901.0,2835.0,2902.0,2528.0,1382.0,247.0,4887.0,7287.0,4485.0,6601.0,2526.0,485.0,4935.0,7484.0,4537.0,6483.0,2739.0,463.0,4123.0,7378.0,4463.0,6245.0,2834.0,515.0,4877.0,7440.0,4475.0,6517.0,2885.0,603.0,4587.0,7158.0,5128.0,6080.0
54,181 ST,40.84913,-73.93372889999998,1183.0,1392.0,3201.0,4318.0,4430.0,2918.0,1028.0,1046.0,2532.0,3874.0,3894.0,2541.0,647.0,2545.0,4593.0,4754.0,5904.0,2826.0,727.0,2634.0,4776.0,4647.0,6027.0,2865.0,770.0,2662.0,4768.0,4501.0,5743.0,3012.0,823.0,2614.0,4736.0,4862.0,5879.0,2893.0,921.0,2410.0,4493.0,5402.0,5758.0
55,167 ST,40.835598,-73.9213791,1783.0,2672.0,4066.0,4808.0,5106.0,3553.0,1379.0,1827.0,3107.0,3879.0,4331.0,3167.0,934.0,3882.0,4736.0,4299.0,5508.0,2782.0,772.0,3885.0,4834.0,4350.0,5657.0,2698.0,825.0,3946.0,4692.0,4749.0,5705.0,2869.0,818.0,3859.0,4698.0,4675.0,5909.0,3005.0,895.0,3818.0,4605.0,4733.0,5449.0
56,82 ST-JACKSON H,40.7477145,-73.8839373,1387.0,1717.0,4546.0,7082.0,7371.0,4272.0,1354.0,1145.0,3207.0,5292.0,5783.0,3218.0,789.0,3186.0,5950.0,5759.0,9721.0,4153.0,770.0,3235.0,5957.0,5361.0,9281.0,4033.0,863.0,3155.0,6001.0,5543.0,8658.0,4254.0,942.0,3144.0,5781.0,5362.0,9589.0,4346.0,967.0,2980.0,5381.0,5850.0,9560.0
57,KINGS HWY,40.60867440000001,-73.9578059,723.0,1467.0,3767.0,4237.0,4253.0,2408.0,618.0,1067.0,3629.0,4263.0,4236.0,2097.0,371.0,5074.0,8336.0,6091.0,10174.0,3392.0,457.0,5185.0,8718.0,6126.0,10115.0,3483.0,517.0,5268.0,8576.0,6106.0,9888.0,3816.0,520.0,5113.0,8620.0,6076.0,10351.0,3814.0,603.0,4711.0,7861.0,5494.0,7043.0
58,3 AV-149 ST,40.816129,-73.917811,13.0,6.0,12.0,9.0,13.0,18.0,5.0,6.0,8.0,10.0,5.0,3.0,7.0,4299.0,6989.0,6439.0,6779.0,1636.0,68.0,4706.0,6911.0,6323.0,6783.0,1640.0,82.0,4539.0,7071.0,6927.0,6786.0,1782.0,77.0,4710.0,6948.0,7081.0,6980.0,1678.0,92.0,4367.0,7183.0,8270.0,6950.0
59,EAST BROADWAY,40.714402899999996,-73.98991880000001,473.0,657.0,2235.0,2969.0,3212.0,1927.0,390.0,389.0,2117.0,3088.0,3029.0,1591.0,240.0,1823.0,4622.0,4014.0,5220.0,2106.0,343.0,1883.0,4774.0,3989.0,5477.0,2313.0,372.0,1861.0,4750.0,4014.0,5262.0,2104.0,331.0,1718.0,4548.0,4092.0,5606.0,2289.0,400.0,1647.0,4512.0,4470.0,5265.0
60,72 ST,40.778453000000006,-73.98196999999998,,,,,,,,,,,,,,,,,,,,,,,,,,,,,,,,,,,,,,,,,
61,WALL ST,40.706396500000004,-74.0094441,496.0,488.0,2855.0,3867.0,3984.0,2203.0,341.0,263.0,2618.0,3451.0,3449.0,1772.0,178.0,4132.0,14329.0,6102.0,16183.0,2364.0,354.0,4503.0,14526.0,6788.0,16779.0,2790.0,327.0,4363.0,14977.0,6749.0,16541.0,2898.0,324.0,4043.0,14134.0,7184.0,15965.0,2948.0,344.0,3263.0,10816.0,9438.0,8967.0
62,21 ST-QNSBRIDGE,40.75417770000001,-73.94247419999998,164.0,616.0,1787.0,1440.0,1303.0,618.0,166.0,395.0,1342.0,1128.0,954.0,447.0,143.0,2357.0,4290.0,2972.0,4522.0,1275.0,161.0,2419.0,4471.0,3112.0,4499.0,1398.0,170.0,2425.0,4567.0,3118.0,4550.0,1540.0,162.0,2345.0,4301.0,3108.0,4332.0,1458.0,201.0,2215.0,4140.0,3400.0,4278.0
63,HOYT-SCHER,40.688828799999996,-73.98531249999998,492.0,438.0,2048.0,3666.0,3640.0,2302.0,614.0,317.0,1817.0,3297.0,3191.0,1472.0,286.0,1401.0,4535.0,4050.0,5899.0,1886.0,265.0,1439.0,4675.0,4088.0,5593.0,1944.0,223.0,1382.0,4775.0,3984.0,5610.0,2075.0,226.0,1378.0,4579.0,4124.0,5861.0,2146.0,281.0,1222.0,4224.0,5152.0,5529.0
64,FRANKLIN AV,40.7190056,-74.0066801,657.0,757.0,2430.0,3420.0,3239.0,2135.0,590.0,522.0,2075.0,2943.0,2777.0,1643.0,313.0,2230.0,6040.0,3352.0,5652.0,2461.0,361.0,2415.0,6449.0,3339.0,5633.0,2614.0,382.0,2383.0,6311.0,3293.0,5541.0,3017.0,377.0,2375.0,5807.0,3296.0,5426.0,2778.0,579.0,2006.0,5260.0,4336.0,4721.0
65,168 ST,40.841041,-73.939971,1310.0,2264.0,4316.0,5623.0,5501.0,3531.0,1082.0,1624.0,3732.0,5284.0,5003.0,2821.0,688.0,5379.0,10993.0,7903.0,11945.0,3570.0,740.0,5604.0,11642.0,8241.0,12054.0,3703.0,845.0,5568.0,11296.0,8565.0,11685.0,3855.0,784.0,5373.0,11415.0,8804.0,11941.0,4006.0,946.0,5022.0,10570.0,9975.0,9627.0
66,NEVINS ST,40.6882963,-73.98052059999999,500.0,635.0,2308.0,3865.0,3596.0,2435.0,599.0,458.0,1502.0,2910.0,2765.0,1628.0,552.0,1961.0,4782.0,4390.0,6080.0,1821.0,329.0,2009.0,4923.0,4019.0,5739.0,1824.0,376.0,2011.0,4808.0,4178.0,5906.0,1867.0,306.0,1976.0,4866.0,4516.0,5925.0,2152.0,407.0,1716.0,4800.0,5620.0,5732.0
67,5 AVE,40.760216299999996,-73.975543,386.0,,,2735.0,2795.0,1419.0,247.0,221.0,869.0,1669.0,2144.0,888.0,96.0,1548.0,5652.0,4001.0,8674.0,2171.0,367.0,1268.0,5954.0,3830.0,8780.0,2296.0,286.0,1525.0,5752.0,3996.0,9012.0,2456.0,374.0,1491.0,5742.0,4068.0,8506.0,2401.0,378.0,1295.0,4980.0,5697.0,6188.0
68,PROSPECT PARK,40.66087879999999,-73.9621109,839.0,804.0,2452.0,3721.0,3927.0,2155.0,749.0,602.0,2408.0,5728.0,4338.0,1642.0,468.0,1984.0,4609.0,3023.0,5396.0,2315.0,553.0,2178.0,4720.0,3310.0,5580.0,2567.0,482.0,2153.0,4802.0,3197.0,5166.0,2860.0,501.0,2083.0,4707.0,3298.0,5365.0,2652.0,604.0,1794.0,4416.0,3767.0,4808.0
69,CENTRAL PK N110,40.798737599999995,-73.9522934,486.0,811.0,2262.0,3052.0,3151.0,1759.0,542.0,598.0,2154.0,3161.0,2897.0,1401.0,339.0,1894.0,3878.0,2990.0,4194.0,1691.0,340.0,1985.0,4024.0,3233.0,4327.0,1723.0,336.0,2154.0,4172.0,3356.0,4249.0,1749.0,328.0,2093.0,4020.0,3194.0,4262.0,1896.0,428.0,1859.0,3705.0,3689.0,3668.0
70,LEXINGTON AV/53,40.757698100000006,-73.96907420000001,1365.0,1629.0,5051.0,6096.0,6635.0,4369.0,922.0,875.0,3998.0,5257.0,5383.0,3310.0,491.0,7886.0,25171.0,11694.0,27421.0,6075.0,980.0,8342.0,26714.0,13084.0,28351.0,6630.0,917.0,8134.0,26771.0,13232.0,28433.0,6726.0,956.0,7825.0,24938.0,13483.0,27632.0,6733.0,1071.0,6685.0,21206.0,18553.0,18168.0
71,63 DR-REGO PARK,40.7301359,-73.86236729999999,286.0,614.0,2579.0,3345.0,3315.0,1286.0,296.0,571.0,2151.0,2842.0,2716.0,1207.0,234.0,3216.0,6012.0,3684.0,5007.0,1592.0,219.0,3305.0,5998.0,3499.0,4968.0,1569.0,177.0,3307.0,6026.0,3410.0,4721.0,1555.0,206.0,3195.0,6040.0,3702.0,5029.0,1649.0,241.0,2818.0,5580.0,4051.0,4733.0
72,3 AV,40.733135299999994,-73.98675829999998,636.0,324.0,1312.0,2126.0,2614.0,2116.0,634.0,271.0,1074.0,2017.0,2365.0,1255.0,223.0,878.0,2430.0,2101.0,3823.0,1711.0,214.0,851.0,2640.0,2271.0,4006.0,2043.0,239.0,888.0,2507.0,2267.0,3951.0,2047.0,230.0,877.0,2479.0,2297.0,3945.0,2183.0,330.0,787.0,2412.0,2926.0,3817.0
73,175 ST,40.847916600000005,-73.9394823,479.0,906.0,2534.0,3066.0,2739.0,1714.0,418.0,521.0,1947.0,2510.0,2307.0,1461.0,202.0,2959.0,4822.0,3197.0,4945.0,1822.0,284.0,2975.0,4915.0,3258.0,4922.0,1824.0,323.0,2884.0,4945.0,3246.0,4963.0,1767.0,322.0,2845.0,5040.0,3249.0,4912.0,1868.0,383.0,2553.0,4368.0,3740.0,4703.0
74,53 ST,40.760216299999996,-73.975543,674.0,968.0,1930.0,2214.0,2394.0,1438.0,447.0,572.0,1547.0,1957.0,1888.0,1177.0,370.0,2337.0,3454.0,2849.0,4504.0,1836.0,359.0,2483.0,3469.0,2832.0,4383.0,1935.0,363.0,2401.0,3579.0,2897.0,4217.0,2088.0,356.0,2375.0,3552.0,2725.0,4428.0,1969.0,395.0,2289.0,3507.0,3221.0,4230.0
75,110 ST,40.798737599999995,-73.9522934,644.0,1025.0,2635.0,3334.0,3154.0,1985.0,617.0,672.0,2087.0,2750.0,2653.0,1561.0,412.0,2318.0,4253.0,3537.0,4736.0,2010.0,430.0,2404.0,4540.0,3451.0,4785.0,2243.0,455.0,2422.0,4580.0,3703.0,4715.0,2189.0,406.0,2348.0,4330.0,3812.0,4967.0,2164.0,531.0,2221.0,4218.0,3983.0,4660.0
76,BEDFORD-NOSTRAN,40.6898534,-73.9516398,262.0,349.0,1285.0,1672.0,1486.0,881.0,215.0,228.0,1005.0,1385.0,1178.0,592.0,115.0,1577.0,3885.0,1982.0,3110.0,1864.0,478.0,592.0,1502.0,1960.0,3334.0,1958.0,429.0,1669.0,4126.0,1923.0,3177.0,1816.0,413.0,1640.0,4064.0,2114.0,3302.0,2030.0,548.0,1389.0,3584.0,2468.0,3129.0
77,GRAHAM AV,40.714526299999996,-73.94438180000002,527.0,503.0,1930.0,2672.0,2645.0,1767.0,557.0,315.0,1740.0,2561.0,2306.0,1335.0,228.0,1547.0,4716.0,2426.0,4012.0,1602.0,27.0,1521.0,4884.0,2310.0,4023.0,1687.0,11.0,1457.0,4928.0,2352.0,4017.0,1642.0,33.0,1466.0,4820.0,2578.0,3967.0,1748.0,12.0,1215.0,4212.0,3125.0,3654.0
78,46 ST BLISS ST,40.7430691,-73.91824030000002,746.0,1522.0,3262.0,3981.0,3965.0,2398.0,697.0,942.0,2513.0,3110.0,3145.0,1908.0,429.0,3086.0,5377.0,3657.0,5852.0,2656.0,596.0,3307.0,5547.0,3761.0,5502.0,2882.0,527.0,3196.0,5549.0,3648.0,5592.0,2934.0,608.0,3206.0,5535.0,3797.0,5808.0,3026.0,646.0,2908.0,5218.0,4387.0,5725.0
79,CHRISTOPHER ST,40.733578400000006,-74.00287279999998,1239.0,385.0,1922.0,3484.0,4212.0,3596.0,1270.0,334.0,1488.0,3144.0,3465.0,2219.0,505.0,864.0,3368.0,2905.0,4788.0,2485.0,430.0,906.0,3544.0,3150.0,5305.0,3170.0,577.0,911.0,3847.0,3286.0,5375.0,2954.0,552.0,890.0,3576.0,3380.0,5351.0,3145.0,715.0,736.0,3062.0,3840.0,4769.0
80,191 ST,40.855738,-73.9306512,828.0,1031.0,2129.0,2915.0,2952.0,2129.0,738.0,664.0,1773.0,2751.0,2738.0,1797.0,446.0,2064.0,3106.0,2905.0,4274.0,2130.0,480.0,2071.0,3243.0,2912.0,4304.0,2235.0,505.0,2058.0,3212.0,2853.0,4251.0,2295.0,558.0,2080.0,3203.0,3109.0,4380.0,2149.0,639.0,1903.0,3124.0,3218.0,4020.0
81,ROOSEVELT ISLND,40.7591362,-73.9533215,109.0,230.0,1285.0,1643.0,1656.0,730.0,95.0,175.0,1186.0,1586.0,1215.0,497.0,57.0,1058.0,3459.0,2188.0,3649.0,1248.0,86.0,1126.0,3464.0,2213.0,3729.0,1351.0,97.0,1138.0,3515.0,2244.0,3586.0,1413.0,97.0,1121.0,3487.0,2452.0,3723.0,1508.0,119.0,951.0,3300.0,2697.0,3339.0
82,BROADWAY JCT,40.6789137,-73.9039,1271.0,2513.0,3409.0,4314.0,4229.0,2915.0,873.0,1351.0,2671.0,2953.0,2937.0,2053.0,559.0,2536.0,3219.0,2939.0,4059.0,2086.0,911.0,2803.0,3410.0,3000.0,3997.0,2314.0,989.0,2680.0,3290.0,3032.0,3973.0,2170.0,954.0,2601.0,3214.0,3060.0,4168.0,2273.0,1080.0,2622.0,3277.0,3305.0,3933.0
83,HOYT ST,40.688828799999996,-73.98531249999998,207.0,239.0,1244.0,2566.0,2586.0,1612.0,239.0,159.0,1361.0,2477.0,2108.0,1113.0,297.0,881.0,3265.0,3128.0,4106.0,956.0,70.0,986.0,3399.0,2964.0,4124.0,1120.0,84.0,1014.0,3277.0,3017.0,3978.0,959.0,90.0,914.0,3226.0,3136.0,4120.0,1077.0,122.0,819.0,2863.0,3669.0,3851.0
84,135 ST,40.817894,-73.947647,604.0,1314.0,3775.0,2976.0,2119.0,636.0,310.0,329.0,1401.0,1545.0,1181.0,608.0,119.0,2509.0,4850.0,3342.0,4068.0,1771.0,359.0,2761.0,5125.0,3330.0,4198.0,751.0,96.0,2560.0,5051.0,3555.0,4116.0,1709.0,290.0,2671.0,5204.0,3463.0,4380.0,1674.0,477.0,2273.0,4504.0,3532.0,3955.0
85,ELMHURST AV,40.74244789999999,-73.88198440000001,132.0,1073.0,2354.0,2107.0,1729.0,697.0,98.0,645.0,2055.0,1879.0,1284.0,631.0,87.0,3025.0,4656.0,2674.0,2794.0,946.0,191.0,3053.0,4792.0,2555.0,2660.0,1090.0,189.0,3049.0,4878.0,2533.0,2589.0,1061.0,179.0,2972.0,4886.0,2664.0,3103.0,1162.0,210.0,2821.0,4614.0,2776.0,2994.0
86,RECTOR ST,40.7078954,-74.01363649999998,453.0,440.0,2188.0,3224.0,3298.0,1560.0,411.0,288.0,1808.0,2593.0,2498.0,1160.0,120.0,1580.0,6178.0,4194.0,7449.0,1426.0,129.0,1642.0,6630.0,4389.0,7889.0,1502.0,172.0,1609.0,6560.0,4573.0,7567.0,1492.0,119.0,1577.0,6311.0,4663.0,7586.0,1640.0,170.0,1272.0,5377.0,5351.0,5525.0
87,4AV-9 ST,40.6701803,-73.98929150000002,337.0,420.0,1874.0,2582.0,2434.0,1438.0,357.0,309.0,1535.0,2212.0,2040.0,1017.0,141.0,1477.0,4165.0,2363.0,4044.0,1421.0,150.0,1650.0,4267.0,2405.0,3728.0,1480.0,215.0,1616.0,4221.0,2307.0,3779.0,1495.0,202.0,1572.0,4082.0,2458.0,3935.0,1608.0,224.0,1377.0,3566.0,2864.0,3390.0
88,96 ST,40.7858701,-73.95093469999998,145.0,197.0,797.0,1387.0,1283.0,648.0,114.0,133.0,656.0,1263.0,1258.0,452.0,78.0,1390.0,4473.0,3220.0,5608.0,1410.0,105.0,1497.0,4611.0,3381.0,5639.0,1347.0,100.0,1441.0,4592.0,3453.0,5469.0,1571.0,131.0,1518.0,4374.0,3554.0,5643.0,1420.0,129.0,1278.0,3808.0,3890.0,4445.0
89,JAMAICA 179 ST,40.71264420000001,-73.7838184,694.0,2126.0,2873.0,3121.0,3081.0,1863.0,662.0,1300.0,2166.0,2458.0,2193.0,1431.0,487.0,8868.0,6865.0,3904.0,3628.0,2146.0,598.0,3464.0,2820.0,4086.0,6194.0,2340.0,658.0,9110.0,7451.0,4146.0,6272.0,2414.0,618.0,9145.0,7061.0,4289.0,6207.0,2373.0,657.0,7997.0,6491.0,4545.0,5674.0
90,BRIGHTON BEACH,40.5776648,-73.96127690000002,369.0,1087.0,2745.0,4112.0,4087.0,1697.0,344.0,834.0,3111.0,5961.0,5582.0,1540.0,258.0,2797.0,4378.0,4417.0,5876.0,1813.0,224.0,2830.0,4686.0,5125.0,6545.0,2324.0,232.0,2799.0,4641.0,5120.0,6371.0,2279.0,251.0,2776.0,4442.0,4549.0,5949.0,1974.0,270.0,2566.0,3852.0,3859.0,4510.0
91,CARROLL ST,40.679331299999994,-73.9954833,276.0,349.0,1484.0,2106.0,2189.0,1354.0,333.0,241.0,1289.0,1994.0,1807.0,827.0,115.0,1517.0,4771.0,2110.0,3783.0,1117.0,110.0,1630.0,5093.0,2191.0,3927.0,1279.0,130.0,1596.0,5105.0,2218.0,3728.0,1370.0,146.0,1527.0,4867.0,2359.0,3944.0,1435.0,174.0,1242.0,3907.0,2659.0,3437.0
92,149/GRAND CONC,40.8183248,-73.9274121,1393.0,1780.0,2285.0,3192.0,2506.0,1440.0,422.0,710.0,1052.0,1618.0,1900.0,1000.0,277.0,2458.0,4938.0,5254.0,5708.0,3212.0,957.0,2571.0,5183.0,5366.0,5417.0,3515.0,674.0,2708.0,5040.0,5511.0,5623.0,3163.0,680.0,2553.0,5097.0,5350.0,5273.0,3105.0,1080.0,2291.0,4456.0,4586.0,4787.0
93,UNION ST,40.6771729,-73.98324670000001,362.0,377.0,1374.0,2011.0,2342.0,1575.0,376.0,218.0,1082.0,1802.0,1811.0,822.0,107.0,1138.0,3762.0,1563.0,3033.0,1146.0,134.0,1259.0,3238.0,1678.0,3398.0,1339.0,130.0,1186.0,3322.0,1799.0,3236.0,1442.0,161.0,1163.0,3068.0,1849.0,3315.0,1455.0,205.0,951.0,2672.0,2186.0,2791.0
94,111 ST,40.75172999999999,-73.855334,766.0,2423.0,3318.0,3475.0,3886.0,2297.0,775.0,1271.0,2783.0,2937.0,3030.0,1851.0,549.0,5001.0,4343.0,3158.0,5201.0,2467.0,612.0,5174.0,4553.0,3024.0,5137.0,2516.0,639.0,5238.0,4550.0,3131.0,4947.0,2474.0,680.0,5202.0,4532.0,3356.0,5170.0,2576.0,653.0,4950.0,4392.0,3532.0,5084.0
95,MONTROSE AV,40.7077716,-73.93986329999998,578.0,542.0,1541.0,2174.0,2373.0,1752.0,593.0,377.0,1216.0,1898.0,1951.0,1071.0,228.0,1119.0,2809.0,1631.0,2463.0,1074.0,26.0,1097.0,2860.0,1669.0,2537.0,1155.0,5.0,1159.0,2883.0,1673.0,2544.0,1129.0,7.0,1096.0,2876.0,1682.0,2604.0,1184.0,1.0,950.0,2524.0,2079.0,2393.0
96,MORGAN AV,40.70607589999999,-73.93370999999998,488.0,520.0,1458.0,2349.0,2500.0,1704.0,598.0,296.0,1163.0,2202.0,2216.0,1263.0,246.0,1192.0,2614.0,1799.0,2686.0,1023.0,17.0,1271.0,2957.0,1934.0,2836.0,1125.0,30.0,1250.0,2902.0,1972.0,2927.0,1343.0,8.0,1248.0,2870.0,2050.0,2957.0,1349.0,6.0,1108.0,2462.0,2340.0,2953.0
97,90 ST-ELMHURST,40.748436700000006,-73.87652890000001,740.0,2389.0,3928.0,4341.0,3808.0,2360.0,757.0,1432.0,3323.0,3513.0,3221.0,1762.0,480.0,4892.0,5235.0,3274.0,5442.0,2374.0,627.0,4984.0,5141.0,3230.0,5117.0,2409.0,671.0,4957.0,5165.0,3210.0,5094.0,2510.0,625.0,4999.0,5135.0,3105.0,5312.0,2590.0,744.0,4728.0,5053.0,3294.0,5033.0
98,6 AV,40.7373653,-73.99684529999998,292.0,119.0,658.0,1165.0,1263.0,828.0,235.0,97.0,531.0,1057.0,1116.0,539.0,75.0,535.0,1824.0,1382.0,2665.0,1006.0,97.0,422.0,1896.0,1391.0,2779.0,1106.0,88.0,539.0,1863.0,1472.0,2794.0,1159.0,131.0,536.0,1804.0,1535.0,2744.0,1253.0,153.0,478.0,1597.0,1997.0,2468.0
99,BOWERY,40.720166799999994,-73.99353470000001,572.0,283.0,1176.0,1919.0,2056.0,1177.0,259.0,189.0,1060.0,1375.0,1655.0,915.0,144.0,381.0,1194.0,1235.0,2023.0,857.0,180.0,410.0,1352.0,1308.0,2036.0,1042.0,239.0,344.0,1309.0,1192.0,2108.0,1074.0,226.0,338.0,1422.0,1323.0,2198.0,1262.0,336.0,355.0,1255.0,1600.0,2161.0
100,BURNSIDE AV,40.85345299999999,-73.90768400000002,618.0,1255.0,2159.0,2523.0,2255.0,1573.0,574.0,852.0,1474.0,1972.0,1825.0,1282.0,597.0,2530.0,3608.0,4429.0,3999.0,1816.0,457.0,2697.0,3774.0,4479.0,3900.0,1922.0,418.0,2714.0,3755.0,4421.0,3991.0,1869.0,451.0,2607.0,3575.0,4242.0,3860.0,1810.0,502.0,2408.0,3525.0,4379.0,3279.0
101,45 ST,40.6493588,-74.00959069999998,348.0,724.0,1502.0,1858.0,1580.0,844.0,301.0,432.0,1249.0,1552.0,1274.0,681.0,253.0,1714.0,2695.0,1951.0,3004.0,1089.0,241.0,1856.0,2710.0,1931.0,2992.0,1192.0,266.0,1799.0,2648.0,2027.0,3008.0,1253.0,251.0,1827.0,2687.0,2015.0,2933.0,1343.0,290.0,1748.0,2601.0,2187.0,2803.0
102,170 ST,40.840050399999996,-73.9133477,747.0,1187.0,2015.0,2184.0,2107.0,1390.0,516.0,842.0,1468.0,2083.0,1992.0,1274.0,411.0,2268.0,3015.0,2574.0,3667.0,1607.0,447.0,2420.0,3095.0,2632.0,3350.0,1580.0,504.0,2521.0,3088.0,2578.0,3582.0,1698.0,469.0,2526.0,2991.0,2633.0,3583.0,1818.0,502.0,2511.0,2967.0,2754.0,3478.0
103,169 ST,40.7104152,-73.79374600000001,394.0,853.0,1550.0,1777.0,1835.0,1316.0,395.0,567.0,1235.0,1570.0,1557.0,1046.0,255.0,2307.0,2880.0,2527.0,3030.0,1595.0,340.0,2281.0,3053.0,2569.0,4365.0,1620.0,299.0,2258.0,2892.0,2669.0,4140.0,1669.0,305.0,2275.0,2788.0,2590.0,4105.0,1617.0,298.0,2064.0,2890.0,2851.0,3674.0
104,74 ST-BROADWAY,40.746941899999996,-73.89146020000001,369.0,363.0,1168.0,1819.0,2171.0,1452.0,367.0,281.0,1026.0,1462.0,1854.0,1115.0,222.0,462.0,1295.0,1796.0,2513.0,1233.0,223.0,524.0,1208.0,1554.0,1923.0,1036.0,185.0,462.0,1171.0,1373.0,2050.0,1306.0,220.0,509.0,1260.0,1778.0,2383.0,1326.0,261.0,,,1878.0,2591.0
105,40 ST LOWERY ST,40.7438729,-73.92423409999998,523.0,819.0,2205.0,2638.0,2706.0,1941.0,537.0,476.0,1802.0,2108.0,2147.0,1408.0,252.0,2224.0,4468.0,2754.0,4813.0,2044.0,368.0,2362.0,4670.0,2751.0,4627.0,2323.0,305.0,2252.0,4812.0,3133.0,4504.0,2297.0,341.0,2215.0,4701.0,2997.0,4939.0,2289.0,392.0,2030.0,4256.0,3601.0,4317.0
106,CASTLE HILL AV,40.83429599999999,-73.85168399999998,609.0,874.0,1414.0,1857.0,1902.0,1226.0,531.0,598.0,1191.0,1544.0,1606.0,1039.0,392.0,2297.0,2344.0,2121.0,3356.0,1421.0,435.0,2416.0,2443.0,2142.0,3253.0,1630.0,418.0,2335.0,2295.0,2124.0,3132.0,1655.0,426.0,2222.0,2462.0,2255.0,3323.0,1617.0,498.0,2133.0,2185.0,2484.0,3001.0
107,HALSEY ST,40.69577750000001,-73.9044092,735.0,818.0,1839.0,2012.0,2157.0,1618.0,657.0,600.0,1532.0,1954.0,2072.0,1394.0,302.0,2236.0,3084.0,1885.0,3257.0,1355.0,48.0,2245.0,3251.0,2016.0,3256.0,1442.0,10.0,2302.0,3209.0,1890.0,3321.0,1433.0,29.0,2249.0,3132.0,2031.0,3443.0,1418.0,21.0,2102.0,2898.0,2328.0,3062.0
108,CLARK ST,40.6974878,-73.99314090000001,149.0,178.0,1038.0,1897.0,2143.0,1505.0,211.0,128.0,1086.0,1985.0,1919.0,1080.0,104.0,513.0,2260.0,1656.0,2343.0,943.0,89.0,589.0,2207.0,1457.0,2223.0,983.0,96.0,615.0,2437.0,1721.0,2309.0,1059.0,101.0,567.0,2232.0,1666.0,2351.0,1243.0,140.0,476.0,1773.0,1760.0,1873.0
109,SUTTER AV-RUTLD,40.664992100000006,-73.92290849999998,517.0,806.0,1398.0,1813.0,1938.0,1299.0,459.0,572.0,1175.0,1493.0,1541.0,987.0,366.0,2123.0,2571.0,2396.0,3682.0,1440.0,467.0,2223.0,2533.0,2403.0,3639.0,1586.0,449.0,2184.0,2547.0,2390.0,3680.0,1668.0,400.0,2068.0,2464.0,2545.0,3719.0,1693.0,403.0,1918.0,,,
110,EASTN PKWY-MUSM,40.671993799999996,-73.96420649999999,239.0,185.0,952.0,1627.0,1391.0,761.0,239.0,152.0,694.0,1495.0,1236.0,504.0,111.0,576.0,1916.0,1088.0,2214.0,926.0,122.0,599.0,2135.0,1217.0,2308.0,1051.0,113.0,596.0,2193.0,1435.0,2659.0,1324.0,128.0,622.0,2168.0,1519.0,2535.0,1289.0,281.0,508.0,1960.0,1803.0,2021.0
111,BAY RIDGE AV,40.634968,-74.023376,1.0,1.0,5.0,1.0,1.0,0.0,0.0,2.0,4.0,1.0,1.0,6.0,2.0,1731.0,2715.0,1671.0,2487.0,909.0,139.0,1851.0,2782.0,1710.0,2536.0,952.0,119.0,1904.0,2700.0,1731.0,2364.0,1049.0,110.0,1876.0,2762.0,1833.0,2525.0,1076.0,121.0,1591.0,2566.0,1925.0,2345.0
112,OZONE PK LEFFRT,40.685956700000006,-73.8257601,582.0,1136.0,1397.0,1592.0,1826.0,1138.0,354.0,651.0,1193.0,1390.0,1373.0,862.0,324.0,3649.0,2506.0,2031.0,3817.0,1270.0,353.0,3868.0,2493.0,2127.0,3672.0,1260.0,360.0,3790.0,2590.0,2061.0,3326.0,1477.0,392.0,3702.0,2423.0,2141.0,3735.0,1492.0,399.0,3302.0,2345.0,2468.0,3404.0
113,JEFFERSON ST,40.7065868,-73.922872,638.0,497.0,1359.0,1953.0,1881.0,1426.0,912.0,466.0,1051.0,1785.0,1614.0,1068.0,232.0,1254.0,2487.0,1425.0,2148.0,646.0,1.0,1298.0,2591.0,1550.0,2297.0,826.0,9.0,1269.0,2545.0,1594.0,2340.0,866.0,14.0,1266.0,2571.0,1623.0,2399.0,891.0,19.0,1173.0,2289.0,1940.0,2296.0
114,MORISN AV/SNDVW,40.8294898,-73.8746754,627.0,1108.0,1533.0,1909.0,1711.0,1262.0,595.0,695.0,1200.0,1563.0,1546.0,1023.0,458.0,2331.0,2180.0,1945.0,2541.0,1352.0,511.0,2477.0,2249.0,1914.0,2455.0,1460.0,537.0,2398.0,2237.0,2024.0,2520.0,1429.0,540.0,2385.0,2313.0,1990.0,2564.0,1405.0,591.0,2319.0,2165.0,2167.0,2449.0
115,207 ST,40.8676635,-73.9212009,405.0,935.0,2036.0,2490.0,2191.0,1388.0,413.0,661.0,1617.0,2149.0,1904.0,1164.0,290.0,1423.0,2058.0,1939.0,2198.0,1133.0,245.0,1466.0,2132.0,1923.0,2281.0,1163.0,244.0,1474.0,2217.0,1950.0,2240.0,1216.0,258.0,1431.0,2193.0,2013.0,2195.0,1183.0,263.0,1401.0,2422.0,2129.0,2189.0
116,EUCLID AV,40.6754013,-73.8719033,359.0,1258.0,2064.0,2138.0,1831.0,1127.0,334.0,855.0,1544.0,1773.0,1542.0,941.0,262.0,2955.0,3311.0,2299.0,2322.0,1058.0,267.0,3109.0,3367.0,2400.0,2511.0,1100.0,276.0,3002.0,3456.0,2297.0,2405.0,1122.0,287.0,2955.0,3271.0,2307.0,2396.0,1119.0,303.0,2828.0,3190.0,2540.0,2373.0
117,GRAND ARMY PLAZ,40.6752403,-73.97104159999998,160.0,198.0,1144.0,1811.0,1626.0,711.0,145.0,108.0,871.0,1472.0,1409.0,571.0,56.0,768.0,2902.0,1470.0,2273.0,733.0,50.0,842.0,3087.0,1498.0,2247.0,832.0,65.0,820.0,3395.0,1856.0,2100.0,564.0,78.0,828.0,2917.0,1560.0,2261.0,923.0,121.0,606.0,2375.0,1743.0,1815.0
118,PARSONS BLVD,40.707714,-73.8028238,501.0,901.0,1436.0,1827.0,2101.0,1534.0,554.0,566.0,1088.0,1486.0,1439.0,1122.0,405.0,2003.0,2222.0,1939.0,4684.0,1177.0,384.0,2032.0,2315.0,1950.0,3069.0,1198.0,323.0,2037.0,2337.0,1968.0,3278.0,1314.0,363.0,1938.0,2300.0,2023.0,3128.0,1339.0,345.0,1877.0,2203.0,2141.0,2802.0
119,231 ST,40.87899229999999,-73.904939,177.0,700.0,1502.0,1943.0,1468.0,822.0,157.0,456.0,1234.0,1592.0,1291.0,584.0,139.0,2230.0,2907.0,1942.0,2290.0,902.0,151.0,2367.0,2983.0,1956.0,2238.0,881.0,148.0,2311.0,2968.0,1915.0,2116.0,899.0,136.0,2310.0,2905.0,1958.0,2313.0,971.0,142.0,2046.0,2654.0,2245.0,2168.0
120,SMITH-9 ST,40.6746048,-73.99703970000002,298.0,533.0,1407.0,1759.0,1661.0,916.0,319.0,301.0,901.0,1403.0,1384.0,639.0,159.0,1366.0,2448.0,1856.0,2595.0,842.0,191.0,1436.0,2533.0,2002.0,2789.0,1078.0,181.0,1455.0,2376.0,1895.0,2596.0,902.0,192.0,1440.0,2224.0,1899.0,2696.0,1093.0,196.0,1362.0,2371.0,2463.0,2561.0
121,4 AV-9 ST,40.6701803,-73.98929150000002,308.0,221.0,911.0,1196.0,1335.0,880.0,327.0,178.0,674.0,1076.0,1081.0,605.0,108.0,784.0,1682.0,1223.0,2721.0,901.0,125.0,789.0,1727.0,1199.0,2820.0,1044.0,133.0,788.0,1744.0,1230.0,2809.0,1107.0,163.0,780.0,1693.0,1361.0,2705.0,1146.0,242.0,752.0,1637.0,1624.0,2256.0
122,67 AV,40.7263823,-73.8515929,154.0,403.0,1239.0,1285.0,1062.0,579.0,121.0,265.0,1025.0,1071.0,989.0,449.0,94.0,2051.0,3679.0,1587.0,2706.0,934.0,155.0,2176.0,3844.0,1590.0,2794.0,931.0,135.0,2142.0,4145.0,1628.0,2870.0,924.0,143.0,2120.0,3803.0,1699.0,2888.0,1016.0,152.0,1746.0,3413.0,1881.0,2281.0
123,ROCKAWAY AV,40.6625632,-73.9089054,350.0,568.0,1285.0,1331.0,1468.0,997.0,411.0,381.0,810.0,1192.0,1299.0,868.0,303.0,1537.0,1905.0,1772.0,2501.0,1088.0,328.0,1584.0,1889.0,1889.0,2543.0,1075.0,324.0,1508.0,2004.0,1844.0,2415.0,1144.0,345.0,1572.0,2046.0,1957.0,2545.0,1172.0,341.0,1432.0,1955.0,2058.0,2375.0
124,PELHAM BAY PARK,40.852930799999996,-73.8270555,369.0,781.0,1446.0,1909.0,2213.0,1220.0,380.0,520.0,1103.0,1845.0,1956.0,916.0,265.0,2578.0,2254.0,1793.0,2522.0,1030.0,252.0,2733.0,2237.0,1893.0,2392.0,1124.0,363.0,2625.0,2365.0,1886.0,2465.0,1098.0,304.0,2570.0,2416.0,1863.0,2501.0,1192.0,334.0,2333.0,2212.0,2157.0,2235.0
125,CLASSON AV,40.688873,-73.96007,479.0,358.0,1151.0,2000.0,2240.0,1601.0,471.0,252.0,987.0,1800.0,1832.0,1248.0,233.0,1014.0,2513.0,1694.0,3014.0,1184.0,111.0,1113.0,2629.0,1562.0,2988.0,1270.0,121.0,1051.0,2653.0,1637.0,3088.0,1269.0,103.0,1035.0,2630.0,1673.0,3096.0,1224.0,173.0,859.0,2300.0,2087.0,2672.0
126,NEW LOTS AV,40.6663015,-73.88371579999998,471.0,766.0,1190.0,1425.0,1521.0,1233.0,462.0,550.0,914.0,1269.0,1329.0,889.0,461.0,1941.0,2032.0,1987.0,2901.0,1326.0,452.0,2164.0,2013.0,1922.0,2973.0,1471.0,398.0,2182.0,2056.0,1951.0,2844.0,1535.0,466.0,2096.0,2129.0,2085.0,2877.0,1457.0,495.0,1918.0,2119.0,2329.0,2780.0
127,GRANT AV,40.6768777,-73.86534619999998,518.0,870.0,1300.0,1438.0,1691.0,1139.0,397.0,620.0,1052.0,1259.0,1286.0,968.0,337.0,1928.0,2299.0,1814.0,2692.0,1226.0,398.0,2025.0,2371.0,1946.0,2548.0,1264.0,444.0,2002.0,2380.0,1895.0,2499.0,1319.0,414.0,945.0,1206.0,1588.0,2749.0,1329.0,386.0,1815.0,2257.0,2090.0,2473.0
128,STERLING ST,40.6632908,-73.951044,219.0,330.0,1062.0,1318.0,1200.0,707.0,190.0,265.0,885.0,1213.0,992.0,558.0,138.0,1168.0,2446.0,1532.0,2248.0,802.0,146.0,1238.0,2496.0,1538.0,2134.0,,146.0,1136.0,,1530.0,2308.0,960.0,159.0,1188.0,2622.0,1566.0,2225.0,1004.0,200.0,1053.0,2301.0,1957.0,2191.0
129,PROSPECT AV,40.66541369999999,-73.99292590000002,254.0,357.0,1038.0,1370.0,1394.0,850.0,221.0,169.0,786.0,1134.0,1058.0,566.0,160.0,1245.0,2694.0,1304.0,2575.0,886.0,131.0,1291.0,2700.0,1389.0,2445.0,801.0,140.0,1180.0,2618.0,1437.0,2346.0,917.0,119.0,1199.0,2675.0,1333.0,2452.0,943.0,141.0,1109.0,2300.0,1680.0,2129.0
130,18 ST,40.74122390000001,-73.9980319,306.0,229.0,991.0,1948.0,1995.0,973.0,290.0,131.0,752.0,1632.0,1504.0,615.0,92.0,609.0,3008.0,2472.0,4626.0,1259.0,327.0,604.0,3423.0,2643.0,4876.0,1294.0,155.0,598.0,3243.0,2814.0,4771.0,1348.0,49.0,329.0,3193.0,2757.0,4712.0,1357.0,210.0,491.0,2262.0,3113.0,3510.0
131,SARATOGA AV,40.669094,-73.91828199999998,369.0,626.0,1057.0,1256.0,1353.0,1044.0,376.0,439.0,836.0,1127.0,1131.0,844.0,272.0,1946.0,2103.0,1742.0,2847.0,1215.0,313.0,1995.0,1973.0,1697.0,2777.0,1255.0,333.0,2012.0,1960.0,1793.0,2789.0,1299.0,345.0,1930.0,1946.0,1738.0,2754.0,1301.0,371.0,1772.0,1963.0,2026.0,
132,WILSON AV,40.6887823,-73.90467240000001,523.0,476.0,1214.0,1525.0,1510.0,1189.0,524.0,285.0,986.0,1433.0,1544.0,1071.0,273.0,1143.0,1827.0,1370.0,2184.0,977.0,18.0,1166.0,1801.0,1384.0,2250.0,1053.0,19.0,1107.0,1846.0,1348.0,2368.0,1129.0,0.0,1105.0,1882.0,1459.0,2178.0,1114.0,0.0,990.0,1671.0,1699.0,2072.0
133,V.CORTLANDT PK,40.89642429999999,-73.8852842,330.0,807.0,1322.0,1576.0,1669.0,982.0,295.0,487.0,1331.0,1577.0,1443.0,714.0,141.0,2534.0,2619.0,1763.0,2547.0,999.0,181.0,2692.0,2552.0,1865.0,2581.0,1027.0,201.0,2641.0,2695.0,1787.0,2616.0,1029.0,204.0,2679.0,2525.0,1861.0,2565.0,921.0,285.0,2265.0,2442.0,2023.0,2415.0
134,WESTCHESTER SQ,40.840124700000004,-73.84282579999999,386.0,772.0,1372.0,1747.0,1575.0,1092.0,311.0,498.0,916.0,1174.0,1203.0,764.0,241.0,1852.0,2494.0,2484.0,3003.0,1102.0,250.0,1905.0,2533.0,2469.0,2937.0,1183.0,275.0,1897.0,2416.0,2483.0,2934.0,1207.0,282.0,1733.0,2441.0,2478.0,3047.0,1127.0,283.0,1660.0,2393.0,2672.0,2747.0
135,FAR ROCKAWAY,40.6077527,-73.7517548,421.0,661.0,994.0,1204.0,1264.0,717.0,393.0,484.0,764.0,55378.0,936.0,607.0,252.0,1617.0,1449.0,1408.0,2099.0,814.0,304.0,1590.0,1495.0,1396.0,1958.0,941.0,307.0,1653.0,1459.0,1118.0,2086.0,914.0,285.0,1651.0,1391.0,1450.0,2071.0,861.0,311.0,1529.0,1507.0,1530.0,2130.0
136,WOODLAWN,40.88603699999999,-73.878751,314.0,836.0,1147.0,1438.0,1469.0,990.0,284.0,396.0,825.0,1307.0,1253.0,752.0,217.0,2248.0,1851.0,1410.0,1919.0,856.0,285.0,2441.0,1777.0,1275.0,1928.0,937.0,293.0,2281.0,1785.0,5345275.0,1868.0,876.0,234.0,2289.0,1751.0,1429.0,2094.0,935.0,282.0,2044.0,1589.0,1488.0,1968.0
137,CORTELYOU RD,40.6412697,-73.9639694,268.0,567.0,1336.0,1560.0,1326.0,791.0,192.0,397.0,1241.0,1499.0,1102.0,594.0,154.0,1431.0,2344.0,1285.0,1364.0,671.0,167.0,1530.0,2421.0,1364.0,1468.0,730.0,153.0,1508.0,2516.0,1350.0,1490.0,741.0,139.0,1533.0,2413.0,1353.0,1452.0,805.0,151.0,1289.0,2208.0,1421.0,1428.0
138,BERGEN ST,40.686083200000006,-73.9909074,207.0,161.0,805.0,1016.0,960.0,720.0,223.0,96.0,583.0,1022.0,965.0,523.0,79.0,499.0,1809.0,809.0,1648.0,601.0,87.0,527.0,1973.0,863.0,1647.0,674.0,118.0,501.0,2290.0,848.0,1688.0,759.0,99.0,498.0,1926.0,925.0,1712.0,938.0,187.0,396.0,1600.0,1089.0,1493.0
139,BEDFORD PK BLVD,40.8732636,-73.8871965,310.0,647.0,1196.0,1269.0,1353.0,855.0,308.0,434.0,837.0,1034.0,1030.0,635.0,207.0,1381.0,1803.0,1725.0,2363.0,1087.0,250.0,1416.0,2071.0,1637.0,2454.0,1138.0,234.0,1382.0,1856.0,1589.0,2281.0,1129.0,246.0,1447.0,1750.0,1706.0,2307.0,1177.0,269.0,1304.0,1627.0,1420.0,1727.0
140,HARLEM 148 ST,40.8240504,-73.9369385,394.0,514.0,1214.0,1764.0,1969.0,1400.0,586.0,435.0,1047.0,1411.0,1609.0,982.0,323.0,1314.0,2002.0,1654.0,2300.0,1133.0,242.0,1357.0,2089.0,1664.0,2470.0,1124.0,227.0,1347.0,2117.0,1840.0,2209.0,1177.0,225.0,1337.0,2156.0,1715.0,2428.0,1064.0,257.0,1206.0,1906.0,1876.0,2255.0
141,BAY RIDGE-95 ST,40.6167174,-74.0308527,2.0,5.0,6.0,6.0,1.0,1.0,8.0,7.0,5.0,5.0,2.0,2.0,2.0,1717.0,2344.0,1371.0,2242.0,762.0,163.0,1862.0,2381.0,1443.0,2358.0,808.0,138.0,1882.0,2334.0,1423.0,2177.0,908.0,132.0,1789.0,2347.0,1375.0,2246.0,840.0,164.0,1479.0,2155.0,1573.0,1923.0
142,CLINTON-WASH AV,40.683498900000004,-73.9668944,385.0,343.0,1334.0,1516.0,1532.0,1030.0,,200.0,,1471.0,1307.0,763.0,162.0,1346.0,3518.0,1730.0,3137.0,995.0,157.0,1414.0,3556.0,1792.0,3112.0,1243.0,181.0,1396.0,3650.0,1753.0,3182.0,1319.0,206.0,1420.0,3578.0,1795.0,3122.0,1384.0,250.0,1253.0,3058.0,2472.0,2681.0
143,KINGSTON-THROOP,40.679826500000004,-73.94112940000001,666.0,518.0,1467.0,1895.0,1812.0,1324.0,677.0,443.0,1343.0,1763.0,1646.0,1041.0,367.0,1449.0,2996.0,1888.0,2696.0,1356.0,375.0,1505.0,3076.0,1981.0,2875.0,1560.0,429.0,1467.0,3056.0,2026.0,2989.0,1542.0,468.0,1504.0,3007.0,1976.0,2909.0,1580.0,492.0,1296.0,2826.0,2394.0,2533.0
144,ST LAWRENCE AV,40.8315326,-73.8672593,435.0,636.0,1014.0,1154.0,1196.0,837.0,387.0,498.0,889.0,1056.0,1028.0,722.0,354.0,1415.0,1370.0,1322.0,1784.0,929.0,354.0,1465.0,1372.0,1371.0,1710.0,1037.0,314.0,1439.0,1426.0,1345.0,1761.0,1006.0,324.0,1429.0,1478.0,1441.0,1865.0,1081.0,372.0,1411.0,1376.0,1409.0,1732.0
145,176 ST,40.8484597,-73.9117411,230.0,862.0,1276.0,1353.0,1306.0,874.0,287.0,585.0,962.0,1215.0,1049.0,686.0,230.0,1645.0,2027.0,1648.0,1956.0,857.0,250.0,1693.0,2037.0,1770.0,1874.0,909.0,259.0,1669.0,2126.0,1635.0,1811.0,920.0,246.0,1715.0,1962.0,1786.0,1950.0,897.0,259.0,1627.0,1878.0,1849.0,1811.0
146,FULTON ST,40.709893,-74.0079818,266.0,296.0,1008.0,1796.0,1941.0,1259.0,285.0,183.0,735.0,1654.0,1700.0,863.0,157.0,731.0,1863.0,1512.0,2709.0,971.0,80.0,768.0,1954.0,1468.0,2622.0,996.0,97.0,822.0,2018.0,1598.0,2631.0,998.0,71.0,737.0,1918.0,1563.0,2903.0,1238.0,106.0,710.0,1777.0,1869.0,2732.0
147,AVENUE J,40.6252684,-73.9607296,181.0,488.0,1059.0,1217.0,1086.0,666.0,150.0,414.0,1211.0,1462.0,1322.0,595.0,108.0,1310.0,2232.0,1608.0,2352.0,894.0,151.0,1378.0,2256.0,1630.0,2374.0,945.0,200.0,1349.0,2307.0,1528.0,2287.0,918.0,126.0,1375.0,2335.0,1693.0,2368.0,893.0,171.0,1281.0,2037.0,1832.0,1883.0
148,183 ST,40.8583924,-73.90397810000002,251.0,876.0,1152.0,1275.0,1119.0,802.0,280.0,584.0,709.0,847.0,1023.0,653.0,211.0,1708.0,1647.0,1319.0,1853.0,873.0,236.0,1774.0,1674.0,1043.0,1720.0,948.0,250.0,1784.0,1748.0,1297.0,1813.0,929.0,290.0,1781.0,1825.0,1231.0,1819.0,915.0,299.0,1690.0,1646.0,1381.0,1736.0
149,18 AV,40.6201053,-73.9894661,234.0,976.0,1881.0,1798.0,1698.0,857.0,176.0,672.0,1809.0,1960.0,1632.0,762.0,162.0,2818.0,3621.0,2156.0,2878.0,982.0,164.0,2811.0,3551.0,2189.0,2856.0,1019.0,182.0,2776.0,3591.0,2225.0,2899.0,999.0,179.0,2867.0,3538.0,2253.0,2914.0,1031.0,209.0,2603.0,3390.0,2489.0,2650.0
150,KINGSTON AV,40.669284499999996,-73.9422927,293.0,300.0,798.0,1039.0,1009.0,855.0,327.0,250.0,941.0,1308.0,1179.0,693.0,210.0,963.0,1982.0,1534.0,2152.0,955.0,257.0,1010.0,2134.0,1501.0,2196.0,934.0,241.0,976.0,2168.0,1524.0,2268.0,977.0,234.0,950.0,2145.0,1619.0,2187.0,1057.0,274.0,870.0,1448.0,1652.0,2053.0
151,BEVERLEY ROAD,40.644229100000004,-73.96449799999998,285.0,325.0,788.0,989.0,1022.0,816.0,247.0,244.0,676.0,962.0,1009.0,638.0,209.0,814.0,1358.0,939.0,1601.0,834.0,207.0,856.0,1456.0,1001.0,1682.0,832.0,222.0,903.0,1450.0,984.0,1592.0,890.0,219.0,841.0,1371.0,949.0,1606.0,945.0,250.0,774.0,1307.0,1155.0,1453.0
152,71 ST,40.619621200000005,-73.99877699999998,144.0,619.0,1291.0,1048.0,967.0,588.0,115.0,380.0,1139.0,992.0,761.0,419.0,102.0,1869.0,2163.0,1114.0,1567.0,587.0,103.0,1901.0,2154.0,1034.0,1558.0,611.0,110.0,1870.0,2178.0,1008.0,1512.0,574.0,111.0,1861.0,2136.0,1087.0,1786.0,745.0,164.0,1730.0,2085.0,1209.0,1612.0
153,ST. GEORGE,40.64400390000001,-74.07332480000001,340.0,524.0,879.0,1067.0,1226.0,868.0,332.0,348.0,717.0,807.0,900.0,604.0,172.0,3253.0,2529.0,1597.0,5064.0,914.0,270.0,3380.0,2499.0,1434.0,5019.0,919.0,297.0,3242.0,2533.0,1530.0,4864.0,990.0,267.0,3329.0,2498.0,1670.0,4880.0,1126.0,263.0,2778.0,2166.0,2146.0,3834.0
154,MT EDEN AV,40.844528499999996,-73.9146157,320.0,861.0,1360.0,1552.0,1383.0,1040.0,357.0,588.0,966.0,1280.0,1139.0,755.0,293.0,1818.0,2093.0,1882.0,2359.0,1091.0,310.0,1933.0,2160.0,1842.0,2227.0,1152.0,288.0,1849.0,2293.0,1744.0,2308.0,1115.0,340.0,1948.0,2032.0,1825.0,2364.0,1213.0,348.0,1759.0,2141.0,1824.0,2085.0
155,MARBLE HILL-225,40.8743487,-73.91043309999998,156.0,458.0,937.0,1283.0,1181.0,666.0,127.0,280.0,717.0,1108.0,1047.0,454.0,72.0,1272.0,1558.0,1264.0,1573.0,679.0,93.0,1335.0,1684.0,1213.0,1566.0,589.0,111.0,1327.0,1594.0,1258.0,1653.0,595.0,95.0,1325.0,1598.0,1255.0,1644.0,698.0,127.0,1157.0,1440.0,1302.0,1491.0
156,174-175 STS,40.846524,-73.90972690000001,,,,,,,,,,,,,,,,,,,,,,,,,,,,,,,,,,,,,,,,,
157,33 ST-RAWSON ST,40.744587,-73.93099699999998,175.0,595.0,1031.0,1334.0,995.0,372.0,106.0,374.0,604.0,1015.0,675.0,264.0,157.0,1760.0,3207.0,3160.0,4461.0,863.0,163.0,2103.0,3131.0,2939.0,4320.0,858.0,147.0,1824.0,3046.0,2965.0,4193.0,772.0,159.0,1932.0,3196.0,3143.0,4209.0,844.0,168.0,1879.0,2922.0,3326.0,2939.0
158,CITY HALL,40.7135245,-74.00671009999998,97.0,149.0,748.0,1218.0,1262.0,644.0,82.0,95.0,635.0,1053.0,996.0,463.0,60.0,563.0,2201.0,2263.0,3495.0,697.0,55.0,622.0,2376.0,2378.0,3597.0,841.0,67.0,619.0,2290.0,2368.0,3533.0,808.0,73.0,596.0,2286.0,2425.0,3685.0,823.0,89.0,505.0,2025.0,2636.0,2460.0
159,182-183 STS,40.8560934,-73.90102949999998,274.0,659.0,885.0,994.0,824.0,552.0,220.0,406.0,737.0,838.0,711.0,464.0,150.0,1264.0,1363.0,1250.0,1040.0,595.0,140.0,1315.0,1414.0,1292.0,1125.0,537.0,,,1502.0,1310.0,1193.0,603.0,187.0,1295.0,1430.0,1293.0,1219.0,612.0,208.0,1228.0,1336.0,1366.0,1106.0
160,PRESIDENT ST,40.668158500000004,-73.95065859999998,234.0,304.0,702.0,966.0,857.0,509.0,246.0,190.0,530.0,776.0,894.0,453.0,132.0,884.0,2126.0,1633.0,2417.0,809.0,154.0,977.0,2195.0,1649.0,2489.0,1022.0,153.0,934.0,2189.0,1689.0,2400.0,1064.0,124.0,914.0,2162.0,1647.0,2250.0,1005.0,236.0,774.0,1894.0,1779.0,2055.0
161,77 ST,40.7736346,-73.95982939999998,4.0,2.0,0.0,1.0,1.0,1.0,2.0,0.0,0.0,0.0,0.0,0.0,0.0,1499.0,2130.0,1057.0,1522.0,514.0,83.0,1661.0,2204.0,1086.0,1573.0,513.0,81.0,1664.0,2146.0,1035.0,1515.0,568.0,82.0,1582.0,2225.0,1090.0,1654.0,513.0,76.0,1347.0,1930.0,1181.0,1389.0
162,GUN HILL RD,40.87773920000001,-73.86630459999998,104.0,362.0,552.0,550.0,514.0,302.0,105.0,224.0,406.0,480.0,377.0,249.0,104.0,2027.0,1529.0,1108.0,1033.0,357.0,141.0,2007.0,1569.0,1097.0,1370.0,582.0,200.0,2077.0,1726.0,1069.0,1000.0,435.0,153.0,2041.0,1582.0,1107.0,1051.0,464.0,144.0,1844.0,1511.0,1236.0,979.0
163,79 ST,40.783934,-73.979917,98.0,664.0,1345.0,945.0,816.0,471.0,91.0,428.0,1259.0,894.0,736.0,412.0,68.0,1876.0,2361.0,1003.0,1299.0,492.0,81.0,1984.0,2398.0,1040.0,1379.0,499.0,83.0,1934.0,2385.0,1048.0,1334.0,529.0,89.0,1958.0,2390.0,1067.0,1332.0,485.0,103.0,1807.0,2124.0,1104.0,1275.0
164,190 ST,40.858887700000004,-73.93422159999999,0.0,0.0,1.0,7.0,0.0,3.0,3.0,2.0,2.0,5.0,3.0,0.0,0.0,988.0,1861.0,1256.0,1088.0,355.0,49.0,1047.0,2018.0,1165.0,1179.0,390.0,48.0,1062.0,1959.0,1138.0,1057.0,404.0,48.0,1041.0,1979.0,1271.0,1185.0,454.0,51.0,897.0,1715.0,1439.0,1172.0
165,20 AV,40.617271,-73.9847709,67.0,541.0,979.0,966.0,861.0,416.0,58.0,361.0,922.0,858.0,665.0,304.0,42.0,1555.0,1699.0,947.0,1324.0,475.0,56.0,1582.0,1647.0,996.0,1351.0,476.0,65.0,1626.0,1632.0,934.0,1185.0,518.0,62.0,1598.0,1676.0,960.0,1220.0,511.0,64.0,1442.0,1623.0,955.0,1246.0
166,25 ST,40.6604039,-73.99810550000001,203.0,299.0,804.0,1174.0,1076.0,655.0,182.0,198.0,839.0,1199.0,914.0,535.0,121.0,899.0,1653.0,1021.0,1891.0,652.0,137.0,952.0,1730.0,1024.0,1699.0,692.0,134.0,931.0,1629.0,1151.0,1757.0,679.0,167.0,871.0,1714.0,1073.0,1795.0,748.0,170.0,817.0,1519.0,1255.0,1599.0
167,BRIARWOOD,40.7093666,-73.81988539999998,94.0,313.0,622.0,701.0,603.0,354.0,74.0,215.0,584.0,629.0,467.0,223.0,58.0,1444.0,1796.0,973.0,1522.0,561.0,117.0,1502.0,1922.0,952.0,1591.0,656.0,128.0,1451.0,1898.0,911.0,1571.0,714.0,158.0,1400.0,1873.0,964.0,1560.0,707.0,124.0,1230.0,1665.0,1112.0,1448.0
168,AQUEDUCT RACETR,40.6721498,-73.8356843,259.0,155.0,201.0,661.0,1106.0,676.0,217.0,144.0,179.0,566.0,913.0,483.0,112.0,210.0,232.0,589.0,725.0,428.0,131.0,187.0,238.0,522.0,653.0,417.0,135.0,178.0,251.0,527.0,759.0,470.0,128.0,200.0,208.0,560.0,750.0,476.0,144.0,192.0,224.0,615.0,850.0
169,PENNSYLVANIA AV,40.6646911,-73.8941747,181.0,428.0,762.0,907.0,939.0,620.0,222.0,288.0,659.0,760.0,687.0,512.0,137.0,1291.0,1257.0,1070.0,1487.0,571.0,167.0,1264.0,1430.0,1086.0,1465.0,633.0,143.0,1248.0,1412.0,1107.0,1486.0,642.0,153.0,1216.0,1425.0,1127.0,1558.0,671.0,176.0,1144.0,1369.0,1425.0,1425.0
170,AVENUE M,40.6180725,-73.9593745,95.0,316.0,844.0,924.0,233.0,114.0,82.0,293.0,1101.0,1201.0,1006.0,416.0,69.0,1207.0,1990.0,1368.0,1949.0,531.0,72.0,1216.0,2085.0,1399.0,1995.0,575.0,81.0,1292.0,2269.0,1565.0,1982.0,571.0,61.0,1243.0,2054.0,1405.0,2023.0,582.0,94.0,1060.0,1949.0,1588.0,1518.0
171,OCEAN PKWY,40.5762935,-73.9684997,120.0,265.0,780.0,1243.0,1147.0,462.0,83.0,209.0,840.0,1375.0,1341.0,383.0,59.0,776.0,1268.0,1100.0,1289.0,412.0,97.0,809.0,1288.0,1080.0,1503.0,479.0,73.0,780.0,1267.0,1124.0,1497.0,527.0,100.0,787.0,1127.0,941.0,1493.0,459.0,85.0,726.0,983.0,901.0,1074.0
172,AVENUE H,40.6297445,-73.96166170000001,155.0,218.0,689.0,759.0,799.0,557.0,147.0,200.0,587.0,745.0,710.0,440.0,114.0,716.0,1924.0,1624.0,1989.0,761.0,135.0,725.0,1967.0,1576.0,1972.0,801.0,103.0,752.0,1786.0,1511.0,1876.0,817.0,115.0,762.0,1805.0,1432.0,1950.0,762.0,138.0,600.0,1270.0,1126.0,1203.0
173,JUNIUS ST,40.67504,-73.904496,170.0,270.0,510.0,614.0,768.0,450.0,175.0,202.0,403.0,629.0,605.0,371.0,122.0,641.0,908.0,879.0,1190.0,470.0,109.0,668.0,871.0,823.0,1184.0,493.0,134.0,655.0,862.0,845.0,1183.0,531.0,140.0,640.0,925.0,894.0,1254.0,545.0,156.0,611.0,908.0,956.0,1215.0
174,NECK RD,40.595153100000005,-73.9550266,85.0,467.0,957.0,755.0,766.0,370.0,68.0,275.0,888.0,758.0,653.0,280.0,50.0,1255.0,1682.0,784.0,1157.0,390.0,54.0,1273.0,1790.0,791.0,1316.0,412.0,58.0,1273.0,1682.0,761.0,1253.0,456.0,66.0,1292.0,1684.0,838.0,1345.0,398.0,66.0,1161.0,1544.0,786.0,1185.0
175,VAN SICLEN AV,40.67274219999999,-73.8903155,236.0,318.0,660.0,797.0,889.0,607.0,261.0,276.0,492.0,703.0,791.0,549.0,200.0,1074.0,1191.0,1038.0,1548.0,775.0,184.0,1091.0,1219.0,1018.0,1542.0,759.0,222.0,1105.0,1161.0,1044.0,1506.0,667.0,200.0,1056.0,1252.0,1050.0,1555.0,745.0,196.0,943.0,1176.0,1276.0,1371.0
176,138/GRAND CONC,40.8132249,-73.9298111,246.0,452.0,614.0,729.0,709.0,376.0,233.0,309.0,385.0,489.0,515.0,366.0,164.0,1076.0,1317.0,1220.0,1405.0,512.0,176.0,1134.0,,,1397.0,551.0,212.0,1105.0,1287.0,1218.0,1396.0,529.0,225.0,1104.0,1373.0,1279.0,1487.0,529.0,206.0,1077.0,1239.0,1305.0,1344.0
177,BEVERLY RD,40.8322067,-73.3848891,104.0,375.0,661.0,717.0,611.0,359.0,69.0,269.0,512.0,667.0,512.0,258.0,69.0,1205.0,1390.0,884.0,797.0,357.0,75.0,1230.0,1415.0,865.0,807.0,352.0,71.0,1254.0,1455.0,882.0,858.0,354.0,86.0,1211.0,1476.0,862.0,810.0,378.0,99.0,1086.0,1389.0,934.0,820.0
178,75 AV,40.718331,-73.837324,36.0,91.0,525.0,499.0,376.0,185.0,25.0,68.0,,,302.0,114.0,21.0,693.0,1455.0,662.0,793.0,274.0,28.0,727.0,1500.0,649.0,880.0,339.0,30.0,735.0,1519.0,660.0,817.0,316.0,47.0,686.0,1537.0,675.0,868.0,294.0,65.0,579.0,1344.0,760.0,769.0
179,BUSHWICK AV,40.7002958,-73.94116439999998,247.0,250.0,725.0,878.0,875.0,648.0,198.0,162.0,589.0,788.0,726.0,449.0,124.0,487.0,826.0,617.0,860.0,500.0,46.0,577.0,842.0,560.0,862.0,445.0,1.0,482.0,859.0,639.0,874.0,487.0,45.0,458.0,844.0,640.0,928.0,509.0,34.0,448.0,841.0,710.0,825.0
180,BEACH 67 ST,40.5909714,-73.79631690000001,170.0,191.0,319.0,515.0,424.0,260.0,129.0,140.0,262.0,427.0,428.0,189.0,102.0,446.0,382.0,449.0,539.0,281.0,117.0,456.0,389.0,455.0,538.0,283.0,103.0,434.0,421.0,387.0,546.0,311.0,121.0,461.0,361.0,453.0,526.0,313.0,111.0,410.0,417.0,415.0,510.0
181,WHITLOCK AV,40.82674420000001,-73.88634559999998,198.0,419.0,624.0,797.0,896.0,558.0,274.0,306.0,546.0,695.0,707.0,517.0,196.0,619.0,683.0,634.0,984.0,484.0,174.0,666.0,689.0,635.0,1052.0,578.0,196.0,634.0,719.0,653.0,894.0,520.0,254.0,670.0,707.0,668.0,940.0,541.0,225.0,638.0,654.0,742.0,881.0
182,W 8 ST-AQUARIUM,40.57612779999999,-73.97596539999998,181.0,143.0,1070.0,2625.0,2690.0,980.0,140.0,98.0,1228.0,2893.0,2697.0,565.0,58.0,512.0,1670.0,2253.0,1816.0,534.0,28.0,504.0,1678.0,2202.0,1774.0,603.0,41.0,519.0,1617.0,2669.0,2166.0,547.0,30.0,521.0,1462.0,2230.0,1830.0,476.0,54.0,470.0,1286.0,1864.0,1497.0
183,PARK PLACE,40.7132422,-74.0092559,38.0,80.0,319.0,621.0,644.0,385.0,40.0,29.0,322.0,461.0,498.0,208.0,17.0,436.0,1709.0,1065.0,2091.0,367.0,37.0,515.0,1666.0,1252.0,2068.0,378.0,35.0,480.0,1824.0,1151.0,2102.0,395.0,29.0,478.0,1718.0,1136.0,2066.0,349.0,34.0,369.0,1399.0,1317.0,1288.0
184,215 ST,40.8695946,-73.9153019,153.0,185.0,551.0,674.0,649.0,374.0,123.0,129.0,481.0,643.0,592.0,342.0,56.0,345.0,767.0,782.0,842.0,317.0,82.0,353.0,831.0,750.0,826.0,383.0,79.0,305.0,803.0,707.0,808.0,351.0,66.0,306.0,734.0,727.0,861.0,450.0,80.0,324.0,821.0,845.0,729.0
185,HOWARD BCH JFK,40.660476,-73.83030099999998,,,,,,,,,,,,,,,,,,,,,,,,,,,,,,,,,,,,,,,,,
186,BEACH 25 ST,40.59946790000001,-73.7618536,186.0,218.0,303.0,397.0,376.0,359.0,182.0,142.0,276.0,340.0,369.0,284.0,153.0,671.0,481.0,459.0,788.0,486.0,154.0,726.0,541.0,508.0,767.0,525.0,191.0,708.0,515.0,345.0,774.0,482.0,154.0,711.0,470.0,468.0,827.0,474.0,160.0,653.0,501.0,519.0,802.0
187,BEACH 60 ST,40.59244,-73.78928300000003,184.0,209.0,324.0,475.0,422.0,310.0,136.0,178.0,260.0,380.0,392.0,232.0,149.0,494.0,514.0,610.0,636.0,326.0,148.0,543.0,498.0,540.0,639.0,307.0,166.0,553.0,507.0,371.0,646.0,366.0,140.0,523.0,469.0,571.0,607.0,349.0,160.0,482.0,516.0,588.0,579.0
188,ATLANTIC AV,40.675554,-73.90305759999998,67.0,188.0,290.0,408.0,338.0,269.0,65.0,116.0,253.0,323.0,295.0,208.0,51.0,505.0,529.0,398.0,605.0,171.0,25.0,480.0,588.0,408.0,631.0,179.0,25.0,492.0,532.0,394.0,638.0,194.0,39.0,481.0,502.0,403.0,659.0,208.0,37.0,448.0,559.0,588.0,576.0
189,BEACH 36 ST,40.595532,-73.7681238,121.0,113.0,169.0,216.0,222.0,193.0,75.0,109.0,151.0,188.0,192.0,171.0,75.0,289.0,262.0,261.0,400.0,195.0,69.0,286.0,285.0,225.0,360.0,214.0,77.0,280.0,261.0,195.0,378.0,220.0,75.0,277.0,261.0,284.0,410.0,236.0,77.0,256.0,228.0,223.0,357.0
190,55 ST,40.6315514,-73.9956328,43.0,104.0,240.0,230.0,218.0,126.0,33.0,85.0,341.0,428.0,450.0,157.0,36.0,386.0,780.0,674.0,974.0,251.0,66.0,383.0,784.0,707.0,977.0,243.0,42.0,378.0,794.0,637.0,889.0,239.0,49.0,365.0,817.0,591.0,995.0,260.0,55.0,363.0,726.0,755.0,747.0
191,104 ST,40.695145600000004,-73.8443046,69.0,389.0,481.0,435.0,373.0,227.0,74.0,192.0,361.0,361.0,285.0,188.0,18.0,528.0,950.0,603.0,707.0,236.0,76.0,1404.0,956.0,620.0,658.0,254.0,66.0,1345.0,1047.0,536.0,619.0,260.0,63.0,1396.0,981.0,576.0,719.0,251.0,77.0,1194.0,939.0,593.0,659.0
192,BEACH 44 ST,40.592920899999996,-73.77594839999998,95.0,107.0,152.0,201.0,162.0,138.0,70.0,84.0,105.0,138.0,155.0,136.0,61.0,246.0,197.0,214.0,296.0,159.0,60.0,260.0,195.0,211.0,281.0,182.0,67.0,260.0,203.0,214.0,252.0,157.0,63.0,264.0,201.0,210.0,292.0,176.0,71.0,233.0,219.0,223.0,293.0
193,WORLD TRADE CTR,40.712645200000004,-74.00989799999998,1000.0,1166.0,4535.0,7631.0,8525.0,4768.0,1070.0,796.0,3513.0,6295.0,6692.0,3278.0,441.0,2946.0,9185.0,6529.0,12751.0,2509.0,320.0,3501.0,9607.0,6856.0,13649.0,2971.0,381.0,3107.0,9001.0,6468.0,12928.0,2835.0,356.0,2810.0,8765.0,6970.0,13236.0,2705.0,399.0,2486.0,7180.0,8791.0,9444.0
194,NASSAU AV,40.7238944,-73.9506777,433.0,422.0,1476.0,2481.0,2559.0,1399.0,467.0,254.0,1105.0,2007.0,1871.0,940.0,156.0,1570.0,3691.0,2050.0,4091.0,941.0,15.0,1625.0,3993.0,2076.0,4053.0,850.0,1.0,1585.0,3972.0,2159.0,3977.0,938.0,5.0,1536.0,3829.0,2228.0,4114.0,870.0,0.0,1377.0,3258.0,2623.0,3693.0
195,39 AV,40.752689700000005,-73.9328056,,,,,,,,,,,,,,,,,,,,,,,,,,,,,,,,,,,,,,,,,
196,36 AV,40.7668516,-73.921313,,,,,,,,,,,,,,,,,,,,,,,,,,,,,,,,,,,,,,,,,
197,BROADWAY,40.7623472,-73.9256595,,,,,,,,,,,,,,,,,,,,,,,,,,,,,,,,,,,,,,,,,
198,COURT SQ-23 ST,40.748050799999994,-73.94704779999998,178.0,260.0,768.0,956.0,858.0,526.0,128.0,139.0,770.0,976.0,676.0,355.0,93.0,983.0,1966.0,1307.0,2262.0,623.0,117.0,1224.0,2171.0,1387.0,2357.0,685.0,117.0,1070.0,1925.0,1367.0,2245.0,641.0,115.0,1102.0,1858.0,1482.0,2322.0,715.0,101.0,896.0,1788.0,1674.0,1881.0
199,ASTORIA DITMARS,40.7750119,-73.91211,909.0,874.0,2589.0,3230.0,3242.0,2356.0,747.0,608.0,2159.0,2801.0,2740.0,1798.0,414.0,3482.0,6859.0,3658.0,7186.0,3013.0,527.0,3651.0,7311.0,3710.0,7070.0,3170.0,519.0,3574.0,7208.0,3749.0,7232.0,3202.0,652.0,3471.0,7164.0,3977.0,6938.0,3482.0,641.0,2939.0,6118.0,4733.0,5874.0
200,CYPRESS HILLS,40.68994860000001,-73.87257310000003,50.0,128.0,171.0,178.0,226.0,141.0,24.0,68.0,143.0,195.0,189.0,116.0,40.0,531.0,394.0,335.0,569.0,177.0,42.0,547.0,433.0,350.0,495.0,158.0,61.0,515.0,393.0,338.0,545.0,197.0,70.0,490.0,409.0,358.0,503.0,205.0,46.0,473.0,409.0,350.0,500.0
201,30 AV,40.7668516,-73.921313,419.0,758.0,2692.0,3148.0,2757.0,1537.0,390.0,498.0,2022.0,2868.0,2124.0,1142.0,188.0,3344.0,8234.0,4504.0,8828.0,3999.0,629.0,3601.0,8750.0,4285.0,9144.0,4310.0,639.0,3619.0,8615.0,4493.0,8784.0,4366.0,713.0,,,4883.0,9231.0,4518.0,896.0,2955.0,7324.0,5993.0,7509.0
202,121 ST,40.7006094,-73.8281286,46.0,83.0,185.0,178.0,196.0,108.0,46.0,65.0,101.0,135.0,128.0,88.0,29.0,393.0,351.0,311.0,414.0,160.0,44.0,406.0,385.0,322.0,380.0,177.0,44.0,398.0,346.0,314.0,396.0,188.0,58.0,391.0,364.0,315.0,423.0,,,365.0,361.0,335.0,353.0
203,75 ST-ELDERTS,40.69143649999999,-73.8665512,114.0,468.0,555.0,558.0,652.0,432.0,126.0,280.0,449.0,481.0,460.0,295.0,127.0,1312.0,1098.0,892.0,1225.0,435.0,156.0,1334.0,1128.0,815.0,1273.0,529.0,135.0,1302.0,1081.0,807.0,1221.0,517.0,134.0,1314.0,1109.0,836.0,1268.0,564.0,146.0,1211.0,1046.0,855.0,1187.0
204,AVENUE X,40.589682200000006,-73.9742509,95.0,301.0,489.0,515.0,543.0,310.0,90.0,171.0,408.0,456.0,474.0,274.0,81.0,906.0,1020.0,766.0,1134.0,404.0,99.0,946.0,1032.0,728.0,1173.0,450.0,91.0,958.0,975.0,707.0,1106.0,456.0,81.0,955.0,998.0,798.0,1164.0,472.0,82.0,889.0,895.0,927.0,993.0
205,AVENUE P,40.6087814,-73.97290840000001,46.0,220.0,395.0,373.0,331.0,200.0,68.0,158.0,418.0,461.0,313.0,157.0,43.0,632.0,842.0,484.0,660.0,214.0,46.0,697.0,867.0,526.0,690.0,264.0,57.0,707.0,895.0,504.0,775.0,253.0,64.0,712.0,880.0,519.0,684.0,223.0,52.0,623.0,730.0,476.0,625.0
206,85 ST-FOREST PK,40.6924861,-73.8590708,143.0,436.0,672.0,640.0,629.0,428.0,142.0,261.0,548.0,502.0,551.0,303.0,115.0,1395.0,1282.0,1021.0,1301.0,560.0,131.0,1399.0,1292.0,913.0,1215.0,579.0,127.0,1390.0,1293.0,1024.0,1180.0,627.0,135.0,1398.0,1310.0,935.0,1316.0,580.0,173.0,1271.0,1299.0,973.0,1225.0
207,WOODHAVEN BLVD,40.6939097,-73.85139269999998,174.0,498.0,723.0,851.0,842.0,468.0,141.0,345.0,577.0,653.0,682.0,407.0,109.0,1456.0,1517.0,1183.0,1710.0,661.0,181.0,1562.0,1542.0,1161.0,1695.0,671.0,171.0,1566.0,1563.0,1134.0,1679.0,725.0,138.0,1540.0,1513.0,1173.0,1782.0,685.0,181.0,1451.0,1581.0,1302.0,1619.0
208,METROPOLITAN AV,40.712132700000005,-73.889276,159.0,316.0,775.0,1187.0,1140.0,554.0,,,530.0,1065.0,951.0,390.0,113.0,1333.0,1255.0,1231.0,2084.0,529.0,88.0,1458.0,1205.0,1192.0,2111.0,631.0,120.0,1396.0,1265.0,1274.0,2000.0,617.0,125.0,1391.0,1253.0,1131.0,2062.0,667.0,106.0,1283.0,1234.0,1448.0,1913.0
209,GREENPOINT AV,40.7301618,-73.9540458,530.0,533.0,1743.0,2572.0,2671.0,1749.0,440.0,289.0,1264.0,1951.0,2056.0,1066.0,164.0,1860.0,4465.0,2585.0,5056.0,1140.0,0.0,1965.0,4751.0,2808.0,5307.0,1092.0,0.0,1867.0,4603.0,2726.0,5119.0,1269.0,2.0,1849.0,4475.0,3044.0,5394.0,1230.0,0.0,1637.0,3466.0,3257.0,4592.0
