,StationName,Latitude,Longitude,2019-02-16 03:00:00,2019-02-16 07:00:00,2019-02-16 11:00:00,2019-02-16 15:00:00,2019-02-16 19:00:00,2019-02-16 23:00:00,2019-02-17 03:00:00,2019-02-17 07:00:00,2019-02-17 11:00:00,2019-02-17 15:00:00,2019-02-17 19:00:00,2019-02-17 23:00:00,2019-02-18 03:00:00,2019-02-18 07:00:00,2019-02-18 11:00:00,2019-02-18 15:00:00,2019-02-18 19:00:00,2019-02-18 23:00:00,2019-02-19 03:00:00,2019-02-19 07:00:00,2019-02-19 11:00:00,2019-02-19 15:00:00,2019-02-19 19:00:00,2019-02-19 23:00:00,2019-02-20 03:00:00,2019-02-20 07:00:00,2019-02-20 11:00:00,2019-02-20 15:00:00,2019-02-20 19:00:00,2019-02-20 23:00:00,2019-02-21 03:00:00,2019-02-21 07:00:00,2019-02-21 11:00:00,2019-02-21 15:00:00,2019-02-21 19:00:00,2019-02-21 23:00:00,2019-02-22 03:00:00,2019-02-22 07:00:00,2019-02-22 11:00:00,2019-02-22 15:00:00,2019-02-22 19:00:00
0,34 ST-HERALD SQ,40.748897899999996,-73.98878859999998,3259.0,16817.0,32252.0,44272.0,27897.0,8859.0,2434.0,12134.0,28289.0,38174.0,21179.0,4319.0,3758.0,27823.0,12991.0,20947.0,23973.0,3523.0,7060.0,63314.0,41204.0,84114.0,35265.0,4364.0,6749.0,61389.0,39844.0,77230.0,31847.0,4411.0,7065.0,248069437.0,248074642.0,85385.0,39890.0,6156.0,6943.0,58078.0,44325.0,62647.0,38413.0
1,TIMES SQ-42 ST,40.7545563,-73.98667370000001,2977.0,14358.0,28858.0,40416.0,30892.0,10237.0,2012.0,10880.0,26201.0,34572.0,21636.0,5423.0,3407.0,22995.0,25029.0,39187.0,20805.0,4658.0,6149.0,50997.0,30682.0,66701.0,32216.0,5998.0,6107.0,49971.0,33671.0,61898.0,27616.0,5480.0,5736.0,50939.0,32458.0,66995.0,35555.0,7462.0,5854.0,48064.0,34290.0,66943.0,35042.0
2,34 ST-PENN STA,40.751056,-73.99031020000001,3782.0,8847.0,26572.0,20382.0,19983.0,6427.0,2262.0,9471198.0,24083.0,29501.0,17091.0,3436.0,4063.0,24696.0,14268.0,38325.0,17873.0,3070.0,10986.0,36101.0,33214.0,80285.0,29648.0,4068.0,10923.0,67671.0,34041.0,72408.0,26131.0,3911.0,10734.0,70317.0,33636.0,80640.0,33626.0,5031.0,10199.0,61323.0,37286.0,72569.0,28974.0
3,59 ST COLUMBUS,40.7684839,-73.98180699999999,1764.0,11311.0,21946.0,26362.0,14725.0,5007.0,1330.0,8838.0,18798.0,21867.0,10403.0,2620.0,2209.0,13288.0,20086.0,25792.0,12098.0,2685.0,4419.0,33470.0,25928.0,43969.0,21904.0,3109.0,4454.0,33815.0,27462.0,41071.0,18717.0,3167.0,4297.0,34448.0,27362.0,45313.0,23344.0,3994.0,4329.0,30364.0,26610.0,41979.0,19715.0
4,86 ST,40.7795016,-73.95557240000001,1593.0,10246.0,18724.0,22597.0,10494.0,2322.0,1162.0,7407.0,16446.0,16550.0,6806.0,1572.0,2483.0,14508.0,20084.0,22872.0,8721.0,1398.0,4625.0,31347.0,21426.0,36561.0,15780.0,1860.0,4821.0,32950.0,368703.0,35791.0,14145.0,1746.0,4850.0,32944.0,22167.0,38119.0,16537.0,2166.0,4664.0,32004.0,24016.0,38567.0,15339.0
5,GRD CNTRL-42 ST,40.75216470000001,-73.97715339999998,1648.0,10010.0,18163.0,20116.0,10082.0,2811.0,930.0,7259.0,15718.0,16212.0,7992.0,1504.0,2281.0,16527.0,17776.0,23472.0,9479.0,1546.0,6319.0,49762.0,24521.0,51189.0,18755.0,2273.0,6359.0,48219.0,26068.0,50894.0,17134.0,2343.0,6132.0,48276.0,24736.0,50619.0,19761.0,166.0,257.0,43587.0,25514.0,50546.0,18047.0
6,59 ST,40.6415685,-74.0176783,2198.0,10469.0,16005.0,19676.0,9726.0,4037.0,1403.0,7464.0,13187.0,14750.0,7327.0,2001.0,2911.0,15342.0,16747.0,23290.0,9546.0,1970.0,3337.0,17676.0,21374.0,40340.0,15328.0,2587.0,5425.0,34530.0,21066.0,37686.0,13549.0,2514.0,5387.0,34620.0,21921.0,41018.0,16340.0,3238.0,5323.0,33408.0,22347.0,39846.0,14610.0
7,FLUSHING-MAIN,40.75955820000001,-73.82992209999998,2997.0,15237.0,17451.0,20567.0,13728.0,3463.0,1912.0,10890.0,15157.0,16895.0,10387.0,2717.0,4455.0,17315.0,15316.0,20197.0,12583.0,2485.0,7398.0,28336.0,16848.0,29190.0,15020.0,2810.0,7248.0,27598.0,15352.0,25182.0,13844.0,2528.0,7141.0,28559.0,17383.0,29132.0,17002.0,3077.0,7094.0,27459.0,16197.0,26867.0,18270.0
8,ATL AV-BARCLAY,40.6837598,-73.97875739999998,1179.0,6103.0,13693.0,20920.0,14998.0,3019.0,916.0,4643.0,12300.0,14113.0,6984.0,1598.0,1299.0,8095.0,12057.0,16919.0,8200.0,1355.0,2594.0,21409.0,13280.0,25537.0,11200.0,2072.0,2734.0,20841.0,12495.0,23419.0,9974.0,2354.0,2840.0,20948.0,13500.0,30371.0,19957.0,3259.0,2778.0,19697.0,14661.0,26727.0,12172.0
9,23 ST,40.7413626,-73.9891335,1200.0,8406.0,17880.0,21975.0,11985.0,4047.0,931.0,5764.0,14243.0,17264.0,8660.0,2174.0,1415.0,12412.0,17119.0,24667.0,11465.0,1685.0,2582.0,33275.0,21642.0,44589.0,21283.0,2300.0,2443.0,33108.0,22001.0,41329.0,19174.0,2185.0,2644.0,32943.0,22424.0,45257.0,22782.0,3001.0,2528.0,11634071.0,23277.0,44190.0,19550.0
10,42 ST-PORT AUTH,40.7578346,-73.99146259999998,2468.0,13588.0,15858.0,18967.0,12746.0,3433.0,1419.0,9362.0,13856.0,16223.0,10731.0,2330.0,4239.0,18484.0,15066.0,22542.0,13542.0,2187.0,9807.0,41833.0,16698.0,39212.0,17647.0,2268.0,9314.0,38719.0,19778.0,38194.0,15499.0,2368.0,7499.0,42099.0,16735.0,37174.0,18400.0,2742.0,8835.0,37049.0,18492.0,37988.0,18339.0
11,14 ST,40.73747540000001,-73.9970975,1119.0,5902.0,14329.0,17904.0,10642.0,3546.0,968.0,4410.0,12410.0,14778.0,7128.0,1730.0,1094.0,7949.0,12857.0,18057.0,8759.0,1438.0,1647.0,16764.0,11886.0,23080.0,12290.0,1595.0,1612.0,17140.0,11951.0,21363.0,11179.0,1642.0,1604.0,9087.0,6671.0,24345.0,13699.0,2300.0,1675.0,16152.0,13864.0,24240.0,13236.0
12,JKSN HT-ROOSVLT,40.746739,-73.89099859999999,,,,,,,,,,,,,,,,,,,,,,,,,,,,,,,,,,,,,,,,,
13,BEDFORD AV,40.717354,-73.956972,1.0,0.0,0.0,0.0,0.0,0.0,0.0,0.0,,0.0,0.0,20.0,2.0,,0.0,0.0,,0.0,494.0,4226.0,,15760.0,10869.0,240.0,1324.0,13295.0,7237.0,14227.0,9437.0,276.0,1225.0,13415.0,8040.0,16569.0,11680.0,467.0,1236.0,12450.0,8660.0,17496.0,11932.0
14,47-50 STS ROCK,40.75885,-73.98118610000002,1295.0,5478.0,9713.0,14236.0,8707.0,3235.0,772.0,4101.0,8417.0,11670.0,5454.0,1591.0,1594.0,13850.0,12784.0,20022.0,7187.0,1401.0,4104.0,42942.0,19490.0,36418.0,11302.0,2098.0,4325.0,42454.0,19654.0,44366.0,13085.0,2084.0,4188.0,43091.0,19669.0,44456.0,14666.0,2503.0,4189.0,39882.0,20846.0,42450.0,12868.0
15,34 ST-HUDSON YD,40.7549713,-74.0010084,843.0,2479.0,3336.0,4399.0,1159.0,406.0,462.0,1802.0,2794.0,3686.0,1050.0,293.0,1058.0,3242.0,3275.0,4904.0,1287.0,325.0,2542.0,7464.0,4642.0,8949.0,1624.0,290.0,2381.0,6825.0,4014.0,7385.0,1920.0,358.0,2442.0,6850.0,4160.0,7948.0,2095.0,438.0,2130.0,6120.0,4174.0,7282.0,2208.0
16,CHAMBERS ST,40.7155134,-74.00922270000001,903.0,7110.0,13192.0,13774.0,6423.0,1888.0,593.0,5144.0,11302.0,11023.0,4515.0,1023.0,1184.0,8333.0,10592.0,13059.0,5046.0,1050.0,3193.0,31672.0,23404.0,39661.0,14155.0,1545.0,2983.0,30777.0,22549.0,35022.0,12603.0,1527.0,3126.0,30947.0,23370.0,40032.0,14965.0,1824.0,2871.0,27771.0,22213.0,35899.0,11378.0
17,125 ST,40.8043863,-73.9374292,1756.0,7557.0,12284.0,3345.0,2250.0,3565.0,1276.0,6180.0,11179.0,11928.0,7080.0,2237.0,1926.0,8559.0,10615.0,14685.0,7988.0,1927.0,2894.0,16437.0,12025.0,19249.0,10035.0,2145.0,2911.0,16410.0,12159.0,17561.0,9382.0,2027.0,2898.0,16436.0,12524.0,20443.0,11036.0,2595.0,2949.0,15610.0,12935.0,20910.0,11259.0
18,57 ST-7 AV,40.765564000000005,-73.9803309,875.0,5263.0,8838.0,11379.0,6937.0,2555.0,651.0,3958.0,7541.0,9143.0,4861.0,1329.0,891.0,6637.0,8051.0,11449.0,5806.0,1290.0,1839.0,16555.0,10047.0,21066.0,10435.0,1828.0,1940.0,16955.0,10374.0,20549.0,9263.0,1812.0,1986.0,17036.0,10514.0,21693.0,11336.0,2377.0,1850.0,16180.0,10360.0,21308.0,10501.0
19,GRAND ST,40.7182003,-73.9935756,566.0,5365.0,9416.0,10693.0,5983.0,1568.0,456.0,4626.0,11843.0,11899.0,4595.0,770.0,592.0,5778.0,7877.0,9794.0,4191.0,625.0,1672.0,12748.0,11244.0,15608.0,7660.0,858.0,1626.0,11168.0,8620.0,13354.0,6501.0,803.0,1496.0,12552.0,10600.0,15960.0,8433.0,956.0,1595.0,12418.0,11613.0,17161.0,9330.0
20,145 ST,40.8240532,-73.94476230000001,1977.0,7732.0,10976.0,12532.0,8209.0,3967.0,1603.0,5950.0,9364.0,10399.0,6882.0,2744.0,2220.0,8406.0,9518.0,12219.0,7764.0,2438.0,3249.0,17321.0,11506.0,18306.0,11339.0,2947.0,3394.0,17403.0,11186.0,16296.0,10035.0,3114.0,3190.0,16090.0,11101.0,18613.0,11921.0,3222.0,3275.0,16004.0,11742.0,17932.0,10883.0
21,42 ST-BRYANT PK,40.75483679999999,-73.9841215,898.0,4538.0,8896.0,11915.0,6986.0,2422.0,616.0,3168.0,7265.0,9347.0,4819.0,1340.0,1098.0,8742.0,9083.0,13983.0,5775.0,1231.0,2285.0,24595.0,13804.0,30695.0,11783.0,1665.0,2271.0,24552.0,13941.0,28914.0,10302.0,1475.0,2300.0,24798.0,14461.0,31446.0,12421.0,2026.0,2378.0,23292.0,14676.0,30438.0,11243.0
22,2 AV,40.723412700000004,-73.9902885,754.0,2915.0,6137.0,8582.0,7375.0,3133.0,682.0,2272.0,6107.0,7330.0,4966.0,1447.0,538.0,3595.0,5168.0,7510.0,4628.0,1020.0,838.0,7630.0,4955.0,9325.0,6498.0,1308.0,802.0,7470.0,5156.0,8603.0,6192.0,1265.0,854.0,7395.0,4901.0,9952.0,7513.0,1705.0,923.0,7226.0,5458.0,10750.0,8685.0
23,50 ST,40.7620363,-73.98632909999998,1595.0,7893.0,14028.0,17658.0,9658.0,4122.0,1444.0,7530.0,14112.0,16844.0,10462.0,2784.0,1630.0,9667.0,10615.0,14397.0,8885.0,2144.0,3091.0,24998.0,13973.0,29643.0,14912.0,2756.0,3162.0,24268.0,15182.0,30022.0,14470.0,2881.0,3144.0,25621.0,14186.0,30974.0,16616.0,3223.0,2989.0,23823.0,15220.0,30321.0,16273.0
24,CHURCH AV,40.6495233,-73.96328390000001,2070.0,7709.0,8266.0,9531.0,6038.0,2604.0,1514.0,6017.0,7232.0,8330.0,4947.0,1721.0,3069.0,10806.0,8305.0,12040.0,6631.0,1828.0,3162.0,13589.0,7707.0,12860.0,7477.0,1477.0,2909.0,13492.0,7171.0,12023.0,6990.0,1476.0,2966.0,13569.0,7758.0,13404.0,7795.0,1676.0,2959.0,13085.0,8344.0,12964.0,7179.0
25,PRINCE ST,40.7242353,-73.99780600000001,280.0,2316.0,7803.0,11439.0,5232.0,988.0,193.0,1694.0,7198.0,10079.0,3309.0,524.0,352.0,3328.0,7381.0,9942.0,3537.0,516.0,468.0,5304.0,5225.0,9862.0,3840.0,468.0,410.0,5392.0,4961.0,8129.0,3501.0,409.0,384.0,5295.0,5597.0,10470.0,4560.0,576.0,363.0,4809.0,5816.0,9341.0,4459.0
26,SPRING ST,40.7257799,-74.00395209999998,343.0,2196.0,5832.0,8160.0,4358.0,1099.0,226.0,1600.0,5817.0,7416.0,3089.0,559.0,400.0,2850.0,5492.0,7690.0,3279.0,446.0,693.0,7677.0,7261.0,14879.0,6917.0,721.0,667.0,7604.0,7482.0,14222.0,7078.0,837.0,679.0,7824.0,7729.0,15662.0,7666.0,1188.0,655.0,7562.0,8803.0,16147.0,7533.0
27,LEXINGTON AV/63,40.764629,-73.96611299999998,725.0,4431.0,7249.0,8357.0,4130.0,1814.0,549.0,2924.0,5442.0,6069.0,3052.0,826.0,1030.0,6594.0,6649.0,9146.0,3717.0,650.0,1596.0,13364.0,8502.0,14227.0,6416.0,888.0,1839.0,12495.0,7562.0,13068.0,5459.0,854.0,1906.0,13661.0,8824.0,14734.0,7082.0,1063.0,1894.0,12573.0,8653.0,13732.0,5379.0
28,NOSTRAND AV,40.6697362,-73.95050890000002,949.0,4435.0,6414.0,7054.0,4868.0,1713.0,693.0,3321.0,5464.0,5520.0,3672.0,1074.0,979.0,5177.0,5583.0,6906.0,4157.0,1034.0,1668.0,10891.0,6007.0,9077.0,6168.0,1318.0,1705.0,11052.0,5702.0,8053.0,5525.0,1184.0,1710.0,10894.0,6112.0,9645.0,6585.0,1646.0,1707.0,10802.0,6702.0,10010.0,6161.0
29,JAY ST-METROTEC,40.6922507,-73.9872792,749.0,4266.0,7946.0,8926.0,4642.0,1530.0,499.0,3313.0,6743.0,7016.0,3500.0,900.0,825.0,4536.0,6448.0,8630.0,3888.0,835.0,1761.0,18581.0,15523.0,25362.0,9593.0,1072.0,1751.0,18378.0,15350.0,23394.0,8498.0,1108.0,1808.0,18029.0,15333.0,25932.0,9705.0,1363.0,1822.0,16011.0,14991.0,22802.0,7964.0
30,1 AV,40.7312776,-73.9823439,77.0,71.0,86.0,36.0,32.0,27.0,35.0,32.0,14.0,47.0,13.0,15.0,21.0,58.0,49.0,47.0,86.0,20.0,1365.0,8830.0,5927.0,11408.0,7491.0,142.0,1431.0,9745.0,6521.0,11471.0,7352.0,318.0,1414.0,9775.0,6328.0,11551.0,8547.0,395.0,1282.0,9367.0,6677.0,12381.0,9736.0
31,STEINWAY ST,40.756691700000005,-73.92064090000001,706.0,3929.0,6828.0,8099.0,5076.0,2054.0,591.0,3029.0,5973.0,6710.0,3848.0,914.0,712.0,3641.0,4572.0,6220.0,3620.0,680.0,1063.0,7175.0,4515.0,7273.0,3924.0,601.0,1063.0,7076.0,4346.0,6496.0,3379.0,571.0,1002.0,7219.0,4743.0,7558.0,4075.0,651.0,1020.0,6875.0,4791.0,8002.0,4353.0
32,JUNCTION BLVD,40.749203,-73.8693365,2178.0,5655.0,5742.0,7554.0,3985.0,1692.0,1261.0,3891.0,4728.0,5448.0,3155.0,1295.0,3122.0,6140.0,4654.0,7876.0,3901.0,1423.0,4024.0,8883.0,5315.0,11207.0,4112.0,1478.0,3989.0,8870.0,5054.0,9831.0,4356.0,1505.0,4172.0,8859.0,5305.0,11267.0,5111.0,1763.0,4209.0,8962.0,5454.0,10682.0,5533.0
33,DEKALB AV,40.68982020000001,-73.9811611,482.0,2460.0,4487.0,5375.0,2628.0,975.0,374.0,1815.0,3908.0,4309.0,2148.0,604.0,619.0,3394.0,4183.0,5150.0,2392.0,526.0,2270.0,14444.0,7378.0,12083.0,5689.0,747.0,2309.0,14605.0,7195.0,10886.0,5023.0,703.0,2239.0,14459.0,7822.0,12315.0,6238.0,931.0,2300.0,13709.0,7676.0,11910.0,5703.0
34,BOROUGH HALL,40.6931492,-73.9900883,469.0,3376.0,7073.0,7284.0,3447.0,930.0,326.0,2229.0,5460.0,5551.0,2555.0,546.0,667.0,4555.0,6279.0,8193.0,3317.0,494.0,1443.0,17929.0,13833.0,20585.0,7090.0,719.0,1537.0,18072.0,13544.0,19377.0,6223.0,677.0,1425.0,17906.0,13702.0,21486.0,7706.0,870.0,1309.0,16720.0,13632.0,18621.0,5914.0
35,CROWN HTS-UTICA,40.6689469,-73.93183379999998,1431.0,5041.0,6405.0,7184.0,4948.0,1746.0,1030.0,3661.0,5148.0,5815.0,3694.0,1273.0,2105.0,6326.0,5814.0,7830.0,4910.0,1306.0,3677.0,13042.0,7095.0,11302.0,7046.0,1550.0,3699.0,12984.0,7112.0,10136.0,6065.0,1370.0,3615.0,12933.0,7383.0,11355.0,6929.0,1805.0,3503.0,12219.0,7682.0,11468.0,6615.0
36,8 ST-NYU,40.7306065,-73.99244159999998,427.0,2511.0,6322.0,8968.0,7650.0,2669.0,330.0,1959.0,5875.0,8094.0,5326.0,1273.0,315.0,3254.0,4686.0,6683.0,4951.0,978.0,562.0,7470.0,5124.0,10824.0,6080.0,911.0,521.0,7443.0,5189.0,10429.0,5705.0,889.0,482.0,7366.0,5199.0,10763.0,6669.0,1163.0,540.0,6800.0,5476.0,10977.0,6979.0
37,CANAL ST,40.722713899999995,-74.00630600000001,443.0,2632.0,5336.0,6786.0,3540.0,1007.0,290.0,2024.0,5976.0,6331.0,2309.0,522.0,542.0,3485.0,4830.0,6543.0,2647.0,490.0,1216.0,10224.0,6295.0,14035.0,5187.0,741.0,1274.0,10203.0,6043.0,13056.0,4859.0,699.0,1242.0,10409.0,6506.0,14502.0,5890.0,941.0,1204.0,9680.0,7068.0,14019.0,5405.0
38,QUEENSBORO PLZ,40.7505127,-73.9398439,1277.0,6083.0,7542.0,7414.0,3828.0,1390.0,847.0,3841.0,6425.0,5115.0,2760.0,620.0,474.0,2711.0,2539.0,3959.0,1489.0,373.0,777.0,5223.0,2761.0,5700.0,2321.0,540.0,856.0,5133.0,2678.0,5482.0,1993.0,442.0,781.0,5128.0,,,2265.0,536.0,778.0,4767.0,3013.0,5560.0,2265.0
39,MYRTLE-WYCKOFF,40.699686,-73.9117713,1069.0,3284.0,3954.0,4086.0,2671.0,1051.0,707.0,2252.0,3114.0,3110.0,1945.0,792.0,1946.0,5477.0,3973.0,4833.0,2679.0,775.0,2515.0,8896.0,4684.0,7152.0,4590.0,835.0,2522.0,8779.0,4641.0,6587.0,4304.0,820.0,2477.0,8704.0,4690.0,7408.0,4876.0,984.0,2481.0,8649.0,5218.0,7775.0,4822.0
40,51 ST,40.757135,-73.97191190000001,567.0,2615.0,4136.0,4689.0,2639.0,955.0,432.0,2426.0,3817.0,4073.0,2054.0,553.0,710.0,4487.0,4759.0,6017.0,2609.0,571.0,1503.0,14352.0,7336.0,14141.0,5411.0,885.0,1541.0,14858.0,7781.0,14317.0,5161.0,1005.0,1500.0,14939.0,8024.0,14587.0,5770.0,1029.0,1332.0,14195.0,8081.0,14861.0,5021.0
41,COURT SQ,40.7467885,-73.944548,784.0,2315.0,4075.0,5132.0,2478.0,973.0,368.0,1558.0,3411.0,3733.0,1846.0,565.0,1139.0,3719.0,3642.0,5697.0,2306.0,497.0,2001.0,11206.0,4695.0,11581.0,4413.0,709.0,2140.0,10968.0,4779.0,9986.0,3952.0,583.0,2024.0,11186.0,4763.0,11367.0,4541.0,790.0,1970.0,9822.0,4841.0,10605.0,4596.0
42,JAMAICA CENTER,40.702144700000005,-73.8008771,2428.0,5557.0,5970.0,7111.0,4552.0,1680.0,1619.0,3592.0,4126.0,4773.0,3342.0,1299.0,3713.0,7160.0,5925.0,7987.0,5105.0,1615.0,7286.0,17002.0,10856.0,18037.0,8592.0,1465.0,7167.0,17631.0,10794.0,16224.0,7749.0,1212.0,7027.0,17215.0,10762.0,17079.0,8077.0,1523.0,6725.0,16330.0,10602.0,17343.0,8108.0
43,49 ST,40.7598372,-73.98418249999999,353.0,1447.0,2800.0,4342.0,3063.0,1190.0,229.0,1295.0,2640.0,3848.0,2455.0,704.0,579.0,4131.0,5020.0,7206.0,4213.0,917.0,1464.0,10913.0,6378.0,15765.0,7769.0,1464.0,1487.0,10767.0,6522.0,15674.0,7348.0,1568.0,1479.0,11220.0,6659.0,16198.0,9022.0,1963.0,1349.0,11062.0,7103.0,15961.0,7439.0
44,BOWLING GREEN,40.7048108,-74.0144596,569.0,3249.0,5523.0,5463.0,2081.0,672.0,340.0,2564.0,4363.0,4354.0,1460.0,458.0,756.0,5088.0,5109.0,6588.0,2334.0,487.0,2159.0,18314.0,9632.0,20337.0,5128.0,797.0,2129.0,17501.0,9150.0,17988.0,4363.0,857.0,2189.0,18105.0,10118.0,20741.0,5526.0,1038.0,1882.0,16544.0,10287.0,18551.0,4194.0
45,BLEECKER ST,40.7259346,-73.9946724,291.0,1022.0,2478.0,4045.0,2554.0,1035.0,226.0,521.0,1709.0,3227.0,1626.0,288.0,61.0,1710182.0,2314.0,3686.0,857.0,130.0,412.0,5123.0,3268.0,6915.0,3868.0,665.0,511.0,5332.0,3140.0,6408.0,3822.0,721.0,481.0,5132.0,3368.0,7212.0,4749.0,1017.0,455.0,4842.0,3753.0,7557.0,4658.0
46,VERNON-JACKSON,40.7426713,-73.9537248,331.0,2126.0,4061.0,4429.0,2550.0,879.0,184.0,1513.0,3517.0,3502.0,2037.0,407.0,405.0,3644.0,3381.0,4609.0,2156.0,399.0,1116.0,9035.0,3170.0,6548.0,2170.0,238.0,1034.0,8997.0,3198.0,6229.0,3192.0,479.0,1014.0,9079.0,3429.0,6921.0,3899.0,617.0,1024.0,8303.0,3508.0,6431.0,3524.0
47,28 ST,40.7470686,-73.99350919999998,327.0,2428.0,4247.0,5145.0,3117.0,1156.0,267.0,1812.0,3638.0,4228.0,2344.0,561.0,420.0,4104.0,4520.0,6428.0,2793.0,515.0,640.0,7739.0,5076.0,10565.0,4212.0,610.0,642.0,7879.0,5118.0,10038.0,4189.0,591.0,626.0,7695.0,5516.0,10620.0,4625.0,877.0,577.0,7468.0,5674.0,9986.0,4337.0
48,SUTPHIN-ARCHER,40.700572799999996,-73.8077071,1628.0,4205.0,4672.0,5721.0,3609.0,1488.0,1170.0,3044.0,4019.0,4503.0,3267.0,1107.0,2369.0,5745.0,5104.0,7069.0,4325.0,1276.0,4162.0,10744.0,7475.0,11727.0,6007.0,1053.0,3883.0,10246.0,7185.0,10663.0,5267.0,955.0,3905.0,10489.0,7160.0,12021.0,6293.0,1082.0,3859.0,9947.0,7818.0,12129.0,6090.0
49,FORDHAM RD,40.8614886,-73.8905408,1492.0,3995.0,4746.0,5187.0,3077.0,971.0,1000.0,2751.0,3651.0,4018.0,2167.0,816.0,2030.0,4215.0,4134.0,5183.0,2719.0,839.0,2884.0,7377.0,5181.0,7867.0,3440.0,531.0,2870.0,7558.0,5550.0,6829.0,2790.0,461.0,2785.0,7614.0,5692.0,8209.0,3461.0,528.0,2941.0,7277.0,5615.0,8125.0,3431.0
50,HIGH ST,40.6993673,-73.99126559999998,140.0,1601.0,3155.0,5223.0,1664.0,523.0,141.0,1443.0,3873.0,4114.0,1284.0,255.0,389.0,2709.0,3065.0,4055.0,1534.0,231.0,646.0,6616.0,3546.0,6753.0,2870.0,312.0,657.0,6143.0,3134.0,4354.0,1189.0,210.0,662.0,6555.0,4392.0,7211.0,3309.0,566.0,619.0,6046.0,4024.0,6565.0,2572.0
51,BROOKLYN BRIDGE,40.6993673,-73.99126559999998,322.0,1801.0,4078.0,5010.0,1692.0,524.0,185.0,1137.0,3523.0,3896.0,1229.0,326.0,508.0,2345.0,3335.0,4438.0,1494.0,362.0,1344.0,10974.0,8074.0,12484.0,3655.0,548.0,1331.0,11006.0,7701.0,10140.0,3069.0,520.0,1356.0,11138.0,8419.0,13029.0,4105.0,695.0,1192.0,9851.0,7725.0,11424.0,3011.0
52,103 ST-CORONA,40.7498268,-73.862746,2331.0,5672.0,5031.0,6371.0,3897.0,1768.0,1253.0,3936.0,4778.0,4977.0,3029.0,1387.0,3486.0,6087.0,4366.0,7559.0,4005.0,1387.0,4610.0,8171.0,5115.0,8796.0,4327.0,1529.0,4404.0,8165.0,5052.0,8187.0,4150.0,1628.0,4499.0,8441.0,5268.0,8971.0,4663.0,1816.0,4572.0,8303.0,5052.0,8703.0,5034.0
53,GRAND-NEWTOWN,40.736835,-73.87758840000001,1054.0,4339.0,4490.0,5287.0,2903.0,955.0,640.0,3178.0,4071.0,4302.0,2507.0,724.0,1613.0,5767.0,4350.0,5807.0,3310.0,749.0,2523.0,9240.0,4503.0,6994.0,3728.0,719.0,2472.0,8984.0,4407.0,6124.0,3258.0,743.0,2392.0,9088.0,4746.0,7022.0,3709.0,791.0,2371.0,8923.0,4761.0,7045.0,3860.0
54,181 ST,40.84913,-73.93372889999998,766.0,3172.0,4575.0,5198.0,3367.0,1345.0,627.0,2156.0,3583.0,4429.0,2664.0,981.0,911.0,3647.0,4275.0,5840.0,3100.0,975.0,1293.0,5299.0,4661.0,6871.0,3658.0,1086.0,1366.0,5296.0,4532.0,5727.0,3088.0,981.0,1329.0,5012.0,4783.0,6899.0,3758.0,1283.0,1364.0,5094.0,4950.0,6859.0,3609.0
55,167 ST,40.835598,-73.9213791,1298.0,3482.0,3706.0,4358.0,2860.0,1126.0,957.0,2438.0,2898.0,3475.0,2221.0,823.0,1986.0,4165.0,3512.0,4771.0,2880.0,974.0,2847.0,7479.0,5151.0,7838.0,3712.0,1222.0,2687.0,7353.0,5334.0,6739.0,3064.0,1199.0,2762.0,7353.0,5227.0,7897.0,3833.0,1438.0,2784.0,7128.0,5521.0,7589.0,3831.0
56,82 ST-JACKSON H,40.7477145,-73.8839373,996.0,3876.0,6382.0,7139.0,3871.0,1401.0,725.0,2474.0,4839.0,5534.0,3050.0,988.0,1319.0,4121.0,5393.0,7631.0,4001.0,903.0,1684.0,6732.0,6705.0,10176.0,4205.0,992.0,1643.0,6357.0,6379.0,8513.0,4237.0,1093.0,1650.0,6303.0,6766.0,9868.0,4801.0,1432.0,1735.0,6363.0,6528.0,9716.0,5050.0
57,KINGS HWY,40.60867440000001,-73.9578059,637.0,3518.0,4262.0,4777.0,2707.0,827.0,438.0,3054.0,4006.0,4112.0,2371.0,527.0,1082.0,6182.0,4850.0,6680.0,3486.0,537.0,2089.0,11102.0,6093.0,10580.0,5329.0,697.0,2072.0,10686.0,5471.0,9425.0,4829.0,684.0,2045.0,10753.0,5939.0,11120.0,5369.0,724.0,1947.0,10226.0,6302.0,9876.0,4228.0
58,3 AV-149 ST,40.816129,-73.917811,1254.0,4129.0,4857.0,5196.0,2825.0,961.0,829.0,2700.0,3632.0,3635.0,2016.0,632.0,1689.0,4588.0,4594.0,5129.0,2477.0,684.0,2543.0,8561.0,6892.0,8236.0,3417.0,923.0,2578.0,8977.0,7049.0,7568.0,2866.0,833.0,2554.0,8680.0,6913.0,8653.0,3757.0,932.0,2549.0,8644.0,7402.0,9074.0,3589.0
59,EAST BROADWAY,40.714402899999996,-73.98991880000001,430.0,2463.0,3716.0,4146.0,2771.0,794.0,299.0,1970.0,4054.0,4360.0,2247.0,598.0,459.0,2872.0,3403.0,4175.0,2275.0,481.0,893.0,5451.0,4180.0,5879.0,3117.0,564.0,867.0,5229.0,3945.0,5418.0,2924.0,496.0,897.0,5247.0,3902.0,6015.0,3575.0,707.0,998.0,5766.0,4495.0,6172.0,3622.0
60,72 ST,40.778453000000006,-73.98196999999998,37.0,630.0,1604.0,2050.0,658.0,131.0,49.0,515.0,1603.0,1736.0,449.0,70.0,59.0,988.0,1573.0,1896.0,491.0,85.0,232.0,3681.0,2972.0,4717.0,1854.0,177.0,268.0,3912.0,2880.0,4914.0,1660.0,155.0,234.0,4004.0,3203.0,5071.0,2206.0,236.0,226.0,3736.0,3221.0,4937.0,1663.0
61,WALL ST,40.706396500000004,-74.0094441,310.0,2112.0,3851.0,4269.0,2492.0,769.0,149.0,1613.0,3504.0,3475.0,1802.0,422.0,406.0,4676.0,4050.0,5671.0,2454.0,334.0,1466.0,17609.0,6042.0,17636.0,4378.0,58.0,1364.0,17164.0,6360.0,16268.0,4046.0,27.0,1479.0,17575.0,6570.0,17330.0,4665.0,92.0,1331.0,14952.0,6204.0,15666.0,4028.0
62,21 ST-QNSBRIDGE,40.75417770000001,-73.94247419999998,477.0,2464.0,3029.0,3363.0,2316.0,1091.0,413.0,2048.0,2459.0,2697.0,1784.0,546.0,740.0,3010.0,2640.0,3373.0,1916.0,431.0,1026.0,5011.0,3244.0,4682.0,2263.0,423.0,1173.0,5006.0,2919.0,4386.0,2199.0,496.0,1244.0,5029.0,3205.0,4724.0,2496.0,578.0,1204.0,5049.0,3283.0,4867.0,2279.0
63,HOYT-SCHER,40.688828799999996,-73.98531249999998,271.0,1876.0,3865.0,4567.0,2682.0,828.0,200.0,1379.0,3462.0,3841.0,1848.0,447.0,429.0,2097.0,3572.0,4386.0,2135.0,378.0,680.0,4811.0,4214.0,6320.0,3087.0,417.0,671.0,4814.0,4159.0,5555.0,2856.0,441.0,674.0,4757.0,4211.0,6488.0,3400.0,553.0,630.0,4509.0,4297.0,6597.0,3303.0
64,FRANKLIN AV,40.7190056,-74.0066801,431.0,2374.0,3680.0,4023.0,2499.0,931.0,317.0,1606.0,3288.0,3344.0,1922.0,531.0,495.0,2881.0,3200.0,3764.0,2163.0,471.0,893.0,7488.0,3232.0,5367.0,3723.0,538.0,946.0,7520.0,3212.0,4727.0,3450.0,576.0,959.0,7483.0,3389.0,5401.0,3908.0,734.0,867.0,7056.0,3393.0,5230.0,3404.0
65,168 ST,40.841041,-73.939971,830.0,3286.0,4003.0,4118.0,2611.0,956.0,607.0,2406.0,3222.0,3436.0,2110.0,664.0,970.0,3548.0,3673.0,4501.0,2311.0,646.0,1719.0,9992.0,5719.0,10281.0,3396.0,631.0,1844.0,9914.0,5756.0,9310.0,3017.0,649.0,1789.0,9753.0,5990.0,10340.0,3733.0,693.0,1750.0,9287.0,5815.0,9757.0,3484.0
66,NEVINS ST,40.6882963,-73.98052059999999,360.0,1988.0,3207.0,3753.0,1961.0,635.0,254.0,1077.0,2274.0,2590.0,1271.0,358.0,399.0,2121.0,2756.0,3562.0,1549.0,327.0,823.0,5487.0,3715.0,6085.0,2655.0,441.0,892.0,5325.0,3545.0,5359.0,2362.0,474.0,806.0,5492.0,3940.0,6372.0,2858.0,482.0,783.0,5050.0,4058.0,6489.0,2697.0
67,5 AVE,40.760216299999996,-73.975543,264.0,1257.0,2853.0,3996.0,1564.0,415.0,125.0,875.0,2291.0,2907.0,1220.0,208.0,350.0,2894.0,2882.0,4611.0,1851.0,265.0,802.0,7295.0,4059.0,9332.0,3634.0,404.0,754.0,7089.0,4377.0,9126.0,3121.0,337.0,757.0,7047.0,4003.0,8979.0,3366.0,494.0,731.0,6429.0,4230.0,8900.0,2822.0
68,PROSPECT PARK,40.66087879999999,-73.9621109,401.0,1868.0,3028.0,3479.0,2016.0,838.0,316.0,1648.0,2917.0,2995.0,1624.0,547.0,519.0,2437.0,2875.0,3524.0,1996.0,513.0,827.0,5145.0,2924.0,4903.0,3378.0,532.0,838.0,5184.0,2586.0,4576.0,2948.0,617.0,815.0,5261.0,2994.0,5003.0,3599.0,689.0,793.0,4979.0,3039.0,4867.0,3087.0
69,CENTRAL PK N110,40.798737599999995,-73.9522934,488.0,2005.0,3044.0,3494.0,2100.0,903.0,403.0,1628.0,2602.0,2840.0,1540.0,597.0,553.0,2146.0,2462.0,3226.0,1799.0,544.0,798.0,4239.0,2620.0,4372.0,2239.0,535.0,826.0,4362.0,2590.0,3820.0,1941.0,540.0,823.0,4405.0,2754.0,4458.0,2348.0,652.0,842.0,4071.0,2691.0,4565.0,2252.0
70,LEXINGTON AV/53,40.757698100000006,-73.96907420000001,836.0,4655.0,6913.0,8909.0,5255.0,1896.0,499.0,3248.0,6247.0,6653.0,4079.0,970.0,1034.0,8991.0,8084.0,11935.0,5339.0,955.0,3016.0,32031.0,12180.0,30446.0,11054.0,1572.0,3195.0,31335.0,13586.0,29641.0,10526.0,1461.0,3181.0,31796.0,12904.0,30645.0,11485.0,1764.0,3040.0,29085.0,13606.0,30460.0,10601.0
71,63 DR-REGO PARK,40.7301359,-73.86236729999999,451.0,2483.0,3468.0,3759.0,1673.0,381.0,343.0,1832.0,3045.0,3031.0,1330.0,238.0,732.0,4273.0,3584.0,4404.0,1907.0,232.0,1348.0,7499.0,3831.0,5439.0,2231.0,218.0,1400.0,7534.0,3441.0,4541.0,1916.0,223.0,1429.0,7636.0,3890.0,5466.0,2326.0,294.0,1312.0,7158.0,4001.0,5341.0,2289.0
72,3 AV,40.733135299999994,-73.98675829999998,0.0,10.0,21.0,11.0,1.0,5.0,6.0,5.0,4.0,2.0,1.0,3.0,1.0,4.0,4.0,9.0,6.0,5.0,356.0,2663.0,2052.0,3847.0,2798.0,137.0,343.0,2856.0,2042.0,3595.0,2618.0,63.0,319.0,2732.0,1953.0,3952.0,2930.0,141.0,312.0,2717.0,2103.0,4148.0,3448.0
73,175 ST,40.847916600000005,-73.9394823,523.0,2151.0,2806.0,3115.0,1973.0,749.0,351.0,1729.0,2808.0,2782.0,1565.0,399.0,791.0,2757.0,2702.0,3453.0,1965.0,366.0,1432.0,5895.0,3043.0,5342.0,2515.0,495.0,1381.0,5798.0,3091.0,4691.0,1954.0,398.0,1336.0,6046.0,3155.0,5403.0,2625.0,569.0,1373.0,5518.0,3161.0,5628.0,2793.0
74,53 ST,40.760216299999996,-73.975543,669.0,2514.0,2899.0,3368.0,1994.0,783.0,451.0,1972.0,2319.0,2884.0,1565.0,672.0,997.0,3025.0,2647.0,4065.0,2180.0,587.0,1303.0,4845.0,3160.0,5304.0,2786.0,658.0,1286.0,4786.0,3114.0,4749.0,2597.0,681.0,1295.0,4271.0,2824.0,5433.0,2810.0,796.0,1303.0,4689.0,3165.0,5304.0,2613.0
75,110 ST,40.798737599999995,-73.9522934,538.0,2476.0,2945.0,3360.0,2144.0,846.0,402.0,1691.0,2455.0,2714.0,1671.0,566.0,663.0,2728.0,2680.0,3542.0,1996.0,535.0,1045.0,5070.0,3353.0,5070.0,2691.0,646.0,1049.0,5450.0,3487.0,4925.0,2553.0,591.0,1058.0,5391.0,3392.0,5497.0,2864.0,774.0,991.0,5170.0,3510.0,5462.0,2949.0
76,BEDFORD-NOSTRAN,40.6898534,-73.9516398,248.0,1352.0,2130.0,2289.0,1493.0,594.0,200.0,1133.0,1997.0,2110.0,1106.0,318.0,383.0,2213.0,2052.0,2503.0,1330.0,322.0,668.0,4867.0,1965.0,3057.0,2017.0,422.0,650.0,4842.0,1953.0,2942.0,1959.0,378.0,668.0,4917.0,1990.0,3060.0,2121.0,437.0,599.0,4534.0,2027.0,3065.0,2051.0
77,GRAHAM AV,40.714526299999996,-73.94438180000002,4.0,0.0,1.0,0.0,1.0,2.0,0.0,1.0,1.0,0.0,0.0,0.0,1.0,4.0,1.0,0.0,1.0,0.0,552.0,5193.0,2248.0,3688.0,2663.0,65.0,548.0,5327.0,2156.0,3687.0,2908.0,75.0,516.0,5394.0,2160.0,3840.0,2556.0,145.0,551.0,4997.0,2344.0,3959.0,3185.0
78,46 ST BLISS ST,40.7430691,-73.91824030000002,803.0,2765.0,3625.0,4181.0,2566.0,1015.0,468.0,1865.0,2931.0,3193.0,2056.0,682.0,1106.0,3492.0,3423.0,4516.0,2630.0,607.0,1515.0,6025.0,3528.0,5928.0,2838.0,746.0,1512.0,6054.0,3378.0,5408.0,2971.0,795.0,1506.0,6170.0,3704.0,5914.0,3459.0,881.0,1507.0,5933.0,3612.0,5699.0,3451.0
79,CHRISTOPHER ST,40.733578400000006,-74.00287279999998,359.0,1479.0,3653.0,5081.0,4741.0,1996.0,354.0,1161.0,3618.0,4402.0,3202.0,1007.0,263.0,1693.0,3020.0,3915.0,2760.0,615.0,355.0,3821.0,2896.0,5101.0,3650.0,716.0,397.0,4020.0,3125.0,5213.0,3538.0,674.0,394.0,4040.0,3315.0,5967.0,4408.0,1004.0,397.0,3766.0,3542.0,6298.0,4886.0
80,191 ST,40.855738,-73.9306512,530.0,2002.0,2548.0,,,913.0,440.0,1057.0,1639.0,2805.0,1866.0,654.0,616.0,2253.0,2426.0,3510.0,2183.0,618.0,856.0,3898.0,2678.0,4473.0,2584.0,786.0,948.0,3764.0,2665.0,4000.0,2398.0,689.0,929.0,3757.0,2748.0,4501.0,2804.0,920.0,889.0,3545.0,2649.0,4257.0,2480.0
81,ROOSEVELT ISLND,40.7591362,-73.9533215,167.0,1235.0,2493.0,2743.0,1634.0,547.0,109.0,1100.0,2571.0,2395.0,1264.0,283.0,194.0,2061.0,2207.0,2796.0,1602.0,258.0,491.0,3982.0,2308.0,3849.0,2358.0,294.0,510.0,3956.0,2158.0,3440.0,2074.0,313.0,487.0,4063.0,2329.0,3887.0,2512.0,368.0,503.0,3804.0,2268.0,3694.0,2325.0
82,BROADWAY JCT,40.6789137,-73.9039,1252.0,3613.0,3675.0,4462.0,3162.0,1460.0,908.0,2482.0,3057.0,3330.0,2625.0,1031.0,1567.0,4147.0,3330.0,4751.0,2947.0,980.0,1449.0,3792.0,3143.0,4059.0,2327.0,997.0,1441.0,3667.0,2867.0,3488.0,1990.0,924.0,1404.0,3695.0,3101.0,4121.0,2492.0,1284.0,1512.0,3635.0,3484.0,4181.0,2515.0
83,HOYT ST,40.688828799999996,-73.98531249999998,160.0,1125.0,2551.0,3063.0,1491.0,342.0,98.0,1065.0,2499.0,2510.0,1097.0,240.0,251.0,1497.0,2330.0,3114.0,1282.0,145.0,401.0,3595.0,2874.0,4681.0,1647.0,6.0,368.0,3402.0,2716.0,4161.0,1341.0,0.0,370.0,3528.0,2852.0,4730.0,1610.0,0.0,356.0,3184.0,2940.0,4732.0,1852.0
84,135 ST,40.817894,-73.947647,539.0,2408.0,3120.0,3292.0,1995.0,735.0,431.0,1841.0,2751.0,2657.0,1460.0,532.0,610.0,2710.0,2879.0,3273.0,1796.0,498.0,976.0,5519.0,3312.0,4691.0,2328.0,559.0,1000.0,5755.0,3352.0,4407.0,2157.0,525.0,995.0,5709.0,3310.0,4898.0,2396.0,676.0,994.0,5403.0,3418.0,4741.0,2574.0
85,ELMHURST AV,40.74244789999999,-73.88198440000001,632.0,2763.0,2828.0,2898.0,1463.0,442.0,451.0,2342.0,2762.0,2536.0,1172.0,308.0,1018.0,3876.0,2879.0,3056.0,1494.0,301.0,1518.0,6023.0,2808.0,3293.0,1402.0,202.0,1437.0,5951.0,2541.0,2962.0,1153.0,194.0,1457.0,5824.0,2927.0,3343.0,1457.0,203.0,1398.0,5704.0,2802.0,3542.0,1591.0
86,RECTOR ST,40.7078954,-74.01363649999998,197.0,1673.0,2807.0,3034.0,1379.0,485.0,173.0,1363.0,2382.0,2478.0,1115.0,239.0,282.0,2566.0,2513.0,3398.0,1295.0,242.0,613.0,7058.0,3848.0,8230.0,2543.0,457.0,642.0,6976.0,3978.0,7558.0,2262.0,522.0,596.0,7055.0,4054.0,8322.0,2720.0,595.0,604.0,6440.0,4172.0,7962.0,2489.0
87,4AV-9 ST,40.6701803,-73.98929150000002,243.0,1483.0,2565.0,2738.0,1455.0,503.0,173.0,1210.0,2383.0,2255.0,1258.0,301.0,336.0,2258.0,2281.0,3120.0,1528.0,240.0,577.0,4898.0,2295.0,3940.0,2046.0,327.0,587.0,4913.0,2134.0,3697.0,1961.0,273.0,543.0,4845.0,2452.0,4159.0,2161.0,379.0,574.0,4508.0,2527.0,4114.0,2102.0
88,96 ST,40.7858701,-73.95093469999998,137.0,1236.0,2081.0,2294.0,1005.0,221.0,99.0,887.0,1752.0,1716.0,703.0,141.0,190.0,2200.0,2272.0,2529.0,923.0,120.0,438.0,4537.0,2833.0,5363.0,2206.0,220.0,474.0,4985.0,2986.0,5356.0,1925.0,217.0,462.0,5041.0,3071.0,5734.0,2419.0,271.0,429.0,4734.0,3197.0,5593.0,1842.0
89,JAMAICA 179 ST,40.71264420000001,-73.7838184,1333.0,3219.0,2782.0,2942.0,1952.0,661.0,872.0,2113.0,2283.0,2149.0,1588.0,530.0,2150.0,4672.0,2942.0,3468.0,2246.0,559.0,4868.0,10680.0,3923.0,6021.0,3394.0,733.0,4828.0,10744.0,3862.0,5626.0,2909.0,716.0,4837.0,10757.0,4028.0,6381.0,3472.0,835.0,4624.0,10064.0,3928.0,6114.0,3011.0
90,BRIGHTON BEACH,40.5776648,-73.96127690000002,458.0,2084.0,2631.0,2832.0,1408.0,436.0,345.0,1661.0,2380.0,2473.0,1234.0,297.0,855.0,2919.0,2459.0,3237.0,1545.0,252.0,1201.0,5347.0,4252.0,3217.0,1615.0,296.0,1190.0,4798.0,3042.0,4066.0,1835.0,299.0,1186.0,4887.0,3459.0,4992.0,2436.0,332.0,1209.0,4692.0,3583.0,4926.0,2023.0
91,CARROLL ST,40.679331299999994,-73.9954833,134.0,1276.0,2209.0,2847.0,1648.0,526.0,112.0,943.0,2259.0,2350.0,1305.0,274.0,203.0,2216.0,2107.0,2817.0,1320.0,216.0,435.0,5746.0,2152.0,3844.0,1897.0,276.0,467.0,5726.0,2153.0,3861.0,1965.0,283.0,451.0,5915.0,2260.0,4167.0,2173.0,343.0,450.0,5471.0,2394.0,4151.0,2085.0
92,149/GRAND CONC,40.8183248,-73.9274121,837.0,2805.0,3025.0,3445.0,1753.0,923.0,641.0,1953.0,2301.0,2574.0,1481.0,705.0,996.0,2580.0,2635.0,3491.0,1517.0,617.0,1227.0,5196.0,4828.0,5882.0,2803.0,804.0,1204.0,5255.0,4873.0,5145.0,2408.0,717.0,1216.0,5004.0,4680.0,5628.0,2812.0,842.0,1235.0,4463.0,4330.0,5087.0,2540.0
93,UNION ST,40.6771729,-73.98324670000001,229.0,1068.0,1903.0,2345.0,1620.0,772.0,190.0,908.0,1758.0,2108.0,1274.0,328.0,289.0,1686.0,1777.0,2442.0,628.0,109.0,498.0,3861.0,1694.0,3465.0,2188.0,341.0,449.0,3865.0,1793.0,3705.0,2215.0,350.0,495.0,3824.0,1771.0,1575.0,774.0,518.0,270.0,2972.0,1748.0,3588.0,2226.0
94,111 ST,40.75172999999999,-73.855334,1251.0,3364.0,2742.0,3538.0,2128.0,1124.0,694.0,2332.0,2423.0,2844.0,1684.0,795.0,1985.0,3365.0,2449.0,3664.0,2231.0,784.0,2593.0,4755.0,2921.0,4672.0,2409.0,871.0,2555.0,4709.0,2811.0,4307.0,2194.0,807.0,2572.0,4732.0,2954.0,4587.0,2509.0,1011.0,2602.0,4612.0,2899.0,4561.0,2736.0
95,MONTROSE AV,40.7077716,-73.93986329999998,9.0,0.0,0.0,3.0,6.0,0.0,2.0,1.0,0.0,0.0,5.0,2.0,4.0,0.0,1.0,0.0,5.0,4.0,519.0,3064.0,1426.0,2501.0,1683.0,88.0,495.0,3223.0,1484.0,2440.0,1679.0,101.0,512.0,3121.0,1500.0,2399.0,1840.0,70.0,477.0,3071.0,1665.0,2597.0,2062.0
96,MORGAN AV,40.70607589999999,-73.93370999999998,37.0,33.0,13.0,0.0,0.0,0.0,0.0,0.0,0.0,1.0,1.0,3.0,2.0,5.0,11.0,0.0,0.0,0.0,468.0,2867.0,1742.0,2758.0,1626.0,25.0,513.0,2945.0,1608.0,2559.0,1444.0,72.0,476.0,3003.0,1707.0,2842.0,1674.0,57.0,523.0,2901.0,1892.0,2972.0,2132.0
97,90 ST-ELMHURST,40.748436700000006,-73.87652890000001,1328.0,4338.0,4028.0,4400.0,2296.0,859.0,869.0,2856.0,3305.0,3585.0,1817.0,655.0,2088.0,4516.0,3842.0,4577.0,2556.0,640.0,2778.0,6390.0,4001.0,5848.0,2480.0,771.0,2761.0,6421.0,3791.0,5347.0,2529.0,776.0,2832.0,6512.0,3876.0,5680.0,2897.0,897.0,2861.0,6348.0,3873.0,5317.0,3014.0
98,6 AV,40.7373653,-73.99684529999998,110.0,342.0,913.0,1413.0,997.0,231.0,80.0,186.0,695.0,1090.0,715.0,112.0,121.0,565.0,911.0,1628.0,821.0,95.0,216.0,1979.0,1635.0,3027.0,1800.0,134.0,248.0,1930.0,1105.0,1840.0,992.0,110.0,159.0,1343.0,1649.0,3228.0,1971.0,164.0,219.0,1841.0,1715.0,3248.0,2013.0
99,BOWERY,40.720166799999994,-73.99353470000001,225.0,1169.0,2005.0,2334.0,1660.0,742.0,181.0,917.0,2601.0,2514.0,1082.0,319.0,174.0,1234.0,1733.0,2107.0,,,253.0,1774.0,1530.0,2118.0,1330.0,524.0,273.0,1706.0,1213.0,1890.0,1264.0,477.0,278.0,1669.0,1504.0,2217.0,1495.0,523.0,286.0,1691.0,1572.0,2496.0,1610.0
100,BURNSIDE AV,40.85345299999999,-73.90768400000002,854.0,2209.0,2389.0,2489.0,1658.0,574.0,590.0,1457.0,1805.0,1930.0,1243.0,491.0,1087.0,2170.0,2057.0,2697.0,1350.0,489.0,1468.0,3787.0,3878.0,4211.0,2310.0,877.0,1609.0,3811.0,3291.0,3183.0,1657.0,576.0,1539.0,3575.0,3170.0,3702.0,2126.0,698.0,1472.0,3511.0,3599.0,3779.0,1910.0
101,45 ST,40.6493588,-74.00959069999998,481.0,1754.0,2172.0,2298.0,1393.0,460.0,313.0,1326.0,1916.0,1947.0,1002.0,365.0,713.0,2008.0,1809.0,2699.0,1282.0,327.0,969.0,4036.0,1938.0,3284.0,1721.0,290.0,974.0,3914.0,1922.0,2969.0,1400.0,344.0,961.0,3488.0,2363.0,4195.0,2190.0,501.0,968.0,3278.0,2110.0,3151.0,1590.0
102,170 ST,40.840050399999996,-73.9133477,452.0,1134.0,1197.0,1536.0,972.0,442.0,333.0,797.0,868.0,1173.0,734.0,339.0,629.0,1337.0,1194.0,1750.0,1182.0,449.0,1249.0,3131.0,2188.0,3560.0,1955.0,932.0,1429.0,3225.0,2113.0,3002.0,1662.0,799.0,1451.0,3166.0,2103.0,3501.0,2015.0,944.0,1348.0,3075.0,2049.0,3316.0,1939.0
103,169 ST,40.7104152,-73.79374600000001,586.0,1642.0,1946.0,2299.0,1380.0,529.0,423.0,1160.0,1610.0,1738.0,1166.0,365.0,757.0,1865.0,1758.0,2469.0,1605.0,410.0,1198.0,3678.0,2737.0,4236.0,2373.0,480.0,1162.0,3569.0,2548.0,3841.0,2039.0,481.0,1197.0,3753.0,2705.0,4464.0,2318.0,571.0,1128.0,3336.0,2392.0,4178.0,2180.0
104,74 ST-BROADWAY,40.746941899999996,-73.89146020000001,,,,,,,,,,,,,,,,,,,,,,,,,,,,,,,,,,,,,,,,,
105,40 ST LOWERY ST,40.7438729,-73.92423409999998,407.0,1928.0,2549.0,2839.0,2027.0,733.0,286.0,1507.0,2252.0,2466.0,1448.0,441.0,498.0,2536.0,2340.0,3109.0,1985.0,407.0,889.0,5129.0,2860.0,4957.0,2376.0,537.0,884.0,4990.0,2598.0,4523.0,2436.0,546.0,887.0,5127.0,2879.0,4894.0,2955.0,663.0,875.0,4933.0,3053.0,4619.0,2708.0
106,CASTLE HILL AV,40.83429599999999,-73.85168399999998,575.0,987.0,1291.0,1733.0,1256.0,574.0,380.0,612.0,984.0,1354.0,1066.0,475.0,761.0,1648.0,1527.0,2387.0,1377.0,459.0,1282.0,3060.0,1345.0,3400.0,1910.0,624.0,1345.0,2936.0,1377.0,3314.0,1664.0,581.0,1252.0,3006.0,1355.0,3411.0,2012.0,697.0,1258.0,2880.0,1366.0,3598.0,1830.0
107,HALSEY ST,40.69577750000001,-73.9044092,13.0,25.0,29.0,24.0,6.0,4.0,5.0,7.0,20.0,11.0,13.0,10.0,46.0,174.0,75.0,109.0,24.0,9.0,958.0,3606.0,1746.0,3031.0,1847.0,87.0,1018.0,3633.0,1763.0,2926.0,1771.0,104.0,1051.0,3720.0,1823.0,3094.0,2067.0,139.0,1021.0,3607.0,1812.0,3018.0,2013.0
108,CLARK ST,40.6974878,-73.99314090000001,96.0,847.0,1845.0,2143.0,1014.0,245.0,49.0,704.0,1861.0,1775.0,835.0,185.0,164.0,1099.0,1569.0,1887.0,810.0,126.0,235.0,2572.0,1450.0,2476.0,893.0,0.0,219.0,2591.0,1394.0,2116.0,1038.0,0.0,193.0,2611.0,1576.0,2790.0,1128.0,1.0,207.0,2389.0,1476.0,2479.0,1217.0
109,SUTTER AV-RUTLD,40.664992100000006,-73.92290849999998,523.0,1539.0,1821.0,2188.0,1379.0,581.0,358.0,1079.0,1375.0,1626.0,1054.0,432.0,597.0,1326.0,1771.0,2371.0,1371.0,445.0,1161.0,3371.0,2416.0,3912.0,2049.0,518.0,1163.0,3191.0,2205.0,3157.0,1726.0,447.0,1133.0,3211.0,2353.0,3779.0,2157.0,553.0,1102.0,2721.0,2198.0,3744.0,2028.0
110,EASTN PKWY-MUSM,40.671993799999996,-73.96420649999999,101.0,884.0,2477.0,2575.0,770.0,294.0,84.0,649.0,2482.0,2335.0,596.0,182.0,128.0,919.0,1713.0,1877.0,776.0,124.0,227.0,2418.0,2012.0,2378.0,1114.0,166.0,230.0,2522.0,1911.0,2477.0,1079.0,176.0,228.0,2516.0,2015.0,2670.0,1512.0,230.0,234.0,2359.0,2068.0,2708.0,1057.0
111,BAY RIDGE AV,40.634968,-74.023376,352.0,1480.0,1839.0,2017.0,1244.0,441.0,290.0,1254.0,1909.0,2120.0,1368.0,325.0,527.0,2136.0,2035.0,2711.0,2014.0,378.0,884.0,4228.0,2308.0,4341.0,2550.0,459.0,875.0,4082.0,2398.0,4003.0,2247.0,470.0,879.0,4223.0,2337.0,4322.0,2537.0,501.0,802.0,3897.0,2506.0,4270.0,2415.0
112,OZONE PK LEFFRT,40.685956700000006,-73.8257601,761.0,1669.0,1496.0,1834.0,1216.0,434.0,473.0,1077.0,1195.0,1356.0,1050.0,331.0,1136.0,2046.0,1294.0,2135.0,1178.0,352.0,2155.0,3826.0,1891.0,3626.0,1901.0,397.0,2209.0,3896.0,1734.0,3387.0,1681.0,427.0,2149.0,3842.0,1858.0,3513.0,2075.0,423.0,2124.0,3557.0,1885.0,3372.0,1887.0
113,JEFFERSON ST,40.7065868,-73.922872,8.0,1.0,1.0,6.0,0.0,2.0,0.0,1.0,0.0,0.0,0.0,0.0,5.0,1.0,3.0,0.0,0.0,0.0,491.0,2657.0,1424.0,2180.0,1024.0,36.0,555.0,2854.0,1363.0,2138.0,1169.0,30.0,543.0,2985.0,1528.0,2390.0,1400.0,110.0,502.0,2792.0,1533.0,2367.0,1683.0
114,MORISN AV/SNDVW,40.8294898,-73.8746754,686.0,1570.0,1631.0,1919.0,1351.0,637.0,432.0,1031.0,1236.0,1418.0,951.0,436.0,947.0,1693.0,1516.0,2020.0,1290.0,518.0,1464.0,2819.0,1772.0,2641.0,1627.0,626.0,1392.0,2830.0,1889.0,2469.0,1493.0,622.0,1402.0,2839.0,1825.0,2705.0,1731.0,706.0,1408.0,2669.0,1815.0,2658.0,1602.0
115,207 ST,40.8676635,-73.9212009,344.0,1485.0,1721.0,1938.0,1217.0,391.0,254.0,963.0,1598.0,1552.0,882.0,294.0,493.0,1538.0,1567.0,2078.0,1033.0,264.0,623.0,2292.0,1740.0,2490.0,1167.0,283.0,651.0,2278.0,1695.0,1972.0,974.0,257.0,653.0,2321.0,1784.0,2470.0,1134.0,279.0,654.0,2218.0,1804.0,2479.0,1365.0
116,EUCLID AV,40.6754013,-73.8719033,665.0,1901.0,1890.0,1821.0,1123.0,343.0,467.0,1480.0,1510.0,1454.0,958.0,301.0,909.0,2154.0,1875.0,2108.0,1070.0,313.0,1449.0,4255.0,2341.0,2650.0,1318.0,349.0,1531.0,4232.0,2179.0,2331.0,1118.0,300.0,1539.0,4155.0,2499.0,2756.0,1398.0,379.0,1414.0,4155.0,2459.0,2762.0,1390.0
117,GRAND ARMY PLAZ,40.6752403,-73.97104159999998,81.0,978.0,1928.0,1951.0,876.0,259.0,79.0,690.0,1629.0,1566.0,687.0,146.0,108.0,1346.0,1567.0,1907.0,947.0,123.0,234.0,3616.0,1539.0,2543.0,1276.0,112.0,238.0,3653.0,1467.0,2389.0,1164.0,113.0,257.0,3693.0,1597.0,2680.0,1232.0,172.0,193.0,3285.0,1556.0,2437.0,1149.0
118,PARSONS BLVD,40.707714,-73.8028238,683.0,1564.0,1546.0,1904.0,1280.0,534.0,458.0,1100.0,1329.0,1440.0,1036.0,461.0,817.0,1828.0,1618.0,2235.0,1453.0,420.0,1191.0,3102.0,2457.0,3706.0,1955.0,745.0,1322.0,3103.0,2006.0,3473.0,1817.0,710.0,1286.0,3018.0,2120.0,3744.0,1949.0,745.0,1323.0,2861.0,2034.0,3601.0,1937.0
119,231 ST,40.87899229999999,-73.904939,407.0,1433.0,1913.0,1984.0,960.0,245.0,286.0,1116.0,1671.0,1500.0,755.0,158.0,628.0,1807.0,1782.0,2003.0,884.0,185.0,1113.0,3944.0,1936.0,2254.0,1017.0,220.0,1126.0,3895.0,1869.0,1996.0,831.0,178.0,1093.0,3947.0,1957.0,2574.0,1199.0,236.0,1119.0,3734.0,2037.0,2655.0,1165.0
120,SMITH-9 ST,40.6746048,-73.99703970000002,224.0,1239.0,1624.0,1853.0,1041.0,322.0,135.0,687.0,1278.0,1477.0,803.0,231.0,326.0,1472.0,1363.0,2056.0,890.0,211.0,556.0,2808.0,1756.0,2765.0,1213.0,228.0,557.0,2783.0,1846.0,2493.0,1369.0,227.0,605.0,2901.0,1797.0,2819.0,1343.0,290.0,523.0,2770.0,1996.0,2870.0,1340.0
121,4 AV-9 ST,40.6701803,-73.98929150000002,108.0,672.0,1219.0,1495.0,931.0,401.0,95.0,465.0,1015.0,1296.0,694.0,216.0,162.0,1072.0,1042.0,1922.0,974.0,155.0,319.0,1918.0,1142.0,2722.0,1504.0,256.0,309.0,1939.0,1032.0,2385.0,1510.0,208.0,289.0,1983.0,1100.0,2679.0,1620.0,290.0,274.0,1861.0,1164.0,2562.0,1512.0
122,67 AV,40.7263823,-73.8515929,225.0,1378.0,1640.0,1610.0,949.0,294.0,184.0,1114.0,1600.0,1447.0,764.0,,365.0,2397.0,,,,165.0,795.0,5139.0,1691.0,3008.0,1609.0,133.0,803.0,5131.0,1806.0,2800.0,1523.0,197.0,822.0,5171.0,1687.0,2847.0,1701.0,170.0,783.0,4850.0,1801.0,2747.0,1379.0
123,ROCKAWAY AV,40.6625632,-73.9089054,406.0,1172.0,1119.0,1393.0,1198.0,511.0,297.0,858.0,1083.0,1280.0,879.0,375.0,471.0,1287.0,1393.0,1823.0,1069.0,425.0,731.0,2399.0,1889.0,2515.0,1390.0,428.0,708.0,2305.0,1728.0,2280.0,1155.0,408.0,712.0,2303.0,1891.0,2819.0,1502.0,502.0,708.0,2379.0,1953.0,2560.0,1518.0
124,PELHAM BAY PARK,40.852930799999996,-73.8270555,427.0,1274.0,1457.0,1677.0,891.0,390.0,265.0,906.0,1332.0,1278.0,682.0,269.0,542.0,1485.0,1335.0,1697.0,908.0,284.0,1297.0,3551.0,1595.0,2471.0,1141.0,339.0,1305.0,3454.0,1549.0,2156.0,940.0,313.0,1252.0,3539.0,1675.0,2510.0,1227.0,359.0,1173.0,3256.0,1577.0,2386.0,1108.0
125,CLASSON AV,40.688873,-73.96007,200.0,986.0,1706.0,1958.0,1450.0,579.0,139.0,698.0,1436.0,1683.0,1069.0,280.0,244.0,1450.0,1539.0,2032.0,1295.0,281.0,426.0,3037.0,1436.0,2827.0,1867.0,326.0,411.0,3098.0,1542.0,2716.0,1830.0,317.0,408.0,3170.0,1540.0,2853.0,2080.0,381.0,410.0,2891.0,1660.0,2941.0,1964.0
126,NEW LOTS AV,40.6663015,-73.88371579999998,545.0,1154.0,1407.0,1746.0,1186.0,664.0,378.0,926.0,1135.0,1333.0,911.0,500.0,623.0,1466.0,1515.0,1958.0,1157.0,521.0,1158.0,2726.0,1832.0,3026.0,1731.0,550.0,1209.0,2718.0,1790.0,2574.0,1579.0,519.0,1193.0,2663.0,1967.0,2899.0,1806.0,633.0,1118.0,2549.0,1939.0,2830.0,1660.0
127,GRANT AV,40.6768777,-73.86534619999998,521.0,1373.0,1473.0,1654.0,1036.0,457.0,387.0,1042.0,1090.0,1224.0,879.0,354.0,616.0,1511.0,1440.0,1755.0,1099.0,398.0,1027.0,2951.0,1826.0,2695.0,1661.0,475.0,773.0,2879.0,1659.0,2407.0,1252.0,441.0,927.0,2896.0,1787.0,2864.0,1721.0,544.0,876.0,2722.0,1778.0,2789.0,1594.0
128,STERLING ST,40.6632908,-73.951044,190.0,1044.0,1537.0,1603.0,1030.0,380.0,171.0,742.0,1347.0,1385.0,775.0,276.0,297.0,1461.0,1449.0,1779.0,984.0,263.0,518.0,3138.0,1642.0,2463.0,1544.0,275.0,534.0,3254.0,1696.0,2573.0,1528.0,267.0,500.0,3132.0,1603.0,2524.0,1626.0,308.0,495.0,2983.0,1832.0,2468.0,1376.0
129,PROSPECT AV,40.66541369999999,-73.99292590000002,202.0,1010.0,1359.0,1672.0,896.0,364.0,144.0,687.0,1119.0,1238.0,688.0,241.0,322.0,1574.0,1327.0,2076.0,966.0,208.0,515.0,3524.0,1319.0,2742.0,1329.0,294.0,506.0,3461.0,1458.0,2672.0,1345.0,293.0,486.0,3428.0,1442.0,2769.0,1373.0,376.0,482.0,3211.0,1543.0,2566.0,1401.0
130,18 ST,40.74122390000001,-73.9980319,110.0,935.0,2389.0,2858.0,1593.0,477.0,121.0,661.0,2078.0,2334.0,1066.0,238.0,178.0,1125.0,1993.0,2915.0,1160.0,223.0,261.0,3333.0,2514.0,5012.0,2145.0,257.0,271.0,3298.0,2715.0,4788.0,2076.0,295.0,269.0,3271.0,2503.0,4916.0,2460.0,330.0,241.0,3065.0,2661.0,5272.0,2388.0
131,SARATOGA AV,40.669094,-73.91828199999998,406.0,1066.0,1239.0,1550.0,1117.0,437.0,316.0,754.0,942.0,1097.0,795.0,333.0,595.0,1289.0,1254.0,1691.0,1073.0,365.0,1079.0,2673.0,1615.0,2660.0,1656.0,413.0,1094.0,2640.0,1513.0,2666.0,1470.0,341.0,1078.0,2617.0,1726.0,2822.0,1720.0,450.0,1086.0,2449.0,1721.0,2765.0,1658.0
132,WILSON AV,40.6887823,-73.90467240000001,9.0,0.0,0.0,0.0,0.0,0.0,1.0,0.0,0.0,0.0,0.0,0.0,0.0,0.0,2.0,0.0,,,414.0,2063.0,1248.0,2002.0,1487.0,107.0,430.0,2040.0,1160.0,1982.0,1388.0,109.0,423.0,2112.0,1264.0,1995.0,1675.0,92.0,427.0,2030.0,1270.0,2014.0,1677.0
133,V.CORTLANDT PK,40.89642429999999,-73.8852842,425.0,1236.0,1569.0,1672.0,947.0,341.0,253.0,893.0,1232.0,1357.0,743.0,267.0,760.0,1679.0,1280.0,1810.0,829.0,233.0,1348.0,3417.0,1447.0,2446.0,1241.0,234.0,1348.0,3309.0,1517.0,1964.0,869.0,244.0,1251.0,3583.0,1552.0,2655.0,1215.0,314.0,1306.0,3191.0,1675.0,2846.0,1279.0
134,WESTCHESTER SQ,40.840124700000004,-73.84282579999999,389.0,1062.0,1306.0,1480.0,822.0,378.0,280.0,665.0,939.0,938.0,635.0,278.0,565.0,1482.0,1358.0,1798.0,872.0,304.0,940.0,2804.0,1783.0,3267.0,1370.0,389.0,969.0,2785.0,1709.0,2952.0,1157.0,334.0,946.0,2705.0,1712.0,3121.0,1414.0,403.0,946.0,2626.0,1742.0,3051.0,1292.0
135,FAR ROCKAWAY,40.6077527,-73.7517548,558.0,973.0,1123.0,1344.0,854.0,357.0,413.0,893.0,906.0,1112.0,809.0,338.0,752.0,1330.0,1052.0,1769.0,937.0,338.0,1181.0,2115.0,1441.0,2631.0,1245.0,321.0,1136.0,2085.0,1427.0,2264.0,1071.0,344.0,1096.0,2107.0,1467.0,2486.0,1403.0,393.0,1070.0,1999.0,1598.0,2603.0,1239.0
136,WOODLAWN,40.88603699999999,-73.878751,417.0,912.0,1093.0,1242.0,774.0,325.0,263.0,566.0,789.0,973.0,618.0,232.0,672.0,1081.0,941.0,1364.0,708.0,227.0,1376.0,2337.0,1258.0,2013.0,852.0,292.0,1354.0,2303.0,1153.0,1542.0,709.0,250.0,1342.0,2354.0,1284.0,2036.0,966.0,327.0,1320.0,2138.0,1222.0,1934.0,935.0
137,CORTELYOU RD,40.6412697,-73.9639694,247.0,1146.0,1592.0,1336.0,795.0,223.0,211.0,963.0,1480.0,1144.0,592.0,178.0,377.0,1613.0,1433.0,1354.0,689.0,138.0,659.0,3076.0,1347.0,1482.0,786.0,126.0,674.0,3127.0,1325.0,1276.0,682.0,137.0,621.0,3083.0,1443.0,1586.0,821.0,140.0,598.0,2962.0,1389.0,1548.0,863.0
138,BERGEN ST,40.686083200000006,-73.9909074,88.0,664.0,1360.0,1494.0,1047.0,330.0,90.0,507.0,1311.0,1340.0,651.0,149.0,81.0,931.0,1224.0,1443.0,776.0,105.0,148.0,2346.0,937.0,1718.0,1008.0,68.0,169.0,2334.0,939.0,1598.0,913.0,79.0,151.0,2408.0,1010.0,1859.0,1140.0,115.0,180.0,2155.0,1006.0,1751.0,976.0
139,BEDFORD PK BLVD,40.8732636,-73.8871965,410.0,1020.0,1162.0,1148.0,870.0,321.0,243.0,781.0,870.0,842.0,616.0,206.0,514.0,1000.0,946.0,1177.0,743.0,279.0,850.0,1895.0,1336.0,2354.0,1475.0,682.0,944.0,1912.0,1243.0,1955.0,1111.0,589.0,918.0,1851.0,1198.0,2368.0,1574.0,730.0,984.0,1706.0,1140.0,1722.0,966.0
140,HARLEM 148 ST,40.8240504,-73.9369385,196.0,810.0,1139.0,1322.0,895.0,336.0,157.0,587.0,963.0,1058.0,732.0,230.0,232.0,943.0,1077.0,1298.0,833.0,204.0,417.0,1975.0,1292.0,1853.0,1081.0,215.0,419.0,1948.0,1248.0,1674.0,936.0,202.0,438.0,1965.0,1177.0,1838.0,1095.0,214.0,379.0,1876.0,1239.0,1740.0,1118.0
141,BAY RIDGE-95 ST,40.6167174,-74.0308527,227.0,1004.0,1227.0,1275.0,766.0,277.0,138.0,795.0,1124.0,1023.0,585.0,203.0,375.0,1466.0,1162.0,1368.0,781.0,176.0,791.0,3277.0,1323.0,2467.0,1301.0,215.0,776.0,3339.0,1416.0,2338.0,1112.0,204.0,810.0,3309.0,1406.0,2462.0,1243.0,337.0,803.0,3038.0,1408.0,2345.0,1136.0
142,CLINTON-WASH AV,40.683498900000004,-73.9668944,149.0,1226.0,1888.0,2092.0,1306.0,527.0,132.0,768.0,1699.0,1658.0,940.0,268.0,227.0,1502.0,1501.0,1816.0,1034.0,244.0,378.0,4307.0,1721.0,2764.0,1714.0,308.0,359.0,4278.0,1771.0,2727.0,1589.0,284.0,408.0,4386.0,1812.0,2999.0,1860.0,423.0,368.0,3899.0,1908.0,2932.0,1862.0
143,KINGSTON-THROOP,40.679826500000004,-73.94112940000001,370.0,1414.0,2128.0,2370.0,1757.0,997.0,320.0,1014.0,1968.0,1946.0,1415.0,642.0,325.0,1625.0,1906.0,2390.0,1513.0,576.0,620.0,3579.0,2027.0,2656.0,1946.0,666.0,592.0,3393.0,1970.0,2631.0,1860.0,579.0,602.0,3437.0,2021.0,2863.0,1965.0,744.0,561.0,3375.0,2094.0,2922.0,2135.0
144,ST LAWRENCE AV,40.8315326,-73.8672593,407.0,971.0,1060.0,1268.0,861.0,468.0,297.0,730.0,868.0,1067.0,714.0,372.0,624.0,1104.0,977.0,1448.0,937.0,382.0,892.0,1848.0,1260.0,1790.0,1092.0,439.0,889.0,1868.0,1326.0,1731.0,929.0,437.0,889.0,1823.0,1253.0,1850.0,1190.0,481.0,939.0,1727.0,1268.0,1918.0,1125.0
145,176 ST,40.8484597,-73.9117411,260.0,725.0,677.0,838.0,606.0,202.0,182.0,457.0,548.0,654.0,447.0,253.0,479.0,925.0,730.0,1032.0,703.0,257.0,853.0,2087.0,1239.0,1949.0,1107.0,423.0,944.0,2150.0,1315.0,1733.0,900.0,382.0,918.0,2112.0,1350.0,1986.0,1175.0,437.0,904.0,2109.0,1382.0,1937.0,1119.0
146,FULTON ST,40.709893,-74.0079818,168.0,717.0,1465.0,2040.0,1648.0,414.0,118.0,514.0,1440.0,1742.0,873.0,221.0,168.0,913.0,1322.0,1752.0,1040.0,174.0,229.0,1442.0,1031.0,1981.0,1284.0,225.0,251.0,1469.0,1092.0,1886.0,1226.0,284.0,244.0,1448.0,1012.0,2159.0,1766.0,273.0,246.0,1403.0,1120.0,2021.0,1432.0
147,AVENUE J,40.6252684,-73.9607296,200.0,1007.0,1175.0,1195.0,666.0,184.0,159.0,1044.0,1346.0,1323.0,710.0,162.0,374.0,1812.0,1420.0,2245.0,1308.0,223.0,622.0,3245.0,1631.0,2557.0,1250.0,170.0,577.0,2851.0,1547.0,2341.0,1108.0,164.0,556.0,2968.0,1699.0,2487.0,1316.0,182.0,562.0,2656.0,1745.0,2094.0,813.0
148,183 ST,40.8583924,-73.90397810000002,488.0,1258.0,1168.0,1336.0,932.0,338.0,372.0,920.0,1032.0,459.0,751.0,248.0,725.0,1360.0,1142.0,1383.0,925.0,311.0,993.0,2152.0,1207.0,2061.0,1205.0,481.0,1093.0,2166.0,1156.0,1952.0,1024.0,441.0,1085.0,2234.0,1113.0,2144.0,1290.0,500.0,1086.0,2112.0,1237.0,1949.0,1106.0
149,18 AV,40.6201053,-73.9894661,286.0,1376.0,1181.0,1154.0,480.0,164.0,174.0,1129.0,1195.0,967.0,419.0,99.0,528.0,1868.0,1097.0,1342.0,541.0,95.0,1288.0,4992.0,2432.0,3739.0,1429.0,274.0,1294.0,4914.0,2284.0,3242.0,1370.0,369.0,1280.0,5056.0,2491.0,3643.0,1473.0,341.0,1266.0,4822.0,2655.0,3455.0,1189.0
150,KINGSTON AV,40.669284499999996,-73.9422927,163.0,743.0,1012.0,1130.0,1032.0,446.0,179.0,932.0,1209.0,1425.0,939.0,265.0,232.0,1354.0,1350.0,1768.0,931.0,258.0,393.0,2527.0,1475.0,2211.0,1323.0,312.0,407.0,2452.0,1343.0,1999.0,1285.0,339.0,391.0,2551.0,1669.0,2414.0,1605.0,488.0,411.0,3478.0,2754.0,2143.0,1081.0
151,BEVERLEY ROAD,40.644229100000004,-73.96449799999998,163.0,674.0,921.0,1156.0,1128.0,351.0,139.0,539.0,831.0,1001.0,654.0,219.0,235.0,893.0,928.0,1543.0,1436.0,550.0,349.0,1853.0,895.0,1671.0,1191.0,236.0,338.0,1869.0,905.0,1462.0,1071.0,229.0,363.0,1781.0,869.0,1567.0,1237.0,231.0,340.0,1700.0,859.0,1503.0,1037.0
152,71 ST,40.619621200000005,-73.99877699999998,361.0,1496.0,1161.0,1068.0,583.0,155.0,235.0,1242.0,1103.0,792.0,501.0,132.0,542.0,1806.0,1102.0,1179.0,613.0,115.0,864.0,2984.0,1099.0,1440.0,872.0,141.0,849.0,2923.0,1022.0,1359.0,697.0,135.0,856.0,3121.0,1183.0,1588.0,880.0,156.0,855.0,2866.0,1122.0,1456.0,795.0
153,ST. GEORGE,40.64400390000001,-74.07332480000001,214.0,543.0,739.0,835.0,482.0,218.0,162.0,397.0,516.0,554.0,484.0,159.0,447.0,1131.0,799.0,1360.0,625.0,178.0,1372.0,4487.0,1352.0,4843.0,1478.0,254.0,1344.0,4283.0,1501.0,4774.0,1157.0,274.0,1331.0,4387.0,1459.0,4938.0,1496.0,329.0,1293.0,3868.0,1416.0,4550.0,1279.0
154,MT EDEN AV,40.844528499999996,-73.9146157,283.0,727.0,641.0,839.0,556.0,265.0,230.0,506.0,506.0,616.0,457.0,201.0,394.0,815.0,652.0,855.0,668.0,244.0,870.0,2119.0,1264.0,1924.0,1048.0,504.0,902.0,2125.0,1213.0,1813.0,930.0,431.0,902.0,2079.0,1320.0,2046.0,1158.0,480.0,847.0,1999.0,1306.0,1889.0,1041.0
155,MARBLE HILL-225,40.8743487,-73.91043309999998,252.0,865.0,1014.0,1215.0,669.0,174.0,137.0,615.0,903.0,1065.0,492.0,103.0,365.0,1017.0,984.0,1192.0,595.0,118.0,613.0,1896.0,1096.0,1533.0,738.0,112.0,586.0,1995.0,961.0,1267.0,523.0,110.0,593.0,1960.0,1031.0,1595.0,740.0,139.0,593.0,1818.0,1067.0,1710.0,741.0
156,174-175 STS,40.846524,-73.90972690000001,374.0,1127.0,1174.0,1207.0,688.0,273.0,270.0,791.0,893.0,928.0,540.0,177.0,535.0,1194.0,1131.0,1258.0,591.0,189.0,601.0,2066.0,1461.0,1927.0,575.0,28.0,542.0,2014.0,1425.0,1662.0,495.0,20.0,571.0,2058.0,1359.0,1821.0,585.0,30.0,537.0,1877.0,1585.0,1805.0,732.0
157,33 ST-RAWSON ST,40.744587,-73.93099699999998,257.0,1224.0,1533.0,1361.0,541.0,147.0,233.0,518.0,774.0,899.0,362.0,142.0,496.0,1557.0,1177.0,2366.0,723.0,172.0,980.0,4568.0,4065.0,5990.0,1719.0,199.0,973.0,4329.0,3636.0,5496.0,1657.0,200.0,950.0,3812.0,3213.0,5460.0,1555.0,229.0,930.0,3546.0,2836.0,4499.0,1088.0
158,CITY HALL,40.7135245,-74.00671009999998,40.0,396.0,887.0,1028.0,421.0,94.0,28.0,236.0,678.0,777.0,286.0,52.0,68.0,573.0,866.0,1243.0,399.0,,,9060602.0,1923.0,3876.0,1142.0,110.0,223.0,2349.0,1890.0,3240.0,955.0,115.0,246.0,2352.0,2034.0,4035.0,1177.0,176.0,251.0,2211.0,2106.0,3533.0,970.0
159,182-183 STS,40.8560934,-73.90102949999998,391.0,1081.0,1128.0,1100.0,685.0,335.0,315.0,785.0,854.0,909.0,574.0,261.0,582.0,1208.0,1088.0,1147.0,702.0,301.0,831.0,1808.0,1219.0,1396.0,585.0,1.0,718.0,1767.0,1259.0,1243.0,554.0,1.0,706.0,1808.0,1220.0,1417.0,615.0,3.0,712.0,1812.0,1210.0,1449.0,763.0
160,PRESIDENT ST,40.668158500000004,-73.95065859999998,156.0,768.0,1115.0,1225.0,754.0,323.0,125.0,463.0,849.0,1042.0,583.0,190.0,192.0,959.0,931.0,1496.0,830.0,206.0,322.0,2471.0,1405.0,2307.0,1489.0,154.0,328.0,2524.0,1432.0,2265.0,1276.0,164.0,301.0,2494.0,1411.0,2421.0,1357.0,194.0,296.0,2259.0,1425.0,2131.0,1152.0
161,77 ST,40.7736346,-73.95982939999998,210.0,933.0,1097.0,1099.0,606.0,148.0,128.0,672.0,905.0,838.0,450.0,110.0,305.0,1262.0,992.0,1126.0,634.0,97.0,649.0,3072.0,1148.0,1725.0,844.0,120.0,656.0,3017.0,1149.0,1621.0,763.0,137.0,651.0,3129.0,1293.0,1864.0,844.0,165.0,595.0,2855.0,1163.0,1717.0,824.0
162,GUN HILL RD,40.87773920000001,-73.86630459999998,291.0,763.0,798.0,689.0,464.0,176.0,182.0,555.0,620.0,580.0,332.0,80.0,576.0,994.0,846.0,712.0,435.0,163.0,1188.0,2232.0,1151.0,1115.0,609.0,156.0,1176.0,2313.0,1035.0,1043.0,459.0,138.0,1149.0,2315.0,1143.0,1157.0,739.0,174.0,1084.0,2153.0,1177.0,1193.0,672.0
163,79 ST,40.783934,-73.979917,359.0,1605.0,1104.0,941.0,541.0,140.0,219.0,1326.0,1096.0,775.0,449.0,115.0,572.0,2007.0,1015.0,1015.0,546.0,119.0,889.0,3179.0,1233.0,1424.0,678.0,106.0,882.0,3193.0,1032.0,1269.0,542.0,116.0,891.0,3241.0,1329.0,1365.0,763.0,137.0,869.0,3121.0,1181.0,1387.0,658.0
164,190 ST,40.858887700000004,-73.93422159999999,114.0,650.0,1094.0,828.0,384.0,155.0,103.0,583.0,983.0,793.0,293.0,70.0,165.0,924.0,889.0,881.0,395.0,82.0,365.0,2286.0,897.0,1155.0,494.0,67.0,352.0,2454.0,940.0,977.0,453.0,78.0,375.0,2563.0,1009.0,1369.0,533.0,116.0,360.0,2287.0,972.0,1398.0,537.0
165,20 AV,40.617271,-73.9847709,264.0,1093.0,1000.0,968.0,478.0,162.0,167.0,906.0,982.0,828.0,370.0,104.0,488.0,,,1110.0,537.0,77.0,755.0,2383.0,992.0,1103.0,662.0,83.0,708.0,2313.0,924.0,1272.0,606.0,102.0,754.0,2410.0,947.0,1421.0,692.0,102.0,718.0,2327.0,971.0,1256.0,731.0
166,25 ST,40.6604039,-73.99810550000001,197.0,722.0,980.0,1153.0,622.0,314.0,137.0,608.0,784.0,833.0,475.0,193.0,277.0,1083.0,1062.0,1444.0,687.0,177.0,406.0,2099.0,1039.0,1773.0,876.0,243.0,395.0,2083.0,1105.0,1738.0,869.0,241.0,392.0,2005.0,1094.0,1693.0,922.0,274.0,374.0,1894.0,1062.0,1760.0,839.0
167,BRIARWOOD,40.7093666,-73.81988539999998,224.0,858.0,701.0,754.0,620.0,192.0,162.0,684.0,840.0,746.0,484.0,155.0,372.0,1376.0,952.0,1112.0,661.0,150.0,684.0,2541.0,1054.0,1584.0,927.0,185.0,730.0,2537.0,948.0,1542.0,873.0,182.0,693.0,2490.0,1072.0,1639.0,949.0,207.0,710.0,2283.0,1110.0,1561.0,909.0
168,AQUEDUCT RACETR,40.6721498,-73.8356843,201.0,74.0,334.0,960.0,569.0,239.0,192.0,77.0,324.0,759.0,455.0,146.0,143.0,69.0,318.0,785.0,380.0,112.0,134.0,139.0,254.0,475.0,359.0,131.0,114.0,138.0,265.0,423.0,245.0,80.0,117.0,137.0,338.0,655.0,390.0,145.0,134.0,146.0,359.0,774.0,503.0
169,PENNSYLVANIA AV,40.6646911,-73.8941747,262.0,839.0,956.0,1005.0,650.0,261.0,205.0,599.0,799.0,796.0,532.0,183.0,415.0,974.0,897.0,1207.0,675.0,193.0,644.0,1863.0,1187.0,1535.0,806.0,217.0,664.0,1748.0,1152.0,1307.0,674.0,178.0,655.0,1716.0,1271.0,1587.0,817.0,237.0,628.0,1670.0,1263.0,1585.0,761.0
170,AVENUE M,40.6180725,-73.9593745,166.0,846.0,912.0,886.0,478.0,141.0,121.0,867.0,1276.0,1087.0,523.0,87.0,296.0,1635.0,1283.0,1831.0,684.0,75.0,457.0,2569.0,1255.0,2090.0,775.0,78.0,446.0,2538.0,1228.0,1806.0,701.0,79.0,463.0,2637.0,1254.0,2044.0,832.0,98.0,436.0,2368.0,1550.0,1649.0,568.0
171,OCEAN PKWY,40.5762935,-73.9684997,101.0,670.0,812.0,880.0,369.0,114.0,93.0,521.0,791.0,650.0,360.0,68.0,217.0,892.0,758.0,987.0,458.0,78.0,320.0,1419.0,873.0,1180.0,571.0,99.0,322.0,1382.0,805.0,1023.0,517.0,92.0,314.0,1350.0,871.0,1265.0,656.0,88.0,307.0,1267.0,937.0,1062.0,523.0
172,AVENUE H,40.6297445,-73.96166170000001,130.0,607.0,818.0,934.0,564.0,195.0,95.0,435.0,647.0,690.0,415.0,130.0,180.0,810.0,737.0,948.0,587.0,134.0,287.0,2077.0,1189.0,1940.0,1082.0,143.0,300.0,1941.0,1181.0,1609.0,936.0,116.0,303.0,1954.0,1165.0,1930.0,1061.0,158.0,290.0,1434.0,1040.0,1340.0,665.0
173,JUNIUS ST,40.67504,-73.904496,174.0,595.0,646.0,762.0,609.0,202.0,124.0,419.0,499.0,608.0,370.0,163.0,197.0,665.0,646.0,858.0,508.0,151.0,314.0,1115.0,882.0,1230.0,626.0,174.0,318.0,1115.0,881.0,1103.0,489.0,154.0,302.0,1112.0,852.0,1329.0,624.0,196.0,287.0,1119.0,902.0,1260.0,634.0
174,NECK RD,40.595153100000005,-73.9550266,184.0,969.0,815.0,837.0,434.0,107.0,131.0,795.0,830.0,707.0,325.0,68.0,305.0,1371.0,778.0,931.0,437.0,74.0,530.0,2407.0,786.0,1323.0,674.0,110.0,524.0,2258.0,701.0,1205.0,606.0,109.0,521.0,2328.0,847.0,1324.0,648.0,98.0,526.0,2269.0,781.0,1188.0,565.0
175,VAN SICLEN AV,40.67274219999999,-73.8903155,269.0,695.0,746.0,984.0,615.0,279.0,166.0,455.0,591.0,690.0,475.0,220.0,314.0,735.0,779.0,1013.0,637.0,216.0,525.0,1521.0,988.0,1448.0,873.0,258.0,535.0,1451.0,923.0,1324.0,753.0,239.0,539.0,1461.0,1043.0,1561.0,922.0,254.0,492.0,1325.0,967.0,1493.0,850.0
176,138/GRAND CONC,40.8132249,-73.9298111,328.0,641.0,591.0,780.0,431.0,207.0,245.0,357.0,423.0,553.0,279.0,176.0,329.0,686.0,552.0,933.0,375.0,159.0,731.0,1464.0,1182.0,1677.0,585.0,202.0,725.0,1442.0,1079.0,1349.0,491.0,189.0,681.0,1334.0,969.0,1700.0,605.0,228.0,685.0,1424.0,1097.0,1580.0,669.0
177,BEVERLY RD,40.8322067,-73.3848891,237.0,714.0,787.0,680.0,428.0,120.0,170.0,462.0,639.0,554.0,324.0,91.0,372.0,853.0,771.0,759.0,423.0,157.0,601.0,2059.0,930.0,926.0,467.0,108.0,626.0,1964.0,793.0,826.0,379.0,81.0,616.0,2041.0,954.0,923.0,480.0,122.0,597.0,1871.0,891.0,878.0,487.0
178,75 AV,40.718331,-73.837324,64.0,502.0,767.0,658.0,380.0,100.0,54.0,335.0,594.0,583.0,281.0,54.0,112.0,884.0,758.0,762.0,315.0,44.0,233.0,1969.0,721.0,938.0,444.0,76.0,251.0,1914.0,692.0,834.0,429.0,70.0,253.0,1951.0,752.0,939.0,481.0,67.0,228.0,1836.0,750.0,916.0,419.0
179,BUSHWICK AV,40.7002958,-73.94116439999998,0.0,0.0,0.0,0.0,0.0,0.0,1.0,1.0,11.0,0.0,0.0,0.0,0.0,0.0,0.0,1.0,1.0,0.0,178.0,889.0,490.0,822.0,638.0,43.0,182.0,882.0,513.0,759.0,524.0,39.0,178.0,916.0,538.0,820.0,613.0,59.0,182.0,849.0,547.0,805.0,611.0
180,BEACH 67 ST,40.5909714,-73.79631690000001,217.0,453.0,546.0,541.0,372.0,162.0,153.0,333.0,421.0,437.0,325.0,152.0,296.0,493.0,443.0,575.0,341.0,149.0,512.0,944.0,572.0,838.0,519.0,170.0,492.0,927.0,597.0,758.0,402.0,211.0,484.0,913.0,574.0,821.0,509.0,188.0,459.0,924.0,641.0,853.0,509.0
181,WHITLOCK AV,40.82674420000001,-73.88634559999998,186.0,427.0,485.0,642.0,418.0,211.0,144.0,311.0,410.0,434.0,321.0,125.0,265.0,536.0,442.0,704.0,408.0,137.0,371.0,859.0,577.0,1003.0,512.0,156.0,360.0,960.0,542.0,928.0,421.0,150.0,349.0,865.0,573.0,938.0,518.0,172.0,358.0,909.0,578.0,919.0,530.0
182,W 8 ST-AQUARIUM,40.57612779999999,-73.97596539999998,57.0,360.0,582.0,504.0,204.0,53.0,21.0,315.0,595.0,495.0,158.0,38.0,113.0,640.0,615.0,660.0,265.0,44.0,212.0,1200.0,1153.0,894.0,281.0,39.0,206.0,1129.0,941.0,834.0,232.0,48.0,189.0,1060.0,1054.0,1043.0,310.0,38.0,198.0,1102.0,1057.0,902.0,270.0
183,PARK PLACE,40.7132422,-74.0092559,44.0,351.0,638.0,648.0,285.0,63.0,26.0,184.0,520.0,560.0,144.0,51.0,88.0,504.0,590.0,845.0,251.0,29.0,186.0,1998.0,1085.0,2385.0,622.0,10.0,159.0,1900.0,1085.0,2127.0,520.0,46.0,177.0,1939.0,1124.0,2335.0,623.0,11.0,181.0,1767.0,1200.0,2343.0,524.0
184,215 ST,40.8695946,-73.9153019,57.0,308.0,453.0,449.0,233.0,89.0,55.0,217.0,400.0,414.0,178.0,60.0,89.0,370.0,432.0,447.0,188.0,88.0,118.0,658.0,536.0,726.0,349.0,60.0,137.0,656.0,595.0,620.0,271.0,81.0,136.0,696.0,544.0,717.0,349.0,72.0,123.0,652.0,528.0,643.0,277.0
185,HOWARD BCH JFK,40.660476,-73.83030099999998,145.0,243.0,356.0,505.0,316.0,165.0,105.0,209.0,400.0,582.0,454.0,217.0,178.0,357.0,466.0,532.0,393.0,205.0,353.0,741.0,484.0,652.0,410.0,178.0,372.0,649.0,383.0,560.0,372.0,187.0,327.0,620.0,449.0,709.0,415.0,173.0,309.0,595.0,449.0,622.0,390.0
186,BEACH 25 ST,40.59946790000001,-73.7618536,168.0,335.0,433.0,429.0,352.0,203.0,135.0,298.0,296.0,369.0,355.0,150.0,238.0,422.0,374.0,486.0,395.0,140.0,460.0,779.0,483.0,881.0,552.0,191.0,434.0,765.0,459.0,760.0,518.0,214.0,443.0,814.0,451.0,828.0,702.0,176.0,294.0,713.0,496.0,628.0,419.0
187,BEACH 60 ST,40.59244,-73.78928300000003,206.0,347.0,405.0,480.0,374.0,169.0,171.0,307.0,356.0,399.0,296.0,114.0,258.0,391.0,419.0,520.0,341.0,134.0,448.0,860.0,592.0,814.0,452.0,146.0,484.0,782.0,561.0,687.0,362.0,142.0,427.0,793.0,601.0,789.0,475.0,178.0,426.0,800.0,650.0,757.0,484.0
188,ATLANTIC AV,40.675554,-73.90305759999998,47.0,140.0,184.0,196.0,110.0,38.0,18.0,94.0,142.0,137.0,67.0,43.0,67.0,254.0,205.0,319.0,117.0,43.0,186.0,649.0,274.0,630.0,250.0,32.0,188.0,613.0,320.0,570.0,205.0,46.0,179.0,628.0,290.0,610.0,279.0,48.0,199.0,674.0,359.0,680.0,327.0
189,BEACH 36 ST,40.595532,-73.7681238,73.0,212.0,203.0,271.0,200.0,94.0,75.0,147.0,124.0,209.0,188.0,68.0,113.0,221.0,259.0,328.0,242.0,71.0,230.0,409.0,314.0,498.0,324.0,104.0,209.0,377.0,299.0,444.0,301.0,88.0,204.0,428.0,300.0,515.0,320.0,104.0,213.0,414.0,359.0,498.0,337.0
190,55 ST,40.6315514,-73.9956328,66.0,259.0,272.0,256.0,165.0,66.0,44.0,379.0,420.0,486.0,232.0,46.0,128.0,666.0,575.0,954.0,304.0,42.0,167.0,1016.0,698.0,1056.0,386.0,58.0,163.0,907.0,597.0,930.0,337.0,52.0,178.0,920.0,622.0,1142.0,429.0,65.0,162.0,892.0,684.0,906.0,200.0
191,104 ST,40.695145600000004,-73.8443046,128.0,317.0,280.0,261.0,158.0,55.0,87.0,236.0,215.0,201.0,130.0,53.0,232.0,392.0,250.0,286.0,175.0,157.0,1184.0,2206.0,1033.0,1639.0,852.0,191.0,1182.0,2131.0,1069.0,1569.0,703.0,209.0,1102.0,2270.0,1077.0,1696.0,937.0,207.0,1101.0,2020.0,1061.0,1527.0,811.0
192,BEACH 44 ST,40.592920899999996,-73.77594839999998,66.0,164.0,196.0,222.0,174.0,89.0,49.0,131.0,137.0,159.0,145.0,90.0,120.0,180.0,168.0,245.0,165.0,66.0,217.0,328.0,225.0,410.0,220.0,90.0,183.0,343.0,228.0,355.0,188.0,78.0,198.0,332.0,216.0,410.0,241.0,92.0,182.0,334.0,236.0,407.0,265.0
193,WORLD TRADE CTR,40.712645200000004,-74.00989799999998,383.0,1733.0,3710.0,4247.0,1772.0,530.0,201.0,1340.0,3361.0,3503.0,1511.0,306.0,460.0,2368.0,3194.0,4227.0,1590.0,286.0,1167.0,9948.0,4368.0,12439.0,3744.0,486.0,1230.0,9278.0,4863.0,11294.0,3364.0,496.0,1178.0,9601.0,5046.0,12184.0,3860.0,624.0,1192.0,8861.0,5350.0,11520.0,3437.0
194,NASSAU AV,40.7238944,-73.9506777,409.0,2395.0,4317.0,5645.0,3462.0,1292.0,296.0,1514.0,3652.0,4298.0,2591.0,637.0,581.0,3672.0,3514.0,5399.0,2561.0,475.0,929.0,6041.0,2629.0,5720.0,3278.0,512.0,966.0,5835.0,2633.0,5542.0,2953.0,570.0,948.0,5796.0,2772.0,5700.0,3289.0,742.0,946.0,5407.0,2922.0,5547.0,3573.0
195,39 AV,40.752689700000005,-73.9328056,32.0,54.0,19.0,22.0,3.0,1.0,19.0,22.0,20.0,2.0,38.0,75.0,136.0,675.0,443.0,672.0,440.0,102.0,253.0,1333.0,473.0,1312.0,683.0,151.0,278.0,1265.0,563.0,1203.0,648.0,144.0,246.0,1403.0,445.0,1294.0,773.0,171.0,236.0,1204.0,468.0,1240.0,736.0
196,36 AV,40.7668516,-73.921313,31.0,5.0,0.0,0.0,1.0,1.0,2.0,0.0,0.0,0.0,37.0,245.0,338.0,1695.0,1588.0,2263.0,1297.0,400.0,624.0,3451.0,1389.0,3734.0,2137.0,437.0,629.0,3478.0,1330.0,3445.0,1915.0,461.0,655.0,3520.0,1464.0,3687.0,2230.0,553.0,611.0,3239.0,1391.0,3771.0,1967.0
197,BROADWAY,40.7623472,-73.9256595,58.0,39.0,51.0,40.0,7.0,5.0,20.0,52.0,47.0,33.0,119.0,350.0,372.0,2489.0,2364.0,3283.0,2091.0,526.0,757.0,5729.0,2069.0,5537.0,3484.0,666.0,792.0,5859.0,1981.0,4992.0,3392.0,651.0,780.0,5864.0,1999.0,5628.0,3969.0,875.0,742.0,5533.0,2139.0,5629.0,3521.0
198,COURT SQ-23 ST,40.748050799999994,-73.94704779999998,160.0,816.0,1075.0,1228.0,629.0,146.0,105.0,523.0,887.0,971.0,478.0,118.0,220.0,1066.0,1010.0,1597.0,605.0,135.0,457.0,2430.0,1129.0,2690.0,1011.0,179.0,513.0,2484.0,1284.0,2545.0,974.0,181.0,480.0,2495.0,1198.0,2706.0,960.0,180.0,460.0,2273.0,1168.0,2580.0,899.0
199,ASTORIA DITMARS,40.7750119,-73.91211,86.0,34.0,4.0,5.0,11.0,8.0,6.0,17.0,11.0,6.0,184.0,614.0,740.0,3766.0,3558.0,3953.0,2992.0,771.0,1501.0,,3188.0,5737.0,,900.0,1585.0,8599.0,3565.0,6590.0,4055.0,919.0,1411.0,8856.0,3706.0,6690.0,4878.0,1190.0,1427.0,8024.0,3826.0,6882.0,4277.0
200,CYPRESS HILLS,40.68994860000001,-73.87257310000003,6.0,4.0,18.0,3.0,3.0,0.0,0.0,0.0,0.0,0.0,0.0,0.0,0.0,0.0,0.0,0.0,17.0,45.0,288.0,597.0,301.0,509.0,228.0,57.0,274.0,615.0,296.0,468.0,,,307.0,620.0,366.0,527.0,257.0,51.0,275.0,562.0,313.0,520.0,252.0
201,30 AV,40.7668516,-73.921313,41.0,1.0,0.0,1.0,0.0,1.0,1.0,0.0,0.0,0.0,139.0,446.0,643.0,3089.0,3172.0,3986.0,2636.0,,,7631.0,2501.0,6747.0,4285.0,828.0,1130.0,7697.0,2712.0,6117.0,4041.0,841.0,1155.0,7623.0,2648.0,6471.0,4640.0,1044.0,1167.0,7160.0,2628.0,6496.0,3791.0
202,121 ST,40.7006094,-73.8281286,11.0,10.0,10.0,5.0,1.0,2.0,0.0,0.0,0.0,0.0,0.0,1.0,8.0,2.0,1.0,5.0,19.0,100.0,385.0,1034.0,664.0,1120.0,416.0,97.0,367.0,990.0,582.0,953.0,386.0,107.0,367.0,1055.0,659.0,1108.0,518.0,108.0,391.0,935.0,614.0,1036.0,453.0
203,75 ST-ELDERTS,40.69143649999999,-73.8665512,11.0,0.0,0.0,1.0,0.0,0.0,1.0,0.0,0.0,0.0,0.0,0.0,0.0,0.0,0.0,0.0,47.0,96.0,670.0,1435.0,779.0,1270.0,601.0,131.0,719.0,1370.0,762.0,1150.0,548.0,112.0,708.0,1366.0,778.0,1228.0,640.0,157.0,694.0,1383.0,750.0,1167.0,595.0
204,AVENUE X,40.589682200000006,-73.9742509,0.0,0.0,0.0,0.0,1.0,0.0,0.0,0.0,0.0,0.0,0.0,0.0,0.0,0.0,3.0,0.0,0.0,0.0,389.0,1316.0,683.0,1053.0,577.0,109.0,379.0,1398.0,669.0,956.0,520.0,83.0,401.0,1375.0,715.0,1034.0,597.0,86.0,365.0,1268.0,670.0,939.0,544.0
205,AVENUE P,40.6087814,-73.97290840000001,1.0,1.0,0.0,0.0,0.0,0.0,0.0,0.0,0.0,0.0,0.0,0.0,0.0,0.0,0.0,0.0,0.0,0.0,305.0,1228.0,426.0,779.0,369.0,78.0,323.0,1252.0,391.0,728.0,333.0,62.0,342.0,1288.0,431.0,825.0,360.0,81.0,347.0,1174.0,407.0,719.0,313.0
206,85 ST-FOREST PK,40.6924861,-73.8590708,7.0,0.0,0.0,1.0,0.0,0.0,0.0,0.0,8.0,0.0,0.0,0.0,0.0,0.0,0.0,0.0,36.0,88.0,712.0,1657.0,802.0,1181.0,594.0,126.0,736.0,1571.0,764.0,1046.0,567.0,115.0,731.0,1642.0,867.0,1193.0,644.0,132.0,717.0,1473.0,832.0,1191.0,584.0
207,WOODHAVEN BLVD,40.6939097,-73.85139269999998,16.0,10.0,21.0,4.0,6.0,0.0,0.0,3.0,2.0,2.0,3.0,3.0,34.0,0.0,0.0,0.0,49.0,144.0,716.0,1927.0,977.0,1535.0,677.0,186.0,705.0,1891.0,937.0,1336.0,602.0,154.0,727.0,1885.0,1092.0,1564.0,775.0,186.0,714.0,1800.0,984.0,1554.0,671.0
208,METROPOLITAN AV,40.712132700000005,-73.889276,174.0,618.0,965.0,1124.0,560.0,158.0,114.0,436.0,788.0,821.0,464.0,102.0,288.0,921.0,859.0,1312.0,558.0,136.0,698.0,1871.0,997.0,2144.0,794.0,138.0,667.0,1852.0,997.0,1949.0,670.0,132.0,676.0,1816.0,1052.0,2214.0,841.0,178.0,654.0,1782.0,1138.0,2152.0,768.0
209,GREENPOINT AV,40.7301618,-73.9540458,269.0,1490.0,2529.0,3065.0,1899.0,652.0,182.0,975.0,2068.0,2495.0,1411.0,289.0,410.0,2470.0,2445.0,3520.0,1617.0,232.0,760.0,5206.0,2541.0,5274.0,2812.0,304.0,773.0,5376.0,2640.0,5131.0,2686.0,358.0,784.0,5316.0,2659.0,5327.0,2849.0,435.0,711.0,5196.0,2833.0,5238.0,3098.0
