,StationName,Latitude,Longitude,2018-12-22 03:00:00,2018-12-22 07:00:00,2018-12-22 11:00:00,2018-12-22 15:00:00,2018-12-22 19:00:00,2018-12-22 23:00:00,2018-12-23 03:00:00,2018-12-23 07:00:00,2018-12-23 11:00:00,2018-12-23 15:00:00,2018-12-23 19:00:00,2018-12-23 23:00:00,2018-12-24 03:00:00,2018-12-24 07:00:00,2018-12-24 11:00:00,2018-12-24 15:00:00,2018-12-24 19:00:00,2018-12-24 23:00:00,2018-12-25 03:00:00,2018-12-25 07:00:00,2018-12-25 11:00:00,2018-12-25 15:00:00,2018-12-25 19:00:00,2018-12-25 23:00:00,2018-12-26 03:00:00,2018-12-26 07:00:00,2018-12-26 11:00:00,2018-12-26 15:00:00,2018-12-26 19:00:00,2018-12-26 23:00:00,2018-12-27 03:00:00,2018-12-27 07:00:00,2018-12-27 11:00:00,2018-12-27 15:00:00,2018-12-27 19:00:00,2018-12-27 23:00:00,2018-12-28 03:00:00,2018-12-28 07:00:00,2018-12-28 11:00:00,2018-12-28 15:00:00,2018-12-28 19:00:00
0,34 ST-HERALD SQ,40.748897899999996,-73.98878859999998,3345.0,17878.0,42718.0,59594.0,37012.0,10032.0,2796.0,14389.0,37806.0,55412.0,34108.0,7329.0,4445.0,28386.0,48489.0,61054.0,23233.0,4793.0,1471.0,8857.0,21818.0,26948.0,17798.0,3850.0,6282.0,41139.0,49655.0,83010.0,39997.0,8864.0,6831.0,46766.0,54025.0,92026.0,44893.0,8193.0,6639.0,43113.0,21165841.0,77467.0,36318.0
1,TIMES SQ-42 ST,40.7545563,-73.98667370000001,2920.0,14052.0,32092.0,46437.0,34878.0,11798.0,2267.0,11557.0,16101.0,22776.0,29364.0,8265.0,3707.0,19266.0,29568.0,39575.0,23731.0,7531.0,1583.0,7720.0,21323.0,36249.0,24022.0,6142.0,4918.0,29136.0,35251.0,60076.0,33759.0,9978.0,5474.0,34948.0,39685.0,67899.0,38351.0,10240.0,4987.0,30885.0,35774.0,54446.0,34757.0
2,34 ST-PENN STA,40.751056,-73.99031020000001,3995.0,16067.0,36892.0,44602.0,26077.0,7497.0,2778.0,16284.0,33217.0,40335.0,23786.0,5347.0,6215.0,28473.0,37949.0,41697.0,14725.0,3066.0,1432.0,9040.0,19139.0,18968.0,13610.0,3252.0,7589.0,35115.0,34764.0,55661.0,23976.0,6649.0,7740.0,39069.0,39078.0,63089.0,27558.0,5369.0,7641.0,36243.0,37371.0,53858.0,23095.0
3,59 ST COLUMBUS,40.7684839,-73.98180699999999,1668.0,10107.0,23679.0,28408.0,15573.0,4225.0,1239.0,8118.0,20586.0,25490.0,12083.0,2789.0,2334.0,13044.0,21604.0,25153.0,9695.0,2611.0,815.0,5166.0,14427.0,15270.0,6822.0,1931.0,3179.0,16243.0,22399.0,33338.0,14646.0,3683.0,3597.0,19210.0,26823.0,37866.0,17238.0,3801.0,3456.0,17331.0,22882.0,30268.0,15142.0
4,86 ST,40.7795016,-73.95557240000001,1704.0,10662.0,20556.0,24931.0,13498.0,2953.0,1241.0,8018.0,17766.0,20688.0,11039.0,1955.0,2672.0,15374.0,22950.0,21748.0,7895.0,1731.0,847.0,4026.0,8710.0,10822.0,6709.0,1129.0,3246.0,18205.0,22596.0,31096.0,12335.0,2001.0,3725.0,21471.0,26441.0,36244.0,13826.0,2261.0,3391.0,21944.0,29364.0,33283.0,14161.0
5,GRD CNTRL-42 ST,40.75216470000001,-73.97715339999998,1511.0,10414.0,22271.0,24695.0,12818.0,3387.0,977.0,7968.0,19103.0,22158.0,10975.0,2242.0,2898.0,17812.0,23898.0,23850.0,8710.0,2131.0,713.0,4764.0,12473.0,14629.0,9324.0,1989.0,4471.0,25737.0,25264.0,38384.0,14817.0,3679.0,4987.0,30160.0,29239.0,36537.0,14734.0,3396.0,4579.0,28185.0,29644.0,41879.0,15709.0
6,59 ST,40.6415685,-74.0176783,2433.0,11396.0,20280.0,24784.0,12513.0,3582.0,1623.0,8574.0,17166.0,20583.0,10763.0,2706.0,3396.0,16934.0,21410.0,24550.0,7416.0,2153.0,1012.0,4200.0,8581.0,9907.0,4788.0,1557.0,4941.0,25149.0,23618.0,37831.0,14631.0,3216.0,5384.0,29101.0,27508.0,43557.0,16321.0,3581.0,5112.0,26507.0,24913.0,36838.0,14728.0
7,FLUSHING-MAIN,40.75955820000001,-73.82992209999998,2907.0,14396.0,18610.0,21341.0,15091.0,4016.0,2093.0,11283.0,17168.0,20354.0,13092.0,3532.0,4653.0,18971.0,18320.0,25167.0,13460.0,2989.0,1494.0,7452.0,14052.0,16500.0,9448.0,2278.0,5971.0,22654.0,18385.0,28211.0,16824.0,3543.0,6478.0,24202.0,18812.0,29220.0,14621.0,4021.0,5923.0,22437.0,14948.0,24968.0,15680.0
8,ATL AV-BARCLAY,40.6837598,-73.97875739999998,1184.0,6450.0,16350.0,20893.0,12035.0,4047.0,992.0,5311.0,14402.0,21895.0,13882.0,1909.0,1573.0,11360.0,17376.0,21850.0,6573.0,1324.0,515.0,2431.0,5217.0,5947.0,3898.0,1095.0,1933.0,11838.0,13846.0,27259.0,15817.0,3301.0,2277.0,14062.0,14523.0,26168.0,11935.0,2689.0,2254.0,13197.0,14298.0,26815.0,14465.0
9,23 ST,40.7413626,-73.9891335,1099.0,6645.0,16465.0,20583.0,11279.0,3395.0,848.0,5000.0,13046.0,16282.0,8750.0,1887.0,1340.0,9889.0,15967.0,18690.0,7229.0,1584.0,449.0,2640.0,6185.0,7792.0,4236.0,1157.0,1646.0,12771.0,16505.0,26112.0,11805.0,2420.0,1933.0,15380.0,19050.0,31454.0,14261.0,2942.0,1914.0,14926.0,18618.0,27644.0,12232.0
10,42 ST-PORT AUTH,40.7578346,-73.99146259999998,2309.0,12907.0,16526.0,18304.0,13361.0,3258.0,1470.0,10161.0,14509.0,16088.0,11010.0,2434.0,4727.0,17730.0,16876.0,19891.0,10135.0,2355.0,1057.0,6237.0,10922.0,13093.0,9393.0,1955.0,6981.0,24863.0,16872.0,27039.0,14750.0,2999.0,7422.0,26449.0,18152.0,28992.0,16502.0,2843.0,6995.0,27757.0,19502.0,29693.0,14358.0
11,14 ST,40.73747540000001,-73.9970975,1015.0,4462.0,11588.0,14715.0,8613.0,2836.0,808.0,3444.0,10183.0,12622.0,6340.0,1731.0,937.0,5987.0,10819.0,12222.0,4715.0,1480.0,389.0,1568.0,4055.0,4969.0,3173.0,998.0,1229.0,7949.0,11492.0,17309.0,8111.0,2458.0,1468.0,9332.0,13726.0,21100.0,10101.0,2623.0,1447.0,8400.0,12282.0,17762.0,9891.0
12,JKSN HT-ROOSVLT,40.746739,-73.89099859999999,3074.0,10990.0,14706.0,17226.0,11206.0,4722.0,2467.0,8550.0,12928.0,15427.0,10160.0,3885.0,3875.0,13163.0,15212.0,19123.0,10016.0,3538.0,1759.0,4992.0,9613.0,12524.0,8355.0,2462.0,5064.0,15551.0,14176.0,21449.0,11976.0,3961.0,5060.0,16975.0,14673.0,22539.0,13585.0,4949.0,4785.0,15909.0,13341.0,20303.0,11433.0
13,BEDFORD AV,40.717354,-73.956972,901.0,4354.0,11519.0,14192.0,7995.0,2728.0,632.0,3365.0,9986.0,11894.0,5937.0,1430.0,720.0,4119.0,7373.0,8110.0,3359.0,1007.0,248.0,1249.0,3650.0,4661.0,2863.0,870.0,993.0,5498.0,7675.0,12053.0,6430.0,65.0,934.0,7142.0,9428.0,14926.0,8606.0,62.0,974.0,6414.0,8743.0,13104.0,8459.0
14,47-50 STS ROCK,40.75885,-73.98118610000002,1294.0,6726.0,16973.0,33209.0,23583.0,5297.0,935.0,5980.0,16451.0,32355.0,21986.0,4053.0,2459.0,17625.0,24915.0,39008.0,21489.0,4350.0,711.0,4294.0,4187.0,8679.0,20038.0,3485.0,3922.0,28359.0,30082.0,56804.0,26455.0,5376.0,4529.0,32424.0,33147.0,61547.0,28742.0,5035.0,4229.0,30450.0,28914.0,45327.0,19660.0
15,34 ST-HUDSON YD,40.7549713,-74.0010084,745.0,1547.0,2520.0,2392.0,1027.0,318.0,407.0,1107.0,2098.0,2234.0,1066.0,270.0,1155.0,1845.0,2895.0,2223.0,781.0,220.0,220.0,678.0,1715.0,1625.0,625.0,239.0,2131.0,2975.0,3699.0,5499.0,1488.0,447.0,2279.0,3963.0,4616.0,6419.0,1647.0,403.0,2311.0,3367.0,3792.0,4645.0,1532.0
16,CHAMBERS ST,40.7155134,-74.00922270000001,949.0,5878.0,12328.0,12912.0,5981.0,1812.0,578.0,4680.0,10688.0,10847.0,5095.0,1194.0,1558.0,10796.0,14793.0,15150.0,4235.0,1096.0,473.0,2822.0,8456.0,8349.0,3461.0,983.0,2165.0,15503.0,17550.0,25565.0,7273.0,1976.0,2544.0,18576.0,22077.0,30799.0,8886.0,1938.0,2277.0,16418.0,16896.0,24118.0,7785.0
17,125 ST,40.8043863,-73.9374292,1764.0,6747.0,11981.0,14053.0,8701.0,2982.0,1249.0,5857.0,11094.0,12119.0,6849.0,2284.0,1942.0,7958.0,11544.0,13415.0,6359.0,2062.0,847.0,2587.0,6245.0,5935.0,5007.0,1692.0,2209.0,9733.0,10854.0,15538.0,7778.0,2408.0,2543.0,10974.0,11691.0,17117.0,8931.0,2593.0,2499.0,10251.0,11060.0,15426.0,8443.0
18,57 ST-7 AV,40.765564000000005,-73.9803309,565.0,3024.0,9290.0,11803.0,8196.0,2623.0,660.0,4013.0,8070.0,10389.0,6169.0,1646.0,1122.0,5943.0,8281.0,9606.0,5000.0,1548.0,505.0,2479.0,5009.0,6473.0,3619.0,1025.0,1597.0,8670.0,9425.0,16006.0,7694.0,2225.0,1782.0,10356.0,10886.0,18347.0,8829.0,2167.0,1545.0,9823.0,10619.0,16948.0,8818.0
19,GRAND ST,40.7182003,-73.9935756,896.0,6236.0,10468.0,12139.0,6937.0,1783.0,686.0,5146.0,9215.0,10915.0,5731.0,1073.0,1318.0,8592.0,9694.0,11407.0,6188.0,1086.0,568.0,3872.0,7815.0,9386.0,4808.0,904.0,1519.0,9502.0,11146.0,15399.0,7341.0,1065.0,1478.0,10827.0,12360.0,17195.0,8538.0,1395.0,1504.0,9898.0,10566.0,14718.0,7970.0
20,145 ST,40.8240532,-73.94476230000001,2090.0,7199.0,10798.0,12296.0,7960.0,3586.0,1726.0,5948.0,9314.0,10239.0,6712.0,2781.0,2230.0,8307.0,9701.0,11881.0,6105.0,2470.0,1119.0,3158.0,5496.0,6974.0,4742.0,1984.0,2511.0,9351.0,8489.0,13677.0,7570.0,3052.0,2843.0,10534.0,9622.0,14889.0,8860.0,3437.0,2736.0,10284.0,10119.0,13948.0,8580.0
21,42 ST-BRYANT PK,40.75483679999999,-73.9841215,795.0,4064.0,11040.0,9930.0,6391.0,2561.0,627.0,3150.0,9678.0,14871.0,8347.0,1783.0,1315.0,9371.0,14732.0,18251.0,8204.0,1784.0,418.0,2263.0,7119.0,11827.0,6846.0,1450.0,2188.0,14690.0,15898.0,28618.0,12063.0,2853.0,2412.0,16789.0,18269.0,32537.0,13684.0,3099.0,2265.0,15223.0,15261.0,23954.0,10997.0
22,2 AV,40.723412700000004,-73.9902885,715.0,2793.0,5912.0,7558.0,5877.0,2395.0,620.0,2314.0,6085.0,6748.0,4251.0,1053.0,635.0,3256.0,4602.0,5856.0,3254.0,1007.0,336.0,1313.0,2944.0,3546.0,2437.0,626.0,729.0,3761.0,5087.0,7803.0,5159.0,1499.0,759.0,4691.0,5842.0,9924.0,6765.0,2020.0,849.0,4790.0,6057.0,8948.0,6153.0
23,50 ST,40.7620363,-73.98632909999998,1546.0,7272.0,15351.0,21860.0,16033.0,5518.0,1341.0,7197.0,14804.0,13479.0,9014.0,3690.0,1938.0,10852.0,13693.0,16678.0,9863.0,3387.0,882.0,3962.0,8463.0,13033.0,9628.0,2561.0,2148.0,14617.0,15369.0,25447.0,13528.0,4071.0,2364.0,16593.0,14737.0,26118.0,16155.0,3942.0,2423.0,15116.0,16204.0,24369.0,13814.0
24,CHURCH AV,40.6495233,-73.96328390000001,1424.0,5464.0,7069.0,7884.0,4915.0,1961.0,1204.0,4524.0,6071.0,6895.0,4295.0,1519.0,1991.0,7907.0,8007.0,9649.0,4746.0,1431.0,855.0,2770.0,3803.0,4988.0,3078.0,1124.0,2320.0,8756.0,7022.0,11039.0,5856.0,1481.0,2523.0,9959.0,7477.0,11646.0,6240.0,1533.0,2346.0,9301.0,7432.0,10723.0,5632.0
25,PRINCE ST,40.7242353,-73.99780600000001,256.0,2491.0,9441.0,13082.0,5246.0,743.0,212.0,1818.0,8021.0,10994.0,3964.0,430.0,227.0,2300.0,6584.0,8314.0,1605.0,329.0,106.0,519.0,2367.0,2930.0,1054.0,225.0,338.0,2964.0,7490.0,11865.0,4481.0,564.0,349.0,3374.0,7930.0,13171.0,5071.0,693.0,327.0,3276.0,7069.0,10135.0,4151.0
26,SPRING ST,40.7257799,-74.00395209999998,401.0,2837.0,8624.0,11079.0,5311.0,1136.0,299.0,1961.0,7094.0,9327.0,3012.0,538.0,470.0,3495.0,7338.0,8035.0,2423.0,530.0,102.0,753.0,2564.0,3273.0,1272.0,314.0,473.0,3734.0,7834.0,12096.0,4951.0,667.0,569.0,4604.0,9570.0,15417.0,6136.0,805.0,579.0,4496.0,8857.0,12458.0,5584.0
27,LEXINGTON AV/63,40.764629,-73.96611299999998,533.0,2329.0,5457.0,6128.0,3138.0,1008.0,423.0,2368.0,4415.0,4936.0,2495.0,713.0,1103.0,5393.0,5938.0,6593.0,2469.0,679.0,353.0,1273.0,2668.0,3224.0,1866.0,578.0,2707.0,11814.0,8916.0,13798.0,5299.0,1434.0,2779.0,12899.0,10404.0,15592.0,6238.0,1709.0,2536.0,11248.0,9249.0,13407.0,5409.0
28,NOSTRAND AV,40.6697362,-73.95050890000002,894.0,4316.0,6737.0,6777.0,4426.0,1598.0,740.0,3464.0,5246.0,5483.0,3449.0,1062.0,1078.0,5190.0,6484.0,6926.0,3582.0,1032.0,465.0,1954.0,3195.0,3673.0,2729.0,969.0,1152.0,5678.0,5391.0,7597.0,4087.0,1361.0,1407.0,6690.0,6156.0,8254.0,4844.0,1482.0,1354.0,6518.0,5893.0,7954.0,4497.0
29,JAY ST-METROTEC,40.6922507,-73.9872792,739.0,3550.0,7783.0,9280.0,4985.0,1280.0,539.0,3268.0,6990.0,8500.0,3997.0,1058.0,1064.0,7174.0,9674.0,11502.0,3342.0,932.0,395.0,1521.0,3083.0,3727.0,2156.0,672.0,1257.0,8777.0,9665.0,15439.0,4949.0,1230.0,1480.0,9964.0,10892.0,17809.0,610.0,102.0,1367.0,9587.0,10518.0,15326.0,5169.0
30,1 AV,40.7312776,-73.9823439,729.0,2390.0,4814.0,7862.0,5893.0,1983.0,579.0,2510.0,5142.0,6267.0,4184.0,1125.0,1043.0,4738.0,5315.0,6497.0,3660.0,1055.0,342.0,1531.0,2710.0,3907.0,2895.0,798.0,1166.0,5465.0,5619.0,8675.0,4891.0,6.0,1163.0,6512.0,6516.0,10449.0,6070.0,2.0,1142.0,6523.0,7091.0,10295.0,6691.0
31,STEINWAY ST,40.756691700000005,-73.92064090000001,615.0,3107.0,5380.0,5985.0,3819.0,1310.0,442.0,2370.0,4457.0,5129.0,3124.0,844.0,754.0,3497.0,4588.0,4861.0,2340.0,608.0,280.0,968.0,1970.0,2622.0,697.0,163.0,840.0,4313.0,4193.0,6341.0,3556.0,703.0,929.0,4963.0,4614.0,7171.0,3744.0,847.0,846.0,4680.0,4124.0,6378.0,3672.0
32,JUNCTION BLVD,40.749203,-73.8693365,2137.0,5862.0,6562.0,8120.0,4695.0,1923.0,1247.0,4390.0,5955.0,7329.0,4090.0,1463.0,2478.0,6329.0,6309.0,8759.0,3968.0,1274.0,805.0,2043.0,3511.0,4375.0,2402.0,864.0,3315.0,7389.0,5257.0,10501.0,4818.0,1701.0,3913.0,7993.0,5475.0,10738.0,,2033.0,,7820.0,5144.0,9843.0,4911.0
33,DEKALB AV,40.68982020000001,-73.9811611,1065.0,4765.0,7774.0,8353.0,4623.0,1186.0,766.0,3638.0,6916.0,7238.0,3786.0,884.0,1446.0,6081.0,7772.0,8384.0,3190.0,769.0,466.0,1864.0,3508.0,3786.0,2137.0,653.0,1817.0,7341.0,6861.0,9775.0,4091.0,1028.0,2091.0,8829.0,7735.0,10550.0,4687.0,1094.0,1944.0,8141.0,7245.0,9779.0,4798.0
34,BOROUGH HALL,40.6931492,-73.9900883,464.0,3065.0,6666.0,7291.0,3398.0,914.0,287.0,2201.0,5557.0,6060.0,2501.0,665.0,804.0,6202.0,8095.0,8280.0,2093.0,483.0,185.0,1038.0,2688.0,3246.0,1702.0,384.0,965.0,8205.0,9239.0,12979.0,3728.0,730.0,1201.0,9968.0,11472.0,15424.0,4510.0,817.0,1020.0,9204.0,10078.0,12505.0,3893.0
35,CROWN HTS-UTICA,40.6689469,-73.93183379999998,1468.0,4854.0,4526.0,6858.0,4996.0,1939.0,1043.0,3687.0,5409.0,6203.0,4125.0,1385.0,2294.0,5692.0,7126.0,8911.0,4460.0,1399.0,759.0,2294.0,3141.0,4051.0,2850.0,1145.0,2670.0,8215.0,6284.0,9414.0,5112.0,1682.0,2930.0,9675.0,6897.0,10045.0,5694.0,1688.0,2728.0,8909.0,6558.0,9035.0,5120.0
36,8 ST-NYU,40.7306065,-73.99244159999998,365.0,1630.0,5322.0,7289.0,4962.0,1713.0,242.0,1266.0,4486.0,6082.0,4074.0,798.0,256.0,1642.0,3666.0,5130.0,2657.0,717.0,132.0,567.0,2171.0,3067.0,2008.0,506.0,310.0,2344.0,4088.0,6602.0,4238.0,1186.0,350.0,2951.0,4491.0,8045.0,5083.0,1405.0,422.0,2792.0,4164.0,7103.0,4619.0
37,CANAL ST,40.722713899999995,-74.00630600000001,363.0,2370.0,5593.0,6365.0,3061.0,954.0,292.0,1863.0,4447.0,5260.0,2324.0,485.0,690.0,3551.0,5322.0,5726.0,1720.0,451.0,164.0,999.0,2866.0,3093.0,1463.0,351.0,930.0,4538.0,5810.0,9059.0,3149.0,801.0,984.0,5329.0,7155.0,11207.0,3884.0,839.0,1040.0,5084.0,6385.0,9028.0,3664.0
38,QUEENSBORO PLZ,40.7505127,-73.9398439,463.0,2059.0,3123.0,3226.0,1796.0,712.0,363.0,1808.0,2670.0,2727.0,1607.0,561.0,537.0,2475.0,3400.0,2891.0,1277.0,450.0,218.0,958.0,1619.0,1741.0,990.0,336.0,898.0,3965.0,3239.0,5375.0,2051.0,682.0,851.0,4557.0,3679.0,5975.0,2447.0,804.0,754.0,4185.0,3557.0,5522.0,2425.0
39,MYRTLE-WYCKOFF,40.699686,-73.9117713,1684.0,5552.0,6914.0,7206.0,4678.0,1766.0,1069.0,4028.0,1069780.0,5985.0,3947.0,1211.0,1604.0,4810.0,5115.0,5361.0,2892.0,1037.0,589.0,1679.0,2928.0,3402.0,2147.0,754.0,2087.0,5783.0,4706.0,6456.0,3760.0,886.0,2300.0,6567.0,5057.0,6812.0,4056.0,1059.0,2216.0,6340.0,4667.0,6330.0,4373.0
40,51 ST,40.757135,-73.97191190000001,628.0,2933.0,5559.0,8002.0,4789.0,1320.0,452.0,2391.0,4977.0,7274.0,3942.0,799.0,913.0,5664.0,6446.0,8466.0,3692.0,958.0,350.0,1508.0,3426.0,5180.0,2763.0,616.0,1359.0,10027.0,8291.0,14652.0,5583.0,1301.0,1496.0,12433.0,10211.0,17842.0,6342.0,1317.0,1529.0,11780.0,10356.0,15145.0,5731.0
41,COURT SQ,40.7467885,-73.944548,1260.0,3900.0,5021.0,5862.0,3492.0,1210.0,658.0,2866.0,4001.0,4639.0,2756.0,967.0,865.0,3652.0,3709.0,3688.0,1493.0,455.0,218.0,671.0,1383.0,1567.0,1218.0,393.0,1515.0,5925.0,3779.0,7380.0,2716.0,801.0,1833.0,6782.0,4435.0,8658.0,3173.0,868.0,1648.0,5675.0,1929.0,3569.0,1156.0
42,JAMAICA CENTER,40.702144700000005,-73.8008771,2351.0,5865.0,6989.0,8390.0,5287.0,2293.0,1831.0,4321.0,5429.0,6559.0,4620.0,1835.0,4576.0,10736.0,8863.0,11903.0,5667.0,1765.0,1487.0,3097.0,4354.0,5490.0,3753.0,1560.0,5560.0,11888.0,8723.0,14277.0,6951.0,2007.0,6227.0,13340.0,9488.0,15769.0,7493.0,2184.0,5715.0,12203.0,8637.0,14018.0,7039.0
43,49 ST,40.7598372,-73.98418249999999,771.0,3844.0,7895.0,13053.0,10020.0,3121.0,660.0,3489.0,7508.0,12250.0,8971.0,1613.0,641.0,5141.0,7877.0,11134.0,7033.0,2224.0,438.0,2442.0,5538.0,10494.0,7474.0,1727.0,1253.0,7869.0,9192.0,17354.0,10406.0,2629.0,1297.0,9453.0,10245.0,19592.0,11820.0,2809.0,,,9534.0,16027.0,9777.0
44,BOWLING GREEN,40.7048108,-74.0144596,513.0,3596.0,6071.0,5153.0,2134.0,676.0,366.0,3010.0,6008.0,5935.0,1963.0,540.0,1270.0,7972.0,6250.0,5992.0,1745.0,533.0,266.0,1556.0,4277.0,4274.0,1142.0,409.0,1629.0,11935.0,10290.0,13343.0,2677.0,1245.0,1985.0,14657.0,12915.0,17276.0,3772.0,1253.0,1605.0,10622.0,8021.0,6903.0,1416.0
45,BLEECKER ST,40.7259346,-73.9946724,398.0,1295.0,3499.0,5089.0,2901.0,1074.0,312.0,903.0,2804.0,3920.0,2036.0,640.0,270.0,1550.0,2876.0,3861.0,1425.0,500.0,134.0,460.0,1034.0,1377.0,703.0,292.0,309.0,1818.0,2938.0,5417.0,,,351.0,2382.0,3608.0,6417.0,3494.0,691.0,411.0,2229.0,3296.0,5539.0,3197.0
46,VERNON-JACKSON,40.7426713,-73.9537248,337.0,2049.0,4183.0,4477.0,2494.0,833.0,274.0,1644.0,3528.0,3571.0,1940.0,398.0,515.0,2969.0,3287.0,3545.0,1615.0,435.0,151.0,750.0,1682.0,2083.0,1243.0,322.0,755.0,4413.0,3430.0,5490.0,2487.0,602.0,919.0,5577.0,3641.0,5798.0,2759.0,588.0,425.0,3373.0,3232.0,4943.0,2895.0
47,28 ST,40.7470686,-73.99350919999998,420.0,2595.0,4541.0,5612.0,3296.0,1197.0,307.0,1990.0,3669.0,4481.0,2574.0,783.0,440.0,3025.0,3840.0,4369.0,2106.0,789.0,220.0,1019.0,1955.0,2634.0,1859.0,505.0,518.0,4441.0,4334.0,7257.0,3046.0,861.0,556.0,5267.0,5255.0,8902.0,3883.0,976.0,574.0,5131.0,5644.0,7991.0,3466.0
48,SUTPHIN-ARCHER,40.700572799999996,-73.8077071,1825.0,4845.0,5689.0,7046.0,4596.0,1866.0,1574.0,4129.0,5471.0,6560.0,4551.0,1625.0,2951.0,7423.0,7759.0,8974.0,4659.0,1576.0,1247.0,3246.0,4687.0,5645.0,4049.0,1289.0,3273.0,8199.0,6601.0,10226.0,5430.0,1566.0,3450.0,8718.0,7348.0,10717.0,5531.0,1647.0,3361.0,8411.0,6664.0,10287.0,5559.0
49,FORDHAM RD,40.8614886,-73.8905408,1457.0,3872.0,4976.0,5518.0,3281.0,1116.0,1068.0,2928.0,4322.0,5058.0,2612.0,843.0,1873.0,4926.0,5112.0,6184.0,2635.0,861.0,678.0,1762.0,2689.0,3170.0,1836.0,687.0,2479.0,5773.0,5130.0,7201.0,2959.0,1068.0,2702.0,6108.0,5207.0,7212.0,3254.0,1077.0,2486.0,5781.0,4822.0,6593.0,3037.0
50,HIGH ST,40.6993673,-73.99126559999998,181.0,1880.0,4632.0,4418.0,1632.0,468.0,130.0,1503.0,4300.0,4255.0,1457.0,291.0,305.0,1737.0,3171.0,3568.0,1103.0,311.0,103.0,1356.0,4566.0,4824.0,1221.0,221.0,451.0,2744.0,4492.0,5860.0,2043.0,449.0,575.0,3522.0,5935.0,7095.0,2440.0,493.0,505.0,2568.0,2726.0,3733.0,2023.0
51,BROOKLYN BRIDGE,40.6993673,-73.99126559999998,315.0,1633.0,4208.0,5353.0,1596.0,546.0,198.0,1197.0,3617.0,4495.0,1392.0,65.0,162.0,3993.0,5005.0,5071.0,1120.0,317.0,151.0,872.0,3315.0,4043.0,1028.0,319.0,914.0,5460.0,6109.0,8906.0,2089.0,558.0,1013.0,6732.0,7830.0,10662.0,2604.0,625.0,958.0,5750.0,5282.0,7058.0,1994.0
52,103 ST-CORONA,40.7498268,-73.862746,2234.0,5610.0,5562.0,7050.0,4410.0,1974.0,1351.0,4511.0,5528.0,5894.0,3737.0,1609.0,2752.0,6043.0,5434.0,6652.0,3682.0,1411.0,844.0,2072.0,3286.0,4228.0,2540.0,967.0,3869.0,6722.0,4905.0,8374.0,4453.0,1677.0,4264.0,7360.0,4986.0,8660.0,3816.0,1920.0,3951.0,7223.0,4745.0,7979.0,4479.0
53,GRAND-NEWTOWN,40.736835,-73.87758840000001,1077.0,4380.0,5286.0,5925.0,3431.0,1130.0,658.0,3407.0,4796.0,5613.0,3245.0,948.0,1448.0,5596.0,5213.0,6244.0,2995.0,685.0,419.0,1855.0,2771.0,2948.0,1809.0,513.0,1947.0,6874.0,4675.0,6587.0,3368.0,840.0,2065.0,7269.0,4948.0,6592.0,3500.0,863.0,1998.0,7012.0,4194.0,5908.0,3160.0
54,181 ST,40.84913,-73.93372889999998,821.0,2962.0,4439.0,5090.0,3202.0,1448.0,642.0,2271.0,4068.0,4706.0,2959.0,1124.0,891.0,3367.0,4189.0,5183.0,2438.0,963.0,495.0,1299.0,2261.0,2999.0,1911.0,759.0,1058.0,3801.0,4237.0,6113.0,3199.0,1050.0,1137.0,4248.0,4305.0,5999.0,3426.0,1139.0,1109.0,3773.0,4041.0,5539.0,3123.0
55,167 ST,40.835598,-73.9213791,1134.0,2770.0,,4012.0,2697.0,1131.0,868.0,2272.0,2708.0,3429.0,2412.0,975.0,1444.0,2691.0,2600.0,4478.0,2441.0,895.0,595.0,1378.0,1875.0,2782.0,1768.0,609.0,1706.0,3981.0,2934.0,5349.0,2871.0,1016.0,1861.0,4345.0,3383.0,5681.0,2967.0,1091.0,1889.0,4162.0,3294.0,5018.0,2968.0
56,82 ST-JACKSON H,40.7477145,-73.8839373,1043.0,4078.0,7393.0,8160.0,4555.0,1883.0,775.0,2917.0,6037.0,7226.0,4175.0,1481.0,1155.0,4660.0,7323.0,8041.0,3710.0,1184.0,637.0,1424.0,3348.0,4532.0,2719.0,848.0,1420.0,5180.0,6449.0,9786.0,4884.0,1476.0,1533.0,5564.0,6901.0,10159.0,4451.0,1519.0,1535.0,5446.0,6253.0,9407.0,4795.0
57,KINGS HWY,40.60867440000001,-73.9578059,616.0,3378.0,4654.0,5251.0,2959.0,942.0,492.0,3111.0,4483.0,5102.0,2731.0,756.0,1304.0,7210.0,6286.0,8510.0,2908.0,673.0,402.0,2339.0,3097.0,3806.0,1995.0,551.0,1669.0,8852.0,6003.0,10180.0,4550.0,818.0,1820.0,9034.0,6108.0,9843.0,5081.0,839.0,1600.0,8140.0,5848.0,8530.0,3617.0
58,3 AV-149 ST,40.816129,-73.917811,1189.0,4030.0,5273.0,5370.0,3017.0,902.0,866.0,2889.0,4176.0,4470.0,2377.0,827.0,1772.0,5810.0,5927.0,6117.0,2606.0,705.0,600.0,1851.0,2644.0,3176.0,1653.0,626.0,2038.0,6047.0,5993.0,7274.0,2898.0,732.0,2352.0,6894.0,6609.0,7861.0,3038.0,744.0,2152.0,6685.0,5945.0,7058.0,2852.0
59,EAST BROADWAY,40.714402899999996,-73.98991880000001,485.0,2446.0,3754.0,4109.0,2521.0,673.0,316.0,2024.0,3475.0,3735.0,2086.0,558.0,617.0,3280.0,3810.0,4437.0,2268.0,594.0,271.0,1552.0,2942.0,3464.0,1829.0,500.0,657.0,3647.0,3917.0,5367.0,2501.0,655.0,791.0,4121.0,4280.0,5933.0,2930.0,582.0,769.0,3924.0,4067.0,4911.0,2658.0
60,72 ST,40.778453000000006,-73.98196999999998,86.0,953.0,2831.0,2985.0,949.0,266.0,64.0,758.0,2627.0,2839.0,777.0,148.0,121.0,1457.0,2741.0,3010.0,786.0,118.0,25.0,560.0,2932.0,2895.0,621.0,106.0,134.0,1836.0,3318.0,4445.0,1208.0,175.0,182.0,2311.0,4342.0,5762.0,1487.0,201.0,178.0,2318.0,4115.0,4267.0,1422.0
61,WALL ST,40.706396500000004,-74.0094441,256.0,1739.0,3540.0,3790.0,2014.0,714.0,195.0,1486.0,2944.0,3180.0,1620.0,443.0,630.0,5165.0,4884.0,4524.0,1322.0,417.0,110.0,912.0,2126.0,2291.0,1108.0,349.0,972.0,7884.0,4642.0,9522.0,1920.0,21.0,1058.0,9718.0,5984.0,11804.0,2492.0,30.0,921.0,8383.0,5248.0,9466.0,2660.0
62,21 ST-QNSBRIDGE,40.75417770000001,-73.94247419999998,319.0,1733.0,1732.0,1640.0,873.0,282.0,233.0,1326.0,1559.0,1462.0,730.0,254.0,726.0,3066.0,2777.0,3068.0,1735.0,473.0,282.0,1307.0,1732.0,2028.0,1523.0,402.0,1380.0,4720.0,3327.0,5064.0,2783.0,828.0,1397.0,5070.0,3694.0,5511.0,3050.0,883.0,1346.0,4751.0,3454.0,5164.0,2738.0
63,HOYT-SCHER,40.688828799999996,-73.98531249999998,254.0,1584.0,3336.0,3933.0,2178.0,614.0,196.0,1288.0,2942.0,3358.0,1871.0,422.0,328.0,2562.0,4035.0,4538.0,1565.0,356.0,102.0,618.0,1265.0,1540.0,946.0,259.0,473.0,2813.0,3870.0,5282.0,2262.0,515.0,575.0,3386.0,3972.0,5784.0,2517.0,495.0,538.0,3110.0,3931.0,5353.0,2453.0
64,FRANKLIN AV,40.7190056,-74.0066801,410.0,2147.0,3360.0,3451.0,2136.0,737.0,351.0,1518.0,2757.0,2762.0,1557.0,508.0,541.0,2514.0,2725.0,3001.0,1419.0,505.0,219.0,731.0,1295.0,1514.0,1087.0,398.0,546.0,2890.0,2445.0,3393.0,1842.0,515.0,672.0,3636.0,2843.0,4128.0,2338.0,578.0,615.0,3477.0,2906.0,3876.0,2103.0
65,168 ST,40.841041,-73.939971,1093.0,4134.0,5726.0,5463.0,3412.0,1244.0,858.0,2890.0,4317.0,4787.0,2811.0,1020.0,198.0,1008.0,4333.0,5756.0,2017.0,898.0,40.0,934.0,1171.0,3462.0,2181.0,716.0,1688.0,7347.0,6058.0,8992.0,3476.0,1094.0,1912.0,9135.0,7510.0,10720.0,4070.0,1252.0,1798.0,7817.0,6292.0,8747.0,3913.0
66,NEVINS ST,40.6882963,-73.98052059999999,307.0,1520.0,3408.0,3734.0,2005.0,659.0,290.0,1165.0,2510.0,3087.0,1563.0,436.0,530.0,2927.0,4133.0,4580.0,1515.0,422.0,195.0,716.0,1301.0,1576.0,949.0,402.0,680.0,3050.0,3179.0,4803.0,1838.0,475.0,716.0,3721.0,3785.0,5619.0,2113.0,520.0,659.0,3466.0,3615.0,5040.0,2023.0
67,5 AVE,40.760216299999996,-73.975543,231.0,1406.0,4028.0,5965.0,3399.0,645.0,165.0,1278.0,3637.0,6011.0,2831.0,420.0,392.0,2819.0,4837.0,6284.0,2625.0,538.0,105.0,742.0,2746.0,4703.0,2206.0,348.0,603.0,4153.0,5282.0,9802.0,3938.0,646.0,729.0,4757.0,5846.0,10371.0,4313.0,731.0,710.0,4515.0,5298.0,8084.0,3023.0
68,PROSPECT PARK,40.66087879999999,-73.9621109,390.0,1842.0,2982.0,3146.0,2094.0,777.0,345.0,1442.0,2536.0,2700.0,1585.0,565.0,579.0,2535.0,2899.0,3308.0,1534.0,455.0,223.0,799.0,1463.0,1850.0,1146.0,402.0,579.0,2846.0,2727.0,3845.0,2241.0,521.0,658.0,3329.0,3204.0,4491.0,2555.0,589.0,614.0,3105.0,2587.0,3650.0,2351.0
69,CENTRAL PK N110,40.798737599999995,-73.9522934,515.0,1899.0,2806.0,3159.0,1903.0,826.0,357.0,1547.0,2439.0,2809.0,1592.0,588.0,591.0,2095.0,2539.0,2893.0,1502.0,639.0,313.0,1048.0,2119.0,2298.0,1359.0,507.0,635.0,2513.0,2705.0,3543.0,1802.0,666.0,746.0,3035.0,2950.0,4016.0,2016.0,711.0,648.0,2680.0,2555.0,3460.0,1927.0
70,LEXINGTON AV/53,40.757698100000006,-73.96907420000001,807.0,4281.0,7313.0,9299.0,5600.0,1920.0,581.0,3313.0,5847.0,7584.0,4533.0,1180.0,1719.0,10433.0,10275.0,10693.0,4010.0,1111.0,358.0,1841.0,3396.0,3805.0,2415.0,823.0,882.0,5605.0,4651.0,9694.0,3229.0,857.0,867.0,6523.0,5299.0,10039.0,3411.0,749.0,865.0,7112.0,5759.0,9255.0,2870.0
71,63 DR-REGO PARK,40.7301359,-73.86236729999999,476.0,2634.0,4562.0,4977.0,2474.0,584.0,365.0,2173.0,4114.0,4793.0,1850.0,418.0,880.0,4449.0,4475.0,4200.0,1441.0,277.0,263.0,1091.0,1741.0,1748.0,814.0,256.0,1090.0,5572.0,4056.0,5496.0,2219.0,350.0,1178.0,5946.0,248.0,578.0,2212.0,343.0,1062.0,5399.0,3476.0,5024.0,2109.0
72,3 AV,40.733135299999994,-73.98675829999998,212.0,921.0,1969.0,2623.0,1980.0,611.0,162.0,683.0,1552.0,2065.0,1445.0,362.0,220.0,1121.0,1653.0,2147.0,1097.0,300.0,77.0,311.0,866.0,1215.0,805.0,236.0,308.0,1370.0,1696.0,2631.0,1719.0,4.0,328.0,1682.0,2020.0,3356.0,1930.0,1.0,271.0,1710.0,1913.0,3239.0,2294.0
73,175 ST,40.847916600000005,-73.9394823,515.0,2245.0,3326.0,3716.0,2262.0,743.0,341.0,1702.0,2901.0,3080.0,1903.0,483.0,845.0,2822.0,3040.0,3601.0,1629.0,460.0,234.0,892.0,1881.0,2437.0,1445.0,307.0,1082.0,3801.0,3024.0,4679.0,2365.0,536.0,1090.0,4154.0,3344.0,4894.0,,567.0,934.0,2809.0,2005.0,3148.0,
74,53 ST,40.760216299999996,-73.975543,667.0,2346.0,3297.0,3626.0,2042.0,831.0,443.0,1893.0,2790.0,3250.0,1869.0,652.0,797.0,3054.0,3144.0,3907.0,1739.0,561.0,360.0,1115.0,1720.0,2186.0,1281.0,418.0,1063.0,3602.0,2925.0,4651.0,2271.0,678.0,1110.0,3801.0,2870.0,4783.0,2379.0,714.0,1070.0,3653.0,2795.0,4468.0,2259.0
75,110 ST,40.798737599999995,-73.9522934,574.0,2291.0,3057.0,3454.0,2140.0,980.0,467.0,1804.0,2584.0,2935.0,1859.0,699.0,692.0,2948.0,3310.0,3883.0,1882.0,692.0,303.0,1126.0,1804.0,2229.0,1416.0,521.0,850.0,2352.0,1660.0,4431.0,2228.0,771.0,930.0,3853.0,3370.0,4753.0,2328.0,767.0,863.0,3553.0,3301.0,4584.0,2526.0
76,BEDFORD-NOSTRAN,40.6898534,-73.9516398,522.0,2056.0,2954.0,3142.0,1901.0,779.0,362.0,1657.0,2462.0,2005.0,1350.0,585.0,437.0,1855.0,1808.0,1968.0,908.0,328.0,117.0,581.0,949.0,1090.0,738.0,275.0,432.0,2210.0,1671.0,2455.0,1246.0,372.0,467.0,2679.0,1921.0,2758.0,1528.0,372.0,455.0,2583.0,2048.0,2509.0,1551.0
77,GRAHAM AV,40.714526299999996,-73.94438180000002,296.0,1524.0,2758.0,2811.0,1700.0,526.0,181.0,1140.0,2120.0,2381.0,1371.0,468.0,351.0,1739.0,2100.0,2162.0,1028.0,362.0,86.0,541.0,1173.0,1184.0,811.0,242.0,441.0,2102.0,2042.0,2879.0,1558.0,172.0,417.0,2903.0,2443.0,3344.0,1841.0,223.0,434.0,2797.0,2464.0,3242.0,1998.0
78,46 ST BLISS ST,40.7430691,-73.91824030000002,688.0,2681.0,3763.0,4543.0,2866.0,1093.0,534.0,2157.0,3310.0,3964.0,2449.0,891.0,947.0,3477.0,3697.0,4490.0,2289.0,834.0,389.0,1175.0,2143.0,2672.0,1741.0,538.0,1092.0,4103.0,3513.0,5501.0,2830.0,937.0,1287.0,4680.0,3962.0,5671.0,2927.0,1092.0,1346.0,4435.0,3436.0,5378.0,3110.0
79,CHRISTOPHER ST,40.733578400000006,-74.00287279999998,327.0,1229.0,3446.0,4509.0,3433.0,1401.0,248.0,954.0,2948.0,3698.0,2506.0,811.0,125.0,773.0,2650.0,3180.0,1892.0,642.0,142.0,457.0,1654.0,1881.0,1370.0,547.0,255.0,1667.0,2742.0,4579.0,3209.0,791.0,306.0,2139.0,3546.0,5840.0,4200.0,1256.0,304.0,1970.0,3112.0,5013.0,3939.0
80,191 ST,40.855738,-73.9306512,589.0,1966.0,2715.0,3451.0,2400.0,1157.0,439.0,1494.0,2362.0,3172.0,2245.0,804.0,627.0,2274.0,2482.0,3479.0,1893.0,758.0,303.0,936.0,1454.0,2172.0,1448.0,515.0,744.0,2672.0,2480.0,4040.0,2350.0,868.0,816.0,2914.0,2625.0,4108.0,2607.0,958.0,835.0,2714.0,2552.0,3787.0,2321.0
81,ROOSEVELT ISLND,40.7591362,-73.9533215,116.0,938.0,1924.0,1716.0,696.0,195.0,82.0,845.0,1650.0,1463.0,565.0,160.0,248.0,1891.0,2522.0,2972.0,1527.0,407.0,106.0,664.0,1926.0,2191.0,1204.0,285.0,351.0,2296.0,2389.0,3185.0,1752.0,358.0,387.0,2517.0,2677.0,3572.0,1894.0,366.0,358.0,2364.0,2050.0,2793.0,1785.0
82,BROADWAY JCT,40.6789137,-73.9039,770.0,2011.0,2445.0,2781.0,2062.0,950.0,569.0,1685.0,2127.0,2308.0,1857.0,746.0,946.0,2594.0,2580.0,3105.0,1728.0,648.0,408.0,1050.0,1488.0,1900.0,1450.0,633.0,1078.0,2736.0,2540.0,3602.0,1942.0,879.0,1227.0,3252.0,2709.0,3167.0,1852.0,996.0,1207.0,2776.0,2535.0,3540.0,2031.0
83,HOYT ST,40.688828799999996,-73.98531249999998,176.0,1148.0,2836.0,3507.0,1676.0,279.0,111.0,959.0,2640.0,2968.0,1309.0,236.0,244.0,2027.0,3218.0,3785.0,1029.0,146.0,50.0,374.0,759.0,883.0,441.0,163.0,269.0,1895.0,2520.0,3736.0,988.0,9.0,282.0,2275.0,2824.0,4146.0,1230.0,12.0,275.0,2073.0,2726.0,3935.0,1346.0
84,135 ST,40.817894,-73.947647,555.0,2388.0,3196.0,3232.0,1854.0,868.0,428.0,1922.0,2815.0,1723.0,1001.0,285.0,0.0,178.0,2338.0,2492.0,1046.0,82.0,24.0,88.0,138.0,216.0,403.0,462.0,677.0,3159.0,2660.0,3053.0,1887.0,495.0,759.0,4119.0,3085.0,4323.0,2101.0,660.0,777.0,3785.0,3230.0,3912.0,2106.0
85,ELMHURST AV,40.74244789999999,-73.88198440000001,677.0,2961.0,3309.0,3344.0,1705.0,488.0,477.0,2425.0,3236.0,3076.0,1572.0,413.0,1001.0,3982.0,3223.0,3451.0,1444.0,419.0,291.0,1473.0,2034.0,2192.0,1006.0,248.0,1286.0,4651.0,2946.0,3417.0,1417.0,308.0,1266.0,4924.0,2975.0,3486.0,1504.0,330.0,1255.0,4642.0,2552.0,3278.0,1407.0
86,RECTOR ST,40.7078954,-74.01363649999998,219.0,1626.0,2997.0,3361.0,1522.0,513.0,169.0,1430.0,2587.0,2770.0,1253.0,323.0,341.0,2749.0,3648.0,3737.0,1349.0,294.0,85.0,878.0,1862.0,2199.0,891.0,136.0,314.0,3752.0,4029.0,6294.0,1868.0,539.0,528.0,4741.0,5031.0,7581.0,2401.0,674.0,489.0,4162.0,4174.0,5497.0,1914.0
87,4AV-9 ST,40.6701803,-73.98929150000002,260.0,1433.0,2407.0,2435.0,1341.0,398.0,197.0,1094.0,2094.0,2067.0,1098.0,259.0,379.0,1841.0,2080.0,2232.0,867.0,228.0,107.0,526.0,813.0,984.0,619.0,181.0,413.0,2352.0,2106.0,2978.0,1318.0,371.0,501.0,2910.0,2377.0,3455.0,1541.0,390.0,493.0,2669.0,2312.0,3058.0,1588.0
88,96 ST,40.7858701,-73.95093469999998,113.0,914.0,1952.0,2379.0,1257.0,318.0,80.0,734.0,1862.0,2030.0,947.0,190.0,260.0,2117.0,2762.0,2992.0,911.0,214.0,91.0,546.0,1316.0,1412.0,674.0,134.0,282.0,2496.0,2543.0,4092.0,1379.0,284.0,320.0,2949.0,2984.0,4596.0,1656.0,273.0,274.0,2694.0,2868.0,3966.0,1452.0
89,JAMAICA 179 ST,40.71264420000001,-73.7838184,1391.0,3258.0,3348.0,3661.0,2321.0,992.0,,2261.0,,2899.0,2033.0,872.0,2819.0,5850.0,3958.0,4589.0,2470.0,682.0,736.0,1407.0,2015.0,2425.0,1634.0,602.0,3648.0,7566.0,4187.0,5914.0,3117.0,831.0,3834.0,8500.0,4564.0,6496.0,3243.0,921.0,3684.0,7379.0,3549.0,5342.0,2278.0
90,BRIGHTON BEACH,40.5776648,-73.96127690000002,468.0,2098.0,2795.0,2903.0,1361.0,441.0,328.0,1902.0,2682.0,2926.0,1292.0,348.0,811.0,3336.0,3325.0,3699.0,1589.0,333.0,318.0,1368.0,2147.0,2599.0,1109.0,283.0,1027.0,4073.0,3383.0,4749.0,2011.0,325.0,1085.0,4145.0,3545.0,4741.0,2258.0,372.0,1024.0,3715.0,3002.0,4043.0,1856.0
91,CARROLL ST,40.679331299999994,-73.9954833,148.0,1318.0,2425.0,2476.0,1313.0,470.0,120.0,943.0,1939.0,1844.0,956.0,280.0,249.0,1592.0,1798.0,1840.0,862.0,222.0,59.0,428.0,855.0,819.0,479.0,136.0,254.0,2115.0,2070.0,2728.0,1281.0,300.0,321.0,2700.0,2343.0,3194.0,1600.0,320.0,317.0,2653.0,2223.0,3110.0,1489.0
92,149/GRAND CONC,40.8183248,-73.9274121,731.0,2093.0,2799.0,3228.0,1759.0,873.0,656.0,1666.0,2325.0,2736.0,1680.0,800.0,863.0,2827.0,2985.0,3490.0,1575.0,638.0,374.0,996.0,1272.0,1587.0,1055.0,548.0,949.0,3231.0,3411.0,4069.0,1725.0,818.0,1064.0,3434.0,3685.0,4513.0,2003.0,935.0,1042.0,3166.0,3025.0,3978.0,1920.0
93,UNION ST,40.6771729,-73.98324670000001,217.0,1060.0,1692.0,1880.0,1274.0,467.0,152.0,813.0,1480.0,1574.0,1036.0,219.0,289.0,1376.0,1466.0,1633.0,747.0,206.0,67.0,406.0,643.0,755.0,567.0,144.0,318.0,1788.0,1462.0,2627.0,1265.0,344.0,356.0,2346.0,1708.0,3039.0,1674.0,406.0,349.0,2197.0,1910.0,2787.0,1535.0
94,111 ST,40.75172999999999,-73.855334,1281.0,3754.0,3518.0,3999.0,2471.0,1143.0,763.0,2850.0,3367.0,3562.0,2185.0,831.0,1762.0,4105.0,3442.0,4103.0,2239.0,862.0,546.0,1632.0,2194.0,2592.0,1576.0,471.0,2528.0,4699.0,3200.0,4711.0,2634.0,899.0,2738.0,5002.0,3375.0,5202.0,404.0,77.0,301.0,759.0,589.0,767.0,369.0
95,MONTROSE AV,40.7077716,-73.93986329999998,357.0,1238.0,2038.0,2253.0,1548.0,541.0,269.0,1074.0,1836.0,1698.0,1142.0,298.0,407.0,1298.0,1513.0,1646.0,898.0,309.0,149.0,447.0,964.0,1056.0,693.0,294.0,408.0,1571.0,1379.0,2054.0,1168.0,191.0,405.0,1873.0,1582.0,2375.0,1284.0,198.0,407.0,1822.0,1699.0,2235.0,1569.0
96,MORGAN AV,40.70607589999999,-73.93370999999998,346.0,1111.0,2014.0,2246.0,1409.0,433.0,207.0,829.0,1693.0,1737.0,1021.0,309.0,365.0,1126.0,1414.0,1684.0,739.0,214.0,108.0,414.0,882.0,949.0,585.0,225.0,449.0,1434.0,1508.0,2438.0,1117.0,237.0,421.0,1716.0,1667.0,2655.0,1477.0,259.0,486.0,1691.0,1730.0,2595.0,1541.0
97,90 ST-ELMHURST,40.748436700000006,-73.87652890000001,1391.0,4257.0,4332.0,4729.0,2672.0,995.0,894.0,3355.0,4020.0,4189.0,2314.0,712.0,1847.0,4453.0,3972.0,4452.0,2310.0,765.0,648.0,1582.0,2497.0,3034.0,1601.0,513.0,2440.0,5304.0,3804.0,5292.0,2818.0,841.0,2610.0,5716.0,4015.0,5403.0,2430.0,864.0,2468.0,5369.0,3520.0,5313.0,2870.0
98,6 AV,40.7373653,-73.99684529999998,117.0,613.0,1523.0,2053.0,1337.0,384.0,101.0,439.0,1253.0,1657.0,965.0,196.0,147.0,695.0,1179.0,1596.0,611.0,170.0,40.0,187.0,482.0,576.0,464.0,155.0,176.0,950.0,1206.0,2318.0,1215.0,283.0,197.0,1031.0,1482.0,2640.0,1380.0,298.0,185.0,1126.0,1445.0,2136.0,1314.0
99,BOWERY,40.720166799999994,-73.99353470000001,210.0,1138.0,1992.0,2039.0,1088.0,442.0,160.0,939.0,1572.0,1874.0,915.0,264.0,197.0,999.0,1385.0,1526.0,597.0,257.0,121.0,493.0,1149.0,1169.0,522.0,172.0,248.0,1415.0,1874.0,2309.0,1069.0,371.0,273.0,1674.0,2108.0,2717.0,1434.0,534.0,289.0,1561.0,1867.0,2415.0,1395.0
100,BURNSIDE AV,40.85345299999999,-73.90768400000002,631.0,1844.0,2559.0,2421.0,1633.0,647.0,544.0,1497.0,1980.0,2330.0,1454.0,536.0,975.0,2536.0,2386.0,2670.0,1529.0,498.0,370.0,929.0,1375.0,1662.0,987.0,423.0,1247.0,2783.0,2625.0,3270.0,1734.0,568.0,1280.0,3075.0,2626.0,3390.0,1730.0,625.0,1226.0,2897.0,2498.0,3074.0,1804.0
101,45 ST,40.6493588,-74.00959069999998,420.0,1674.0,2375.0,2274.0,1350.0,465.0,310.0,1372.0,2223.0,2245.0,1243.0,427.0,590.0,2072.0,2146.0,2255.0,1116.0,321.0,235.0,723.0,1217.0,1501.0,788.0,214.0,808.0,2374.0,1856.0,2882.0,1357.0,409.0,877.0,2648.0,1978.0,2993.0,1486.0,449.0,824.0,2489.0,1803.0,2615.0,1351.0
102,170 ST,40.840050399999996,-73.9133477,789.0,2135.0,2600.0,2728.0,1747.0,693.0,647.0,1682.0,2364.0,2525.0,1460.0,539.0,951.0,2403.0,2318.0,2794.0,1453.0,529.0,388.0,916.0,1346.0,1756.0,1000.0,400.0,1141.0,2567.0,1775.0,3258.0,1778.0,507.0,1185.0,2836.0,2496.0,3400.0,1792.0,580.0,1088.0,2576.0,2172.0,2978.0,1772.0
103,169 ST,40.7104152,-73.79374600000001,583.0,1600.0,2003.0,2493.0,1512.0,617.0,437.0,1233.0,1625.0,2073.0,1354.0,501.0,792.0,2362.0,2428.0,3121.0,1732.0,515.0,312.0,726.0,1276.0,1769.0,1112.0,348.0,992.0,2691.0,2313.0,3646.0,2006.0,545.0,1041.0,2931.0,2719.0,4361.0,1949.0,579.0,991.0,2662.0,2230.0,3597.0,1671.0
104,74 ST-BROADWAY,40.746941899999996,-73.89146020000001,229.0,996.0,1823.0,2101.0,1399.0,489.0,168.0,738.0,1450.0,1915.0,1304.0,430.0,160.0,858.0,1676.0,2257.0,1337.0,480.0,122.0,476.0,1085.0,1785.0,952.0,326.0,274.0,954.0,1584.0,2556.0,1564.0,490.0,215.0,1066.0,1671.0,2672.0,1433.0,449.0,259.0,1060.0,1400.0,2323.0,1557.0
105,40 ST LOWERY ST,40.7438729,-73.92423409999998,447.0,1874.0,2763.0,3300.0,2148.0,813.0,315.0,1586.0,2530.0,2830.0,1757.0,525.0,485.0,2442.0,2708.0,3147.0,1645.0,520.0,219.0,778.0,1437.0,1740.0,1271.0,392.0,566.0,3282.0,2781.0,4171.0,2348.0,596.0,718.0,3924.0,3029.0,4580.0,2413.0,795.0,724.0,3478.0,2791.0,4254.0,2345.0
106,CASTLE HILL AV,40.83429599999999,-73.85168399999998,609.0,1496.0,1879.0,2316.0,1500.0,721.0,459.0,1214.0,1471.0,1853.0,1231.0,584.0,838.0,2053.0,1850.0,2523.0,1268.0,515.0,294.0,648.0,1076.0,1468.0,850.0,451.0,1050.0,2294.0,1851.0,3234.0,1733.0,710.0,1119.0,2536.0,2056.0,3441.0,1759.0,751.0,1076.0,2375.0,1882.0,3083.0,1597.0
107,HALSEY ST,40.69577750000001,-73.9044092,477.0,1576.0,2005.0,2081.0,1507.0,668.0,401.0,1183.0,1616.0,1776.0,1205.0,421.0,658.0,1818.0,1571.0,1821.0,969.0,393.0,200.0,581.0,1015.0,1122.0,778.0,269.0,898.0,2290.0,1619.0,2480.0,1402.0,240.0,947.0,2743.0,1793.0,2695.0,1642.0,291.0,919.0,2625.0,1698.0,2685.0,1589.0
108,CLARK ST,40.6974878,-73.99314090000001,80.0,607.0,1716.0,1727.0,947.0,234.0,56.0,612.0,1585.0,1806.0,768.0,115.0,115.0,758.0,1178.0,1302.0,579.0,179.0,29.0,406.0,1174.0,1359.0,489.0,95.0,133.0,907.0,1408.0,2051.0,514.0,0.0,145.0,1276.0,1827.0,2512.0,726.0,0.0,144.0,1055.0,1280.0,1649.0,850.0
109,SUTTER AV-RUTLD,40.664992100000006,-73.92290849999998,499.0,1482.0,2145.0,2402.0,1503.0,620.0,419.0,1094.0,1609.0,1752.0,1198.0,472.0,726.0,2257.0,2481.0,2998.0,1427.0,470.0,279.0,733.0,1052.0,1400.0,974.0,395.0,822.0,2186.0,2035.0,3092.0,1615.0,517.0,955.0,2542.0,2246.0,3528.0,1776.0,560.0,918.0,2398.0,2167.0,3151.0,1661.0
110,EASTN PKWY-MUSM,40.671993799999996,-73.96420649999999,122.0,722.0,1878.0,2028.0,826.0,297.0,98.0,505.0,1383.0,1678.0,564.0,165.0,147.0,804.0,1117.0,1133.0,488.0,175.0,54.0,192.0,463.0,548.0,371.0,139.0,162.0,1027.0,1479.0,2013.0,777.0,209.0,154.0,1288.0,1785.0,2614.0,1171.0,238.0,181.0,1298.0,1684.0,2308.0,797.0
111,BAY RIDGE AV,40.634968,-74.023376,418.0,1647.0,2331.0,2581.0,1766.0,609.0,316.0,1311.0,1995.0,2246.0,1635.0,492.0,554.0,2094.0,2434.0,2851.0,1417.0,438.0,258.0,719.0,1340.0,1721.0,1209.0,310.0,664.0,2669.0,2282.0,3816.0,2167.0,513.0,730.0,3006.0,2371.0,3812.0,2147.0,510.0,744.0,2764.0,2211.0,3501.0,2016.0
112,OZONE PK LEFFRT,40.685956700000006,-73.8257601,678.0,1531.0,1634.0,1936.0,1226.0,550.0,482.0,1129.0,1302.0,1610.0,1150.0,420.0,1244.0,2232.0,1934.0,2540.0,1318.0,413.0,360.0,659.0,893.0,1203.0,782.0,310.0,1460.0,2637.0,1727.0,2993.0,1635.0,472.0,1800.0,3057.0,1789.0,3391.0,1820.0,448.0,1600.0,2753.0,1675.0,3112.0,1471.0
113,JEFFERSON ST,40.7065868,-73.922872,380.0,983.0,1736.0,1724.0,1051.0,661.0,278.0,726.0,1460.0,1371.0,755.0,286.0,313.0,1149.0,1407.0,1286.0,660.0,287.0,134.0,360.0,844.0,852.0,,,478.0,1412.0,1313.0,1862.0,828.0,205.0,520.0,1659.0,1528.0,2055.0,979.0,359.0,579.0,1582.0,1465.0,2005.0,1260.0
114,MORISN AV/SNDVW,40.8294898,-73.8746754,641.0,1630.0,1749.0,2028.0,1354.0,652.0,473.0,1188.0,1587.0,1723.0,1134.0,627.0,866.0,1916.0,1792.0,2130.0,1229.0,556.0,330.0,696.0,1043.0,1330.0,842.0,358.0,1163.0,2192.0,1756.0,2418.0,1446.0,738.0,1237.0,2363.0,1754.0,2590.0,1502.0,708.0,1187.0,2191.0,1686.0,2318.0,1491.0
115,207 ST,40.8676635,-73.9212009,403.0,1393.0,1834.0,1979.0,1157.0,473.0,306.0,1034.0,1723.0,1799.0,1140.0,293.0,511.0,1515.0,1668.0,1810.0,910.0,274.0,176.0,516.0,875.0,1051.0,612.0,202.0,590.0,1706.0,1578.0,2107.0,1083.0,288.0,627.0,1922.0,1670.0,2254.0,1224.0,349.0,568.0,1676.0,1480.0,1993.0,1198.0
116,EUCLID AV,40.6754013,-73.8719033,692.0,2071.0,2071.0,1968.0,1192.0,490.0,522.0,1608.0,1866.0,1794.0,1067.0,356.0,1094.0,2979.0,2218.0,2249.0,1204.0,369.0,401.0,1007.0,1252.0,1536.0,998.0,305.0,1242.0,3153.0,2239.0,2650.0,1302.0,356.0,1289.0,3565.0,2371.0,2617.0,1352.0,398.0,1208.0,3299.0,2279.0,2535.0,1250.0
117,GRAND ARMY PLAZ,40.6752403,-73.97104159999998,94.0,837.0,1827.0,1672.0,803.0,226.0,90.0,657.0,1452.0,1278.0,610.0,124.0,127.0,1113.0,1304.0,1283.0,462.0,106.0,37.0,299.0,709.0,617.0,404.0,86.0,121.0,1372.0,1242.0,1737.0,649.0,109.0,151.0,1714.0,1653.0,2092.0,821.0,173.0,123.0,1577.0,1409.0,1790.0,737.0
118,PARSONS BLVD,40.707714,-73.8028238,689.0,1605.0,1759.0,2137.0,1159.0,651.0,513.0,1167.0,1542.0,1753.0,1208.0,597.0,824.0,1971.0,1847.0,2498.0,1384.0,458.0,341.0,648.0,1070.0,1334.0,980.0,319.0,1051.0,2272.0,1824.0,3124.0,1801.0,561.0,1225.0,2624.0,1934.0,3571.0,1752.0,589.0,1090.0,2457.0,1801.0,3040.0,1319.0
119,231 ST,40.87899229999999,-73.904939,424.0,1653.0,2298.0,2313.0,1155.0,327.0,330.0,1377.0,2170.0,2026.0,1050.0,251.0,747.0,2413.0,2086.0,2081.0,842.0,272.0,234.0,688.0,1195.0,1247.0,764.0,182.0,982.0,3059.0,2389.0,2588.0,1135.0,217.0,1096.0,3397.0,2358.0,2895.0,1228.0,242.0,995.0,3058.0,2056.0,2377.0,1158.0
120,SMITH-9 ST,40.6746048,-73.99703970000002,239.0,1227.0,1528.0,1464.0,900.0,297.0,158.0,690.0,1193.0,1316.0,748.0,215.0,443.0,1710.0,1727.0,1654.0,636.0,216.0,102.0,445.0,616.0,769.0,534.0,179.0,490.0,1860.0,1554.0,2259.0,929.0,270.0,540.0,2083.0,1861.0,2531.0,1131.0,290.0,504.0,2030.0,,2212.0,
121,4 AV-9 ST,40.6701803,-73.98929150000002,114.0,594.0,1085.0,1348.0,774.0,322.0,105.0,473.0,908.0,1029.0,612.0,201.0,214.0,787.0,1014.0,1257.0,456.0,155.0,67.0,256.0,386.0,569.0,319.0,145.0,246.0,1097.0,992.0,1776.0,802.0,276.0,279.0,1327.0,1167.0,2105.0,1105.0,355.0,316.0,1295.0,1230.0,1819.0,1074.0
122,67 AV,40.7263823,-73.8515929,264.0,1463.0,1863.0,1877.0,1178.0,389.0,157.0,1219.0,1797.0,1603.0,894.0,277.0,463.0,2602.0,1921.0,2207.0,868.0,210.0,142.0,620.0,950.0,1018.0,622.0,152.0,562.0,3428.0,1860.0,2505.0,1254.0,229.0,599.0,3752.0,1845.0,2724.0,1352.0,256.0,568.0,3384.0,1767.0,2422.0,1039.0
123,ROCKAWAY AV,40.6625632,-73.9089054,346.0,1081.0,1420.0,1694.0,993.0,551.0,266.0,893.0,1155.0,1356.0,908.0,396.0,540.0,1708.0,1651.0,2097.0,1124.0,413.0,200.0,663.0,934.0,1163.0,806.0,343.0,579.0,1749.0,1578.0,2317.0,1272.0,504.0,659.0,1981.0,1777.0,2493.0,1352.0,458.0,651.0,1855.0,1545.0,2250.0,1267.0
124,PELHAM BAY PARK,40.852930799999996,-73.8270555,412.0,1094.0,1492.0,1989.0,1108.0,501.0,286.0,947.0,1413.0,1796.0,1089.0,410.0,839.0,1985.0,1626.0,1954.0,938.0,324.0,237.0,526.0,919.0,978.0,598.0,235.0,947.0,2354.0,1670.0,2461.0,1169.0,424.0,1099.0,2675.0,1712.0,2408.0,1256.0,380.0,992.0,2522.0,1415.0,2166.0,1157.0
125,CLASSON AV,40.688873,-73.96007,138.0,824.0,1286.0,1299.0,886.0,307.0,101.0,590.0,975.0,1082.0,690.0,203.0,256.0,1068.0,1334.0,1537.0,719.0,238.0,92.0,399.0,703.0,875.0,670.0,226.0,265.0,1396.0,1168.0,1837.0,1247.0,286.0,320.0,1652.0,1364.0,2243.0,1275.0,352.0,292.0,1560.0,1399.0,2079.0,1285.0
126,NEW LOTS AV,40.6663015,-73.88371579999998,520.0,1160.0,1468.0,1688.0,1223.0,630.0,449.0,991.0,1201.0,1465.0,981.0,580.0,818.0,1892.0,1900.0,2239.0,1347.0,531.0,315.0,714.0,980.0,1361.0,917.0,476.0,951.0,1981.0,1715.0,2563.0,1397.0,713.0,1074.0,2330.0,1768.0,2705.0,1555.0,649.0,990.0,2055.0,1644.0,2419.0,1391.0
127,GRANT AV,40.6768777,-73.86534619999998,501.0,1431.0,1638.0,1829.0,1199.0,554.0,377.0,1080.0,1324.0,1523.0,1008.0,472.0,661.0,1972.0,1767.0,2196.0,1141.0,441.0,318.0,717.0,1049.0,1361.0,827.0,408.0,785.0,2226.0,1723.0,2517.0,1317.0,590.0,851.0,2424.0,1873.0,2746.0,1446.0,556.0,803.0,2210.0,1628.0,2423.0,1253.0
128,STERLING ST,40.6632908,-73.951044,200.0,1132.0,1529.0,1469.0,984.0,306.0,172.0,840.0,1334.0,1297.0,681.0,174.0,315.0,1595.0,1303.0,1755.0,740.0,230.0,127.0,471.0,706.0,889.0,553.0,185.0,381.0,1709.0,1453.0,1877.0,878.0,218.0,414.0,1996.0,1606.0,2068.0,1081.0,217.0,364.0,1948.0,1678.0,1868.0,997.0
129,PROSPECT AV,40.66541369999999,-73.99292590000002,217.0,960.0,1335.0,1564.0,834.0,370.0,138.0,654.0,1159.0,1189.0,685.0,259.0,343.0,1244.0,1308.0,1347.0,577.0,225.0,74.0,267.0,536.0,621.0,406.0,156.0,386.0,1595.0,1241.0,2062.0,870.0,270.0,379.0,1942.0,1343.0,2234.0,1038.0,301.0,354.0,1889.0,1428.0,2162.0,1011.0
130,18 ST,40.74122390000001,-73.9980319,149.0,742.0,2195.0,2516.0,1266.0,358.0,125.0,466.0,1551.0,2033.0,888.0,177.0,147.0,966.0,1886.0,2066.0,640.0,188.0,55.0,222.0,498.0,557.0,396.0,97.0,170.0,1292.0,1950.0,3274.0,1365.0,215.0,186.0,1678.0,2397.0,4013.0,1625.0,324.0,204.0,1659.0,2445.0,3473.0,1508.0
131,SARATOGA AV,40.669094,-73.91828199999998,357.0,1122.0,1230.0,1586.0,1083.0,483.0,281.0,875.0,1032.0,1340.0,1063.0,399.0,618.0,1861.0,1592.0,1781.0,1143.0,476.0,201.0,578.0,690.0,957.0,701.0,319.0,806.0,1747.0,1308.0,2259.0,1317.0,405.0,666.0,1032.0,1554.0,2438.0,1380.0,433.0,863.0,1979.0,1464.0,2264.0,1296.0
132,WILSON AV,40.6887823,-73.90467240000001,304.0,966.0,1394.0,,,524.0,234.0,747.0,1123.0,1252.0,939.0,351.0,325.0,1125.0,1228.0,1568.0,846.0,316.0,100.0,398.0,715.0,936.0,628.0,294.0,400.0,1272.0,1102.0,1746.0,1181.0,252.0,403.0,1487.0,1190.0,1950.0,1275.0,279.0,429.0,1381.0,1223.0,1766.0,1212.0
133,V.CORTLANDT PK,40.89642429999999,-73.8852842,421.0,1354.0,1723.0,1602.0,1102.0,485.0,310.0,1074.0,1405.0,1352.0,899.0,318.0,739.0,1757.0,1398.0,1558.0,863.0,274.0,190.0,460.0,892.0,1064.0,639.0,167.0,1127.0,2426.0,1688.0,2277.0,1057.0,353.0,1182.0,2848.0,1734.0,2335.0,1085.0,348.0,1081.0,2523.0,1521.0,2037.0,1033.0
134,WESTCHESTER SQ,40.840124700000004,-73.84282579999999,399.0,1122.0,1427.0,1555.0,877.0,462.0,315.0,812.0,1156.0,1231.0,889.0,359.0,614.0,1878.0,1723.0,1932.0,775.0,282.0,211.0,495.0,784.0,848.0,531.0,236.0,745.0,2150.0,1749.0,2645.0,1222.0,413.0,827.0,2432.0,1953.0,2929.0,1303.0,404.0,776.0,2339.0,1710.0,2630.0,1124.0
135,FAR ROCKAWAY,40.6077527,-73.7517548,554.0,1060.0,1099.0,1445.0,943.0,479.0,453.0,850.0,1041.0,1135.0,844.0,404.0,749.0,1517.0,1386.0,1927.0,995.0,350.0,323.0,640.0,878.0,1133.0,820.0,366.0,927.0,1716.0,1403.0,2186.0,1116.0,442.0,966.0,1887.0,1416.0,2439.0,1217.0,468.0,879.0,1790.0,1428.0,2021.0,1114.0
136,WOODLAWN,40.88603699999999,-73.878751,401.0,876.0,1135.0,1407.0,720.0,314.0,287.0,645.0,994.0,1128.0,735.0,270.0,730.0,1259.0,1165.0,1324.0,735.0,264.0,198.0,321.0,584.0,719.0,486.0,174.0,1014.0,1554.0,1278.0,1742.0,890.0,325.0,1217.0,1924.0,1357.0,1991.0,979.0,327.0,1027.0,1720.0,1117.0,1643.0,898.0
137,CORTELYOU RD,40.6412697,-73.9639694,282.0,1154.0,1596.0,1356.0,693.0,239.0,223.0,1032.0,1492.0,1226.0,661.0,200.0,419.0,1586.0,1406.0,1284.0,652.0,154.0,163.0,576.0,879.0,915.0,502.0,150.0,494.0,1736.0,1332.0,1397.0,756.0,179.0,525.0,2097.0,1488.0,1407.0,738.0,199.0,476.0,1925.0,1373.0,1316.0,764.0
138,BERGEN ST,40.686083200000006,-73.9909074,75.0,571.0,1205.0,1381.0,723.0,321.0,79.0,423.0,976.0,1105.0,657.0,180.0,97.0,774.0,844.0,881.0,356.0,107.0,30.0,202.0,414.0,457.0,291.0,87.0,94.0,932.0,819.0,1232.0,736.0,178.0,110.0,1153.0,987.0,1496.0,704.0,158.0,107.0,1091.0,992.0,1401.0,865.0
139,BEDFORD PK BLVD,40.8732636,-73.8871965,404.0,972.0,1187.0,1162.0,782.0,315.0,273.0,760.0,985.0,1050.0,619.0,263.0,546.0,1130.0,1010.0,1208.0,701.0,259.0,171.0,405.0,626.0,793.0,401.0,207.0,731.0,1415.0,1280.0,1663.0,901.0,319.0,797.0,1534.0,1383.0,1829.0,962.0,370.0,732.0,1362.0,1194.0,1451.0,982.0
140,HARLEM 148 ST,40.8240504,-73.9369385,223.0,827.0,1172.0,1417.0,914.0,363.0,173.0,682.0,896.0,1137.0,777.0,288.0,305.0,1184.0,1155.0,1361.0,660.0,207.0,147.0,350.0,649.0,734.0,558.0,275.0,329.0,1233.0,1037.0,1484.0,961.0,216.0,368.0,1318.0,1019.0,1629.0,913.0,230.0,357.0,1294.0,1088.0,1481.0,924.0
141,BAY RIDGE-95 ST,40.6167174,-74.0308527,238.0,1015.0,1294.0,1367.0,830.0,305.0,182.0,852.0,1095.0,1050.0,716.0,259.0,394.0,1499.0,1243.0,1485.0,648.0,213.0,114.0,399.0,734.0,772.0,454.0,135.0,570.0,1970.0,1377.0,1920.0,890.0,258.0,616.0,2456.0,1519.0,2196.0,1039.0,377.0,554.0,2235.0,1240.0,1963.0,917.0
142,CLINTON-WASH AV,40.683498900000004,-73.9668944,155.0,1164.0,1835.0,1890.0,1057.0,442.0,146.0,832.0,1466.0,1370.0,844.0,210.0,224.0,1499.0,1495.0,1521.0,616.0,248.0,84.0,339.0,701.0,779.0,488.0,185.0,223.0,1751.0,1422.0,2412.0,1087.0,340.0,268.0,2350.0,1832.0,2500.0,1275.0,315.0,275.0,2286.0,1871.0,2451.0,1200.0
143,KINGSTON-THROOP,40.679826500000004,-73.94112940000001,346.0,1301.0,2034.0,2154.0,1425.0,760.0,299.0,1169.0,1833.0,1746.0,1219.0,513.0,435.0,1685.0,1968.0,2027.0,1128.0,529.0,172.0,587.0,1098.0,1269.0,947.0,434.0,414.0,1894.0,1750.0,2365.0,1313.0,673.0,524.0,2294.0,2017.0,2675.0,1465.0,137.0,351.0,2117.0,2178.0,2410.0,1456.0
144,ST LAWRENCE AV,40.8315326,-73.8672593,453.0,1038.0,1158.0,1447.0,1023.0,553.0,337.0,851.0,965.0,1177.0,829.0,491.0,546.0,1233.0,1199.0,1425.0,884.0,389.0,240.0,423.0,773.0,939.0,677.0,334.0,726.0,1450.0,1162.0,1716.0,1011.0,492.0,842.0,1579.0,1229.0,1867.0,985.0,536.0,796.0,1503.0,1239.0,1754.0,984.0
145,176 ST,40.8484597,-73.9117411,493.0,1364.0,1578.0,1517.0,962.0,459.0,399.0,982.0,1320.0,1429.0,822.0,302.0,685.0,1707.0,1503.0,1743.0,1007.0,358.0,256.0,639.0,1002.0,1168.0,755.0,302.0,846.0,1798.0,1229.0,1976.0,1047.0,345.0,896.0,2102.0,1511.0,2019.0,1127.0,367.0,814.0,1959.0,1452.0,1894.0,1095.0
146,FULTON ST,40.709893,-74.0079818,95.0,513.0,1280.0,1475.0,805.0,200.0,76.0,407.0,1036.0,1229.0,623.0,135.0,179.0,950.0,1358.0,1617.0,549.0,149.0,35.0,215.0,461.0,622.0,408.0,108.0,222.0,1152.0,1125.0,2252.0,1241.0,295.0,252.0,1200.0,1381.0,2331.0,1230.0,265.0,228.0,1233.0,1414.0,2424.0,1434.0
147,AVENUE J,40.6252684,-73.9607296,241.0,1014.0,1202.0,1295.0,723.0,219.0,183.0,1093.0,1487.0,1492.0,773.0,188.0,397.0,2069.0,1562.0,2127.0,772.0,185.0,173.0,886.0,1005.0,1352.0,698.0,154.0,475.0,2362.0,1588.0,2383.0,1087.0,139.0,483.0,2435.0,1678.0,2362.0,1099.0,210.0,442.0,2229.0,1663.0,1810.0,766.0
148,183 ST,40.8583924,-73.90397810000002,569.0,1267.0,1452.0,1317.0,961.0,351.0,376.0,980.0,1211.0,1370.0,821.0,306.0,704.0,1614.0,1480.0,1535.0,956.0,360.0,290.0,637.0,872.0,1031.0,658.0,264.0,891.0,1737.0,1359.0,1884.0,994.0,354.0,1003.0,1967.0,1466.0,1951.0,1047.0,364.0,919.0,1880.0,1409.0,1758.0,1052.0
149,18 AV,40.6201053,-73.9894661,484.0,1928.0,2127.0,2210.0,1435.0,423.0,332.0,1790.0,2121.0,2160.0,1489.0,248.0,828.0,3141.0,2376.0,2914.0,1498.0,307.0,246.0,1280.0,1525.0,2078.0,1129.0,171.0,1068.0,3921.0,2345.0,3531.0,1469.0,309.0,1153.0,4095.0,2239.0,3704.0,1524.0,374.0,1105.0,3847.0,2293.0,3000.0,1148.0
150,KINGSTON AV,40.669284499999996,-73.9422927,175.0,721.0,1030.0,1138.0,923.0,417.0,157.0,815.0,1244.0,1440.0,883.0,303.0,266.0,1519.0,1489.0,1796.0,886.0,288.0,163.0,631.0,960.0,1043.0,736.0,279.0,300.0,1590.0,1469.0,1967.0,1081.0,375.0,335.0,1844.0,1682.0,2209.0,1216.0,355.0,324.0,1810.0,1966.0,1695.0,772.0
151,BEVERLEY ROAD,40.644229100000004,-73.96449799999998,193.0,632.0,924.0,1191.0,774.0,352.0,166.0,558.0,898.0,1218.0,853.0,250.0,226.0,902.0,935.0,1060.0,659.0,217.0,116.0,301.0,478.0,659.0,471.0,210.0,238.0,1024.0,,,,,,,,,,,,,,,
152,71 ST,40.619621200000005,-73.99877699999998,320.0,1445.0,1317.0,1316.0,772.0,169.0,232.0,1222.0,1210.0,1172.0,773.0,115.0,498.0,1879.0,1211.0,1367.0,769.0,174.0,164.0,781.0,902.0,1056.0,755.0,105.0,710.0,2292.0,1182.0,1566.0,907.0,176.0,762.0,2369.0,751.0,1516.0,914.0,188.0,703.0,2265.0,972.0,1370.0,733.0
153,ST. GEORGE,40.64400390000001,-74.07332480000001,318.0,755.0,922.0,1291.0,946.0,426.0,243.0,580.0,1060.0,1052.0,742.0,318.0,765.0,1691.0,1550.0,2112.0,689.0,207.0,131.0,340.0,752.0,703.0,511.0,177.0,1017.0,2786.0,1439.0,3733.0,1318.0,370.0,1197.0,3165.0,1793.0,4105.0,1586.0,412.0,1060.0,2761.0,1300.0,3421.0,1172.0
154,MT EDEN AV,40.844528499999996,-73.9146157,515.0,1328.0,1466.0,1559.0,1026.0,444.0,375.0,1030.0,1277.0,1385.0,887.0,338.0,690.0,1714.0,1497.0,1766.0,960.0,388.0,244.0,686.0,894.0,1072.0,795.0,287.0,855.0,1900.0,1274.0,2186.0,1048.0,393.0,926.0,2166.0,1585.0,2124.0,1077.0,429.0,825.0,1877.0,1335.0,1781.0,1031.0
155,MARBLE HILL-225,40.8743487,-73.91043309999998,260.0,939.0,1300.0,1490.0,861.0,247.0,159.0,760.0,1299.0,1513.0,842.0,149.0,431.0,1204.0,1194.0,1363.0,622.0,162.0,152.0,330.0,658.0,696.0,418.0,117.0,513.0,1397.0,1167.0,1190.0,503.0,100.0,535.0,1606.0,1239.0,1563.0,778.0,179.0,528.0,1425.0,1019.0,1326.0,697.0
156,174-175 STS,40.846524,-73.90972690000001,0.0,54.0,,28.0,10.0,3.0,6.0,49.0,51.0,30.0,22.0,12.0,10.0,42.0,59.0,1.0,0.0,0.0,0.0,0.0,0.0,0.0,0.0,0.0,36.0,123.0,161.0,67.0,283.0,247.0,144.0,601.0,706.0,1122.0,601.0,295.0,386.0,1039.0,951.0,1272.0,597.0
157,33 ST-RAWSON ST,40.744587,-73.93099699999998,262.0,807.0,917.0,1077.0,436.0,229.0,268.0,479.0,779.0,983.0,441.0,192.0,534.0,1566.0,1542.0,1422.0,324.0,115.0,79.0,181.0,238.0,371.0,223.0,153.0,722.0,2538.0,1887.0,3555.0,789.0,253.0,751.0,2979.0,2142.0,3978.0,999.0,249.0,774.0,2732.0,2057.0,3449.0,782.0
158,CITY HALL,40.7135245,-74.00671009999998,40.0,381.0,905.0,1115.0,377.0,119.0,57.0,298.0,927.0,947.0,354.0,87.0,101.0,896.0,1412.0,1498.0,304.0,65.0,15.0,228.0,634.0,645.0,241.0,46.0,162.0,1198.0,1564.0,2732.0,618.0,109.0,186.0,1497.0,1992.0,3271.0,660.0,117.0,163.0,1310.0,1565.0,2352.0,564.0
159,182-183 STS,40.8560934,-73.90102949999998,390.0,1038.0,1139.0,1235.0,691.0,300.0,292.0,810.0,938.0,1016.0,641.0,296.0,532.0,1215.0,1002.0,1097.0,643.0,312.0,225.0,470.0,735.0,889.0,579.0,217.0,680.0,1315.0,1080.0,1318.0,,293.0,,1555.0,1151.0,1374.0,687.0,304.0,679.0,1088.0,753.0,1212.0,695.0
160,PRESIDENT ST,40.668158500000004,-73.95065859999998,151.0,650.0,958.0,1157.0,733.0,289.0,127.0,506.0,837.0,884.0,521.0,244.0,241.0,1044.0,866.0,1350.0,626.0,243.0,81.0,327.0,455.0,639.0,451.0,150.0,225.0,1149.0,1022.0,1581.0,801.0,151.0,256.0,1366.0,1172.0,1809.0,973.0,190.0,209.0,1284.0,1192.0,1618.0,766.0
161,77 ST,40.7736346,-73.95982939999998,201.0,936.0,1184.0,1156.0,699.0,217.0,114.0,708.0,1057.0,922.0,585.0,157.0,336.0,1309.0,1125.0,1089.0,560.0,163.0,103.0,351.0,630.0,645.0,467.0,107.0,442.0,1797.0,1152.0,1441.0,669.0,151.0,531.0,2091.0,1297.0,1614.0,784.0,151.0,476.0,1901.0,1154.0,1578.0,680.0
162,GUN HILL RD,40.87773920000001,-73.86630459999998,288.0,745.0,825.0,740.0,448.0,154.0,203.0,523.0,633.0,638.0,366.0,147.0,720.0,1381.0,950.0,882.0,419.0,135.0,157.0,343.0,527.0,542.0,380.0,100.0,892.0,1590.0,1053.0,952.0,505.0,135.0,977.0,1889.0,1239.0,1136.0,544.0,143.0,890.0,1677.0,984.0,1014.0,517.0
163,79 ST,40.783934,-73.979917,307.0,1513.0,1209.0,1352.0,1420.0,188.0,214.0,1314.0,962.0,1354.0,1318.0,177.0,525.0,2101.0,1215.0,1538.0,1313.0,217.0,175.0,855.0,951.0,1512.0,1430.0,122.0,764.0,2557.0,1253.0,1541.0,1049.0,150.0,802.0,2585.0,1019.0,1626.0,1132.0,164.0,739.0,2447.0,1075.0,1222.0,703.0
164,190 ST,40.858887700000004,-73.93422159999999,111.0,722.0,1158.0,947.0,427.0,146.0,96.0,559.0,1121.0,870.0,362.0,92.0,182.0,884.0,869.0,844.0,361.0,123.0,77.0,265.0,543.0,558.0,278.0,71.0,253.0,1198.0,901.0,976.0,382.0,103.0,276.0,1377.0,1130.0,1169.0,,,,,,,
165,20 AV,40.617271,-73.9847709,267.0,1057.0,1097.0,1109.0,547.0,86.0,192.0,975.0,1125.0,1043.0,516.0,70.0,478.0,1563.0,1132.0,1212.0,614.0,108.0,135.0,640.0,915.0,912.0,476.0,69.0,614.0,1909.0,1107.0,1447.0,699.0,115.0,662.0,1793.0,781.0,1431.0,722.0,112.0,639.0,1840.0,884.0,1290.0,647.0
166,25 ST,40.6604039,-73.99810550000001,172.0,715.0,1072.0,1027.0,641.0,270.0,139.0,572.0,853.0,891.0,564.0,211.0,287.0,991.0,1004.0,1036.0,502.0,235.0,94.0,354.0,568.0,575.0,357.0,159.0,333.0,1222.0,977.0,1472.0,720.0,220.0,353.0,1419.0,1043.0,911.0,326.0,62.0,219.0,1004.0,636.0,834.0,308.0
167,BRIARWOOD,40.7093666,-73.81988539999998,225.0,819.0,1094.0,1187.0,661.0,259.0,193.0,681.0,1049.0,954.0,658.0,219.0,450.0,1372.0,1165.0,1352.0,587.0,183.0,141.0,400.0,631.0,750.0,461.0,132.0,549.0,1834.0,1121.0,1591.0,876.0,212.0,631.0,1988.0,1242.0,1735.0,881.0,264.0,542.0,1802.0,1071.0,1431.0,790.0
168,AQUEDUCT RACETR,40.6721498,-73.8356843,,,,,,,,,,,,,,,,,,,,,,,,,,,,,,,,,,,,,,,,,
169,PENNSYLVANIA AV,40.6646911,-73.8941747,220.0,645.0,771.0,1043.0,716.0,287.0,203.0,592.0,789.0,850.0,550.0,223.0,415.0,1126.0,1092.0,1249.0,603.0,227.0,109.0,390.0,560.0,684.0,468.0,195.0,511.0,1166.0,1068.0,1323.0,725.0,221.0,536.0,1327.0,1131.0,1436.0,737.0,198.0,539.0,1297.0,1002.0,1268.0,682.0
170,AVENUE M,40.6180725,-73.9593745,163.0,825.0,924.0,977.0,558.0,137.0,117.0,859.0,1284.0,1249.0,557.0,110.0,332.0,1873.0,1435.0,1732.0,647.0,106.0,120.0,737.0,907.0,1066.0,512.0,81.0,404.0,2117.0,1274.0,2066.0,778.0,104.0,406.0,2225.0,1422.0,2043.0,871.0,115.0,382.0,2020.0,1432.0,1562.0,524.0
171,OCEAN PKWY,40.5762935,-73.9684997,118.0,587.0,868.0,832.0,371.0,125.0,98.0,542.0,889.0,806.0,426.0,88.0,224.0,965.0,887.0,963.0,337.0,101.0,95.0,418.0,690.0,729.0,345.0,94.0,294.0,1181.0,918.0,1150.0,529.0,89.0,269.0,1191.0,1032.0,1328.0,528.0,93.0,276.0,1073.0,797.0,986.0,426.0
172,AVENUE H,40.6297445,-73.96166170000001,142.0,540.0,780.0,887.0,526.0,181.0,99.0,515.0,744.0,714.0,491.0,149.0,208.0,901.0,790.0,904.0,468.0,156.0,96.0,359.0,502.0,577.0,397.0,146.0,234.0,1015.0,781.0,1064.0,634.0,155.0,249.0,1120.0,795.0,1048.0,726.0,137.0,239.0,1045.0,797.0,1077.0,513.0
173,JUNIUS ST,40.67504,-73.904496,129.0,549.0,603.0,705.0,511.0,263.0,106.0,424.0,512.0,716.0,470.0,169.0,210.0,798.0,803.0,887.0,523.0,151.0,66.0,295.0,411.0,550.0,308.0,122.0,262.0,802.0,712.0,1025.0,565.0,199.0,245.0,960.0,710.0,1168.0,609.0,199.0,252.0,949.0,727.0,1042.0,563.0
174,NECK RD,40.595153100000005,-73.9550266,196.0,934.0,881.0,875.0,430.0,122.0,162.0,766.0,870.0,782.0,400.0,108.0,359.0,1416.0,832.0,1068.0,401.0,98.0,136.0,586.0,598.0,647.0,388.0,71.0,403.0,1898.0,860.0,1269.0,586.0,105.0,441.0,2005.0,892.0,988.0,601.0,111.0,416.0,1795.0,774.0,1166.0,474.0
175,VAN SICLEN AV,40.67274219999999,-73.8903155,221.0,601.0,739.0,920.0,695.0,266.0,179.0,494.0,633.0,767.0,563.0,241.0,321.0,958.0,856.0,1245.0,605.0,237.0,137.0,339.0,478.0,697.0,430.0,221.0,417.0,1026.0,885.0,1368.0,651.0,285.0,493.0,1142.0,888.0,1319.0,737.0,271.0,431.0,1100.0,863.0,1205.0,737.0
176,138/GRAND CONC,40.8132249,-73.9298111,345.0,689.0,632.0,744.0,425.0,215.0,271.0,322.0,464.0,581.0,421.0,173.0,430.0,946.0,813.0,892.0,378.0,149.0,105.0,219.0,318.0,410.0,279.0,113.0,576.0,1077.0,893.0,1260.0,531.0,231.0,632.0,1172.0,1008.0,1533.0,581.0,233.0,635.0,1108.0,960.0,1249.0,572.0
177,BEVERLY RD,40.8322067,-73.3848891,225.0,695.0,847.0,824.0,454.0,148.0,202.0,528.0,735.0,720.0,406.0,102.0,382.0,1160.0,861.0,827.0,453.0,75.0,135.0,288.0,466.0,469.0,306.0,79.0,458.0,1254.0,848.0,882.0,,,471.0,1348.0,946.0,901.0,477.0,108.0,464.0,1402.0,871.0,865.0,474.0
178,75 AV,40.718331,-73.837324,57.0,464.0,794.0,687.0,386.0,125.0,54.0,375.0,783.0,640.0,341.0,80.0,139.0,881.0,694.0,752.0,304.0,135.0,46.0,226.0,445.0,443.0,248.0,56.0,146.0,1160.0,714.0,859.0,393.0,70.0,172.0,1319.0,831.0,1048.0,451.0,76.0,188.0,1295.0,787.0,837.0,411.0
179,BUSHWICK AV,40.7002958,-73.94116439999998,135.0,427.0,664.0,638.0,492.0,218.0,115.0,327.0,550.0,564.0,430.0,123.0,161.0,482.0,547.0,579.0,381.0,119.0,71.0,169.0,345.0,346.0,295.0,98.0,184.0,592.0,514.0,718.0,502.0,76.0,186.0,669.0,584.0,774.0,493.0,123.0,182.0,674.0,539.0,762.0,550.0
180,BEACH 67 ST,40.5909714,-73.79631690000001,240.0,495.0,591.0,596.0,415.0,212.0,166.0,375.0,486.0,519.0,339.0,158.0,309.0,556.0,617.0,682.0,384.0,144.0,130.0,263.0,438.0,481.0,395.0,145.0,388.0,,,782.0,393.0,179.0,458.0,781.0,652.0,829.0,442.0,198.0,439.0,749.0,576.0,764.0,415.0
181,WHITLOCK AV,40.82674420000001,-73.88634559999998,206.0,436.0,504.0,685.0,450.0,260.0,147.0,341.0,418.0,571.0,395.0,199.0,272.0,638.0,530.0,714.0,390.0,189.0,114.0,292.0,293.0,422.0,341.0,163.0,312.0,661.0,486.0,873.0,448.0,239.0,324.0,781.0,570.0,927.0,464.0,231.0,299.0,692.0,511.0,782.0,502.0
182,W 8 ST-AQUARIUM,40.57612779999999,-73.97596539999998,38.0,325.0,577.0,495.0,187.0,64.0,37.0,287.0,578.0,462.0,168.0,38.0,126.0,738.0,885.0,611.0,173.0,45.0,40.0,280.0,553.0,439.0,139.0,42.0,177.0,897.0,1094.0,1009.0,271.0,42.0,171.0,907.0,1185.0,1100.0,238.0,41.0,157.0,842.0,958.0,727.0,228.0
183,PARK PLACE,40.7132422,-74.0092559,55.0,155.0,484.0,506.0,195.0,70.0,38.0,158.0,375.0,510.0,218.0,33.0,92.0,653.0,716.0,747.0,153.0,35.0,30.0,112.0,297.0,495.0,117.0,34.0,129.0,914.0,626.0,1383.0,306.0,12.0,136.0,1112.0,846.0,1757.0,363.0,5.0,129.0,936.0,776.0,1279.0,353.0
184,215 ST,40.8695946,-73.9153019,59.0,233.0,416.0,482.0,220.0,92.0,48.0,196.0,311.0,274.0,163.0,57.0,73.0,291.0,393.0,441.0,192.0,74.0,41.0,90.0,159.0,230.0,149.0,53.0,88.0,369.0,399.0,504.0,218.0,62.0,102.0,437.0,446.0,559.0,225.0,59.0,81.0,385.0,421.0,467.0,217.0
185,HOWARD BCH JFK,40.660476,-73.83030099999998,169.0,323.0,486.0,510.0,477.0,233.0,143.0,317.0,472.0,600.0,507.0,249.0,235.0,374.0,655.0,633.0,437.0,207.0,135.0,250.0,461.0,540.0,425.0,197.0,301.0,630.0,732.0,872.0,631.0,311.0,345.0,740.0,737.0,922.0,620.0,293.0,290.0,600.0,651.0,879.0,626.0
186,BEACH 25 ST,40.59946790000001,-73.7618536,170.0,361.0,339.0,466.0,395.0,260.0,148.0,319.0,393.0,373.0,338.0,180.0,282.0,526.0,477.0,687.0,422.0,155.0,108.0,208.0,371.0,414.0,357.0,152.0,362.0,564.0,402.0,816.0,460.0,232.0,361.0,615.0,477.0,780.0,536.0,211.0,374.0,566.0,419.0,724.0,410.0
187,BEACH 60 ST,40.59244,-73.78928300000003,247.0,422.0,464.0,497.0,384.0,202.0,180.0,348.0,409.0,462.0,319.0,160.0,329.0,570.0,530.0,703.0,408.0,187.0,132.0,225.0,355.0,473.0,371.0,169.0,372.0,621.0,541.0,775.0,395.0,175.0,389.0,707.0,597.0,772.0,464.0,191.0,353.0,668.0,541.0,698.0,399.0
188,ATLANTIC AV,40.675554,-73.90305759999998,82.0,275.0,,,259.0,77.0,53.0,203.0,291.0,317.0,187.0,67.0,138.0,459.0,403.0,457.0,206.0,80.0,28.0,,,213.0,249.0,84.0,184.0,554.0,378.0,541.0,237.0,65.0,197.0,639.0,406.0,581.0,215.0,71.0,179.0,605.0,395.0,553.0,264.0
189,BEACH 36 ST,40.595532,-73.7681238,97.0,221.0,240.0,281.0,206.0,122.0,97.0,164.0,224.0,238.0,195.0,96.0,149.0,297.0,253.0,386.0,236.0,98.0,62.0,113.0,223.0,204.0,190.0,102.0,154.0,319.0,310.0,398.0,273.0,92.0,187.0,380.0,276.0,468.0,284.0,125.0,173.0,331.0,239.0,363.0,241.0
190,55 ST,40.6315514,-73.9956328,53.0,289.0,284.0,234.0,201.0,71.0,47.0,380.0,538.0,493.0,278.0,74.0,119.0,757.0,633.0,848.0,302.0,100.0,47.0,325.0,314.0,418.0,240.0,56.0,131.0,839.0,674.0,969.0,374.0,74.0,,,475.0,1018.0,419.0,84.0,160.0,762.0,669.0,846.0,206.0
191,104 ST,40.695145600000004,-73.8443046,289.0,647.0,618.0,740.0,393.0,165.0,183.0,492.0,530.0,678.0,333.0,119.0,501.0,978.0,696.0,837.0,456.0,169.0,144.0,314.0,345.0,542.0,301.0,91.0,666.0,1169.0,745.0,1025.0,538.0,197.0,764.0,1466.0,775.0,1166.0,552.0,191.0,734.0,1272.0,686.0,1061.0,516.0
192,BEACH 44 ST,40.592920899999996,-73.77594839999998,95.0,154.0,189.0,227.0,191.0,99.0,93.0,157.0,187.0,190.0,166.0,74.0,107.0,237.0,239.0,291.0,200.0,84.0,49.0,98.0,189.0,207.0,132.0,69.0,157.0,266.0,204.0,309.0,211.0,84.0,164.0,293.0,202.0,366.0,252.0,104.0,156.0,260.0,216.0,301.0,201.0
193,WORLD TRADE CTR,40.712645200000004,-74.00989799999998,402.0,2020.0,5453.0,6071.0,2799.0,940.0,269.0,1873.0,5002.0,5822.0,2850.0,500.0,633.0,3696.0,6134.0,6983.0,2281.0,548.0,172.0,1250.0,3640.0,4829.0,1945.0,398.0,691.0,3300.0,5113.0,9244.0,2884.0,594.0,745.0,3950.0,6195.0,10754.0,3291.0,636.0,665.0,3639.0,5201.0,7524.0,2441.0
194,NASSAU AV,40.7238944,-73.9506777,8.0,14.0,10.0,5.0,3.0,4.0,2.0,3.0,3.0,4.0,2.0,0.0,315.0,1546.0,1904.0,1979.0,713.0,197.0,89.0,420.0,786.0,876.0,595.0,153.0,470.0,2169.0,1934.0,3252.0,1477.0,440.0,630.0,2857.0,2397.0,3968.0,1692.0,602.0,602.0,2811.0,2477.0,3764.0,1822.0
195,39 AV,40.752689700000005,-73.9328056,,,,,,,,,,,,,,,,,,,,,,,,,,,,,,,,,,,,,,,,,
196,36 AV,40.7668516,-73.921313,393.0,1625.0,2621.0,,,819.0,320.0,1184.0,2129.0,2616.0,1822.0,619.0,527.0,2577.0,2777.0,3338.0,1563.0,562.0,218.0,681.0,1396.0,1970.0,1340.0,412.0,749.0,3505.0,2823.0,4930.0,2535.0,791.0,829.0,4217.0,3275.0,5596.0,2847.0,909.0,767.0,3968.0,3180.0,5250.0,2768.0
197,BROADWAY,40.7623472,-73.9256595,,,,,,,,,,,,,,,,,,,,,,,,,,,,,,,,,,,,,,,,,
198,COURT SQ-23 ST,40.748050799999994,-73.94704779999998,168.0,627.0,979.0,1037.0,546.0,173.0,91.0,557.0,888.0,846.0,469.0,125.0,251.0,979.0,1072.0,1091.0,401.0,82.0,61.0,326.0,352.0,379.0,268.0,68.0,30.0,6.0,5.0,10.0,66.0,39.0,14.0,84.0,117.0,183.0,62.0,20.0,17.0,101.0,169.0,257.0,64.0
199,ASTORIA DITMARS,40.7750119,-73.91211,572.0,2370.0,3870.0,4234.0,2782.0,1212.0,443.0,1872.0,3263.0,3470.0,2395.0,890.0,774.0,3324.0,3539.0,4109.0,1878.0,718.0,223.0,893.0,1838.0,1992.0,1469.0,565.0,1007.0,4601.0,3713.0,5462.0,3346.0,1019.0,1223.0,5739.0,4217.0,6697.0,3673.0,1153.0,1123.0,5144.0,3801.0,5775.0,3170.0
200,CYPRESS HILLS,40.68994860000001,-73.87257310000003,103.0,252.0,309.0,295.0,207.0,72.0,58.0,236.0,289.0,292.0,187.0,57.0,156.0,376.0,300.0,318.0,177.0,64.0,36.0,147.0,177.0,200.0,149.0,49.0,243.0,477.0,313.0,444.0,189.0,65.0,258.0,523.0,377.0,485.0,206.0,61.0,242.0,469.0,280.0,412.0,197.0
201,30 AV,40.7668516,-73.921313,564.0,2557.0,4459.0,4790.0,3210.0,1273.0,501.0,1882.0,3558.0,3956.0,2749.0,895.0,792.0,3507.0,4178.0,5087.0,2352.0,762.0,301.0,932.0,2148.0,2696.0,1769.0,629.0,1057.0,4848.0,3937.0,6673.0,3649.0,1161.0,1166.0,6199.0,4697.0,7996.0,4375.0,1295.0,,,4410.0,7470.0,4264.0
202,121 ST,40.7006094,-73.8281286,137.0,353.0,418.0,601.0,337.0,146.0,127.0,263.0,402.0,447.0,315.0,95.0,209.0,522.0,470.0,652.0,267.0,106.0,114.0,160.0,263.0,367.0,226.0,94.0,286.0,638.0,502.0,880.0,389.0,161.0,275.0,645.0,515.0,893.0,478.0,389.0,415.0,650.0,475.0,825.0,496.0
203,75 ST-ELDERTS,40.69143649999999,-73.8665512,274.0,736.0,746.0,816.0,518.0,202.0,194.0,561.0,724.0,781.0,460.0,154.0,451.0,911.0,724.0,908.0,454.0,159.0,123.0,346.0,511.0,577.0,377.0,133.0,573.0,1151.0,718.0,1056.0,565.0,170.0,630.0,1205.0,786.0,1136.0,565.0,176.0,558.0,1126.0,711.0,1016.0,530.0
204,AVENUE X,40.589682200000006,-73.9742509,146.0,466.0,482.0,528.0,360.0,136.0,95.0,388.0,442.0,532.0,271.0,106.0,269.0,840.0,589.0,724.0,308.0,94.0,90.0,284.0,356.0,377.0,207.0,62.0,336.0,1111.0,630.0,1045.0,484.0,107.0,369.0,1162.0,610.0,1013.0,557.0,130.0,360.0,991.0,564.0,880.0,452.0
205,AVENUE P,40.6087814,-73.97290840000001,104.0,474.0,408.0,465.0,215.0,78.0,82.0,423.0,455.0,498.0,177.0,75.0,200.0,813.0,453.0,670.0,222.0,58.0,68.0,305.0,352.0,432.0,190.0,73.0,270.0,1074.0,513.0,768.0,366.0,83.0,269.0,1135.0,540.0,767.0,366.0,87.0,274.0,1027.0,508.0,664.0,257.0
206,85 ST-FOREST PK,40.6924861,-73.8590708,267.0,723.0,800.0,778.0,476.0,190.0,173.0,607.0,668.0,598.0,391.0,135.0,447.0,1026.0,848.0,900.0,428.0,124.0,142.0,367.0,530.0,556.0,316.0,92.0,593.0,1217.0,859.0,1051.0,540.0,132.0,658.0,1336.0,866.0,1201.0,519.0,154.0,607.0,1227.0,768.0,977.0,482.0
207,WOODHAVEN BLVD,40.6939097,-73.85139269999998,291.0,790.0,891.0,1136.0,628.0,253.0,197.0,679.0,897.0,998.0,560.0,199.0,440.0,1150.0,1028.0,1169.0,564.0,188.0,172.0,414.0,577.0,646.0,396.0,119.0,612.0,1449.0,981.0,1371.0,725.0,201.0,631.0,1537.0,993.0,1558.0,679.0,182.0,562.0,1442.0,897.0,1294.0,595.0
208,METROPOLITAN AV,40.712132700000005,-73.889276,0.0,0.0,0.0,0.0,0.0,0.0,0.0,0.0,0.0,0.0,0.0,0.0,309.0,953.0,995.0,1119.0,293.0,72.0,46.0,166.0,299.0,359.0,209.0,65.0,473.0,1191.0,1000.0,1813.0,584.0,160.0,547.0,1484.0,1039.0,2012.0,656.0,153.0,509.0,1265.0,923.0,1702.0,516.0
209,GREENPOINT AV,40.7301618,-73.9540458,0.0,0.0,2.0,2.0,0.0,1.0,0.0,1.0,2.0,1.0,0.0,0.0,264.0,1389.0,1619.0,1538.0,612.0,169.0,60.0,337.0,657.0,724.0,495.0,115.0,436.0,1840.0,1654.0,2870.0,1181.0,271.0,497.0,2578.0,2089.0,3652.0,1588.0,349.0,505.0,2619.0,2294.0,3457.0,1770.0
