,StationName,Latitude,Longitude,2018-06-02 00:00:00,2018-06-02 04:00:00,2018-06-02 08:00:00,2018-06-02 12:00:00,2018-06-02 16:00:00,2018-06-02 20:00:00,2018-06-03 00:00:00,2018-06-03 04:00:00,2018-06-03 08:00:00,2018-06-03 12:00:00,2018-06-03 16:00:00,2018-06-03 20:00:00,2018-06-04 00:00:00,2018-06-04 04:00:00,2018-06-04 08:00:00,2018-06-04 12:00:00,2018-06-04 16:00:00,2018-06-04 20:00:00,2018-06-05 00:00:00,2018-06-05 04:00:00,2018-06-05 08:00:00,2018-06-05 12:00:00,2018-06-05 16:00:00,2018-06-05 20:00:00,2018-06-06 00:00:00,2018-06-06 04:00:00,2018-06-06 08:00:00,2018-06-06 12:00:00,2018-06-06 16:00:00,2018-06-06 20:00:00,2018-06-07 00:00:00,2018-06-07 04:00:00,2018-06-07 08:00:00,2018-06-07 12:00:00,2018-06-07 16:00:00,2018-06-07 20:00:00,2018-06-08 00:00:00,2018-06-08 04:00:00,2018-06-08 08:00:00,2018-06-08 12:00:00,2018-06-08 16:00:00
0,34 ST-HERALD SQ,40.748897899999996,-73.98878859999998,5007.0,4552.0,18866.0,31323.0,35002.0,20357.0,4347.0,3172.0,15440.0,27647.0,30034.0,15066.0,1777.0,17589.0,59050.0,42194.0,83314.0,24088.0,2512.0,18383.0,62161.0,46491.0,48377.0,16086.0,2705.0,18328.0,61838.0,45583.0,87500.0,27777.0,2822.0,17602.0,61966.0,47995.0,88979.0,29777.0,3228.0,16517.0,56851.0,53144.0,80722.0
1,TIMES SQ-42 ST,40.7545563,-73.98667370000001,8190.0,5637.0,21171.0,35816.0,41889.0,30335.0,7708.0,3941.0,16557.0,28193.0,32199.0,21462.0,3242.0,14140.0,50091.0,32795.0,66983.0,24998.0,4240.0,15128.0,53051.0,37282.0,71512.0,29402.0,4445.0,14975.0,53584.0,38673.0,74908.0,29929.0,4854.0,14826.0,52520.0,38509.0,73343.0,31579.0,5163.0,13868.0,49040.0,42498.0,67830.0
2,34 ST-PENN STA,40.751056,-73.99031020000001,4376.0,6112.0,21230.0,31872.0,33464.0,19768.0,4733.0,4224.0,18485.0,28867.0,30791.0,15521.0,2193.0,26694.0,60666.0,36474.0,75967.0,15416.0,1814.0,26456.0,61697.0,38748.0,77495.0,19946.0,2259.0,25974.0,59100.0,39065.0,78307.0,20776.0,2312.0,24630.0,60784.0,35627.0,66007.0,22829.0,2530.0,22819.0,53923.0,46450.0,70718.0
3,59 ST COLUMBUS,40.7684839,-73.98180699999999,2711.0,3298.0,14623.0,23187.0,24672.0,12857.0,2663.0,3379.0,12383.0,20985.0,19966.0,8481.0,1165.0,9928.0,30341.0,25865.0,41562.0,13891.0,1660.0,10112.0,32074.0,28537.0,42211.0,15691.0,1768.0,10783.0,32748.0,28364.0,43821.0,15575.0,1934.0,9895.0,31973.0,29044.0,44435.0,17180.0,2214.0,9791.0,30054.0,30906.0,39981.0
4,86 ST,40.7795016,-73.95557240000001,1887.0,3701.0,12556.0,19125.0,18715.0,9259.0,1829.0,2392.0,9991.0,17129.0,14809.0,6299.0,804.0,12007.0,26522.0,22668.0,33817.0,9537.0,750.0,12133.0,27454.0,23402.0,33438.0,10387.0,781.0,12248.0,27465.0,23468.0,34035.0,10797.0,833.0,11724.0,26983.0,23185.0,33729.0,11017.0,984.0,11195.0,23653.0,23594.0,32432.0
5,GRD CNTRL-42 ST,40.75216470000001,-73.97715339999998,3168.0,3945.0,15199.0,21910.0,20987.0,11671.0,3333.0,2353.0,12769.0,19244.0,19753.0,8923.0,1415.0,17167.0,45034.0,25190.0,50916.0,12531.0,1703.0,16383.0,44655.0,27642.0,53123.0,14001.0,1964.0,16576.0,45626.0,28057.0,53564.0,14500.0,1950.0,16138.0,44851.0,28959.0,52454.0,14681.0,2056.0,14278.0,40222.0,31851.0,48978.0
6,59 ST,40.6415685,-74.0176783,2507.0,5224.0,15771.0,20706.0,18978.0,9202.0,2181.0,3256.0,12224.0,17540.0,15597.0,6715.0,1364.0,13818.0,32755.0,24751.0,41849.0,10957.0,1238.0,13825.0,34947.0,26115.0,42637.0,12635.0,1347.0,13090.0,33753.0,27160.0,43809.0,12485.0,1432.0,13381.0,35222.0,27684.0,42989.0,12690.0,1368.0,13500.0,33037.0,28914.0,39526.0
7,FLUSHING-MAIN,40.75955820000001,-73.82992209999998,2727.0,6541.0,16490.0,18277.0,19123.0,12439.0,2479.0,3740.0,13108.0,15648.0,15983.0,9236.0,1551.0,16487.0,24228.0,18895.0,28982.0,12944.0,1647.0,17263.0,24375.0,19328.0,29058.0,13584.0,1755.0,17403.0,24752.0,18730.0,30969.0,12705.0,1865.0,16466.0,24044.0,17716.0,28224.0,14976.0,1976.0,17128.0,23785.0,18985.0,30429.0
8,ATL AV-BARCLAY,40.6837598,-73.97875739999998,2537.0,2239.0,8292.0,14742.0,14945.0,8291.0,2003.0,1619.0,6406.0,12569.0,12945.0,6027.0,861.0,9501.0,21648.0,17340.0,30450.0,11155.0,1208.0,9881.0,22222.0,17390.0,27559.0,9549.0,1247.0,9158.0,20522.0,16967.0,33361.0,15432.0,1715.0,7935.0,20309.0,16659.0,27538.0,10147.0,1349.0,8462.0,19414.0,19168.0,30194.0
9,23 ST,40.7413626,-73.9891335,2068.0,1732.0,8840.0,14322.0,14774.0,7832.0,1796.0,1180.0,6277.0,13334.0,12465.0,5613.0,612.0,8246.0,33768.0,23708.0,45084.0,13047.0,1174.0,8899.0,34806.0,25719.0,47478.0,15067.0,1304.0,8971.0,35101.0,27017.0,47955.0,15848.0,1399.0,8409.0,34697.0,26787.0,47977.0,16908.0,1603.0,8025.0,32178.0,29225.0,42191.0
10,42 ST-PORT AUTH,40.7578346,-73.99146259999998,2261.0,4999.0,14764.0,17094.0,17174.0,11546.0,2352.0,2947.0,12022.0,14804.0,16740.0,10541.0,1313.0,21422.0,33490.0,16940.0,34887.0,10930.0,1093.0,19991.0,31468.0,17371.0,35042.0,12402.0,1102.0,19756.0,31635.0,17711.0,35616.0,11878.0,1278.0,19652.0,31106.0,17751.0,35002.0,12771.0,1337.0,17838.0,28860.0,20418.0,34399.0
11,14 ST,40.73747540000001,-73.9970975,2155.0,1197.0,4514.0,8368.0,8867.0,6190.0,1889.0,810.0,3610.0,7242.0,7518.0,4068.0,672.0,4860.0,17729.0,14204.0,25628.0,8612.0,1142.0,5472.0,18266.0,16032.0,26541.0,10216.0,1248.0,5380.0,18703.0,16054.0,27391.0,10473.0,1306.0,4885.0,18993.0,15832.0,27332.0,11386.0,1534.0,4798.0,18191.0,17437.0,25336.0
12,JKSN HT-ROOSVLT,40.746739,-73.89099859999999,3612.0,5757.0,12709.0,15806.0,15038.0,9983.0,3207.0,3667.0,10357.0,15521.0,15245.0,9014.0,2124.0,12267.0,19846.0,16783.0,24552.0,10827.0,2261.0,12746.0,20864.0,17616.0,23673.0,11643.0,2452.0,12837.0,20713.0,17292.0,24304.0,10999.0,2594.0,12161.0,20185.0,17611.0,24203.0,12114.0,2448.0,12557.0,20117.0,17807.0,25294.0
13,BEDFORD AV,40.717354,-73.956972,3845.0,1497.0,8714.0,19783.0,18438.0,12080.0,4018.0,1190.0,6106.0,13129.0,13420.0,6585.0,874.0,4610.0,13466.0,9190.0,19249.0,8518.0,989.0,4900.0,13872.0,7492.0,19125.0,9683.0,1130.0,4772.0,14428.0,10350.0,20945.0,10938.0,1371.0,4323.0,13979.0,10786.0,20729.0,11742.0,1769.0,4364.0,13896.0,12792.0,21234.0
14,47-50 STS ROCK,40.75885,-73.98118610000002,54.0,23.0,39.0,10.0,4.0,9.0,3.0,9.0,16.0,15.0,4.0,6.0,2.0,9643.0,38272.0,18115.0,41623.0,7747.0,1136.0,10311.0,39509.0,19901.0,43165.0,8817.0,1159.0,10554.0,39927.0,20318.0,44125.0,8991.0,1221.0,9982.0,40237.0,20650.0,43871.0,9726.0,1364.0,9518.0,36415.0,23088.0,36789.0
15,34 ST-HUDSON YD,40.7549713,-74.0010084,388.0,1236.0,4562.0,5231.0,4750.0,1371.0,435.0,608.0,3123.0,3654.0,3941.0,1147.0,176.0,3511.0,5206.0,4694.0,5917.0,1525.0,222.0,3095.0,5253.0,4856.0,6182.0,1625.0,244.0,3388.0,5563.0,5085.0,6476.0,1679.0,259.0,3480.0,5769.0,5269.0,7053.0,1933.0,230.0,3350.0,5378.0,6184.0,6500.0
16,CHAMBERS ST,40.7155134,-74.00922270000001,1508.0,1844.0,8630.0,14087.0,11638.0,6002.0,1234.0,1149.0,6253.0,10812.0,9533.0,4058.0,548.0,9536.0,29985.0,24868.0,39528.0,8529.0,723.0,9366.0,32391.0,25530.0,39319.0,9446.0,823.0,10193.0,31754.0,26932.0,40611.0,9339.0,883.0,9522.0,31058.0,26812.0,39466.0,9464.0,917.0,8999.0,27524.0,26138.0,35084.0
17,125 ST,40.8043863,-73.9374292,2362.0,2975.0,9662.0,13536.0,13601.0,8534.0,2389.0,2160.0,7767.0,11973.0,11382.0,6161.0,1191.0,7597.0,15913.0,13721.0,19930.0,8115.0,1383.0,8048.0,16506.0,14591.0,20375.0,8911.0,1379.0,8063.0,16534.0,14258.0,21381.0,9098.0,1525.0,7215.0,15638.0,13726.0,20414.0,9259.0,1650.0,7731.0,15602.0,15358.0,21014.0
18,57 ST-7 AV,40.765564000000005,-73.9803309,1914.0,2284.0,8814.0,13286.0,13654.0,7774.0,1772.0,1916.0,8530.0,12972.0,12101.0,5552.0,716.0,4527.0,15127.0,10852.0,20963.0,7185.0,905.0,4615.0,15713.0,11463.0,21997.0,8715.0,942.0,4649.0,16071.0,11724.0,21821.0,8374.0,1031.0,4503.0,15990.0,12023.0,21877.0,8926.0,1139.0,4157.0,14548.0,12661.0,19866.0
19,GRAND ST,40.7182003,-73.9935756,611.0,795.0,1828.0,2431.0,2381.0,1464.0,485.0,494.0,1233.0,2060.0,2070.0,1119.0,234.0,5467.0,14776.0,12425.0,16986.0,5642.0,697.0,5324.0,14675.0,13222.0,16585.0,6228.0,764.0,5760.0,14913.0,12860.0,17733.0,6322.0,864.0,4905.0,14138.0,12140.0,17343.0,6775.0,896.0,5586.0,14748.0,13800.0,18570.0
20,145 ST,40.8240532,-73.94476230000001,2887.0,3407.0,9337.0,11942.0,11550.0,8069.0,2688.0,2584.0,7341.0,10107.0,9727.0,6350.0,1437.0,8497.0,15577.0,12435.0,18169.0,8988.0,1765.0,8803.0,15635.0,13413.0,17808.0,9732.0,2000.0,9153.0,16050.0,13003.0,18496.0,9693.0,2088.0,7960.0,15845.0,12973.0,17796.0,9836.0,2253.0,8585.0,14971.0,13313.0,17546.0
21,42 ST-BRYANT PK,40.75483679999999,-73.9841215,192.0,227.0,781.0,1551.0,1711.0,778.0,145.0,110.0,351.0,706.0,1149.0,663.0,120.0,5512.0,23487.0,13721.0,31050.0,7139.0,964.0,6309.0,25473.0,15347.0,33049.0,8361.0,1098.0,6463.0,25270.0,15763.0,33325.0,8416.0,1135.0,6106.0,24986.0,16276.0,33242.0,8959.0,1253.0,5822.0,23568.0,17668.0,29818.0
22,2 AV,40.723412700000004,-73.9902885,15.0,23.0,8.0,7.0,6.0,9.0,54.0,11.0,6.0,26.0,20.0,36.0,10.0,2713.0,6951.0,5683.0,9547.0,4533.0,552.0,2869.0,7303.0,6119.0,9890.0,5727.0,796.0,2909.0,7597.0,6211.0,10737.0,5917.0,758.0,2631.0,7158.0,6161.0,11135.0,6721.0,1085.0,2654.0,7366.0,7007.0,11334.0
23,50 ST,40.7620363,-73.98632909999998,3506.0,2587.0,9956.0,14116.0,15960.0,10765.0,3441.0,2009.0,8969.0,13410.0,14141.0,8288.0,1345.0,7991.0,23286.0,15748.0,29392.0,10051.0,1690.0,7711.0,23695.0,16526.0,30469.0,12297.0,1824.0,7650.0,24262.0,16915.0,32534.0,12352.0,1979.0,7376.0,22619.0,16104.0,31503.0,13850.0,2264.0,6983.0,22050.0,18439.0,30204.0
24,CHURCH AV,40.6495233,-73.96328390000001,1780.0,2733.0,6834.0,7859.0,8124.0,4990.0,1579.0,2108.0,5307.0,6779.0,6833.0,3751.0,978.0,8199.0,12281.0,9249.0,14746.0,5932.0,1160.0,8196.0,12420.0,9473.0,14225.0,6424.0,1327.0,8527.0,12449.0,9639.0,14254.0,6184.0,1452.0,7454.0,11758.0,8817.0,13871.0,6417.0,1447.0,8252.0,12042.0,10056.0,14065.0
25,PRINCE ST,40.7242353,-73.99780600000001,1290.0,705.0,5437.0,12385.0,13271.0,5774.0,1187.0,565.0,4287.0,10829.0,11321.0,3652.0,369.0,1068.0,5922.0,5885.0,10147.0,3080.0,316.0,1087.0,6556.0,6775.0,10778.0,3288.0,315.0,1119.0,6382.0,6837.0,10601.0,3568.0,352.0,1084.0,6359.0,7455.0,11389.0,3967.0,431.0,975.0,6012.0,8120.0,11388.0
26,SPRING ST,40.7257799,-74.00395209999998,1084.0,559.0,2954.0,6590.0,7309.0,3530.0,916.0,333.0,2155.0,5383.0,6323.0,2464.0,282.0,1887.0,7795.0,7734.0,14334.0,4109.0,328.0,1911.0,8312.0,8339.0,15410.0,4693.0,428.0,1983.0,8591.0,8864.0,15893.0,4802.0,399.0,1806.0,8241.0,9238.0,16030.0,5132.0,454.0,1813.0,7708.0,10341.0,15295.0
27,LEXINGTON AV/63,40.764629,-73.96611299999998,984.0,1470.0,5040.0,6661.0,6382.0,3216.0,967.0,1001.0,4386.0,6602.0,5370.0,2400.0,433.0,4623.0,11556.0,8346.0,13920.0,3784.0,430.0,4981.0,12414.0,9234.0,14538.0,4341.0,459.0,4836.0,12530.0,9668.0,14661.0,4351.0,532.0,4821.0,12487.0,9829.0,14946.0,4521.0,594.0,4477.0,11430.0,9555.0,13043.0
28,NOSTRAND AV,40.6697362,-73.95050890000002,1333.0,1875.0,5739.0,7359.0,6893.0,4420.0,1248.0,1266.0,4343.0,5947.0,5632.0,3204.0,698.0,4986.0,10161.0,6904.0,10676.0,4924.0,970.0,5189.0,10466.0,7108.0,10435.0,5362.0,952.0,5388.0,10356.0,7121.0,10607.0,5172.0,1028.0,4472.0,9547.0,6768.0,10181.0,1339.0,337.0,5011.0,10249.0,8016.0,10579.0
29,JAY ST-METROTEC,40.6922507,-73.9872792,1156.0,1529.0,5674.0,9054.0,8439.0,4398.0,942.0,1037.0,4252.0,7535.0,6621.0,3056.0,455.0,5060.0,16927.0,14786.0,22813.0,5245.0,761.0,5474.0,16851.0,15218.0,22906.0,5983.0,705.0,5469.0,17253.0,15192.0,22762.0,5726.0,758.0,4896.0,15971.0,14387.0,22427.0,6094.0,825.0,4710.0,15271.0,15607.0,20652.0
30,1 AV,40.7312776,-73.9823439,2777.0,1630.0,6299.0,10310.0,10817.0,8615.0,2836.0,1181.0,4676.0,8622.0,9254.0,5721.0,808.0,5154.0,10830.0,8912.0,13306.0,6618.0,874.0,5067.0,10719.0,6327.0,13629.0,7297.0,,,11206.0,9426.0,14425.0,7619.0,1097.0,4753.0,9969.0,8450.0,13701.0,8070.0,1309.0,4786.0,10818.0,9903.0,14665.0
31,STEINWAY ST,40.756691700000005,-73.92064090000001,1000.0,1363.0,5303.0,7172.0,7109.0,4580.0,1207.0,928.0,4044.0,6227.0,5882.0,3137.0,453.0,3245.0,6521.0,5030.0,7649.0,3334.0,465.0,3308.0,6788.0,5323.0,7479.0,3640.0,479.0,3588.0,6921.0,5396.0,7708.0,3376.0,537.0,3008.0,6752.0,5432.0,7530.0,3544.0,530.0,3266.0,6786.0,5731.0,8092.0
32,JUNCTION BLVD,40.749203,-73.8693365,1598.0,4121.0,6125.0,6829.0,6943.0,4024.0,1435.0,2096.0,4700.0,5816.0,5675.0,3218.0,902.0,8241.0,7554.0,6871.0,11705.0,4499.0,1054.0,8306.0,7705.0,7090.0,11265.0,4296.0,1130.0,8780.0,7914.0,7157.0,11436.0,4634.0,1196.0,7852.0,7422.0,6752.0,11141.0,4901.0,1155.0,8627.0,7701.0,7186.0,12344.0
33,DEKALB AV,40.68982020000001,-73.9811611,1250.0,2335.0,6725.0,8847.0,7993.0,4638.0,1162.0,1392.0,5335.0,7875.0,6811.0,3168.0,542.0,6730.0,13782.0,9472.0,13121.0,4603.0,665.0,6694.0,14218.0,8752.0,12779.0,4618.0,686.0,7165.0,14405.0,9755.0,13319.0,4647.0,766.0,6182.0,13762.0,8833.0,12474.0,5185.0,853.0,6635.0,13514.0,7595933.0,12759.0
34,BOROUGH HALL,40.6931492,-73.9900883,879.0,1088.0,5070.0,8471.0,7501.0,3835.0,800.0,619.0,3643.0,6822.0,5985.0,2707.0,361.0,4605.0,17782.0,13302.0,20043.0,4711.0,459.0,5105.0,18622.0,14767.0,19761.0,5096.0,538.0,5008.0,18837.0,15297.0,20285.0,5247.0,567.0,4583.0,18403.0,15229.0,20017.0,5715.0,593.0,4586.0,16764.0,14872.0,17450.0
35,CROWN HTS-UTICA,40.6689469,-73.93183379999998,1517.0,4307.0,8315.0,9296.0,8736.0,5928.0,2345.0,3007.0,5758.0,7019.0,7243.0,4137.0,888.0,8341.0,11149.0,7740.0,12594.0,5195.0,1281.0,8819.0,11034.0,8570.0,12391.0,5435.0,1257.0,9067.0,11117.0,8132.0,12721.0,5429.0,1343.0,8135.0,10849.0,8163.0,12040.0,5495.0,1330.0,8325.0,10874.0,9115.0,12033.0
36,8 ST-NYU,40.7306065,-73.99244159999998,1661.0,512.0,3488.0,6743.0,8234.0,5413.0,1533.0,432.0,3088.0,6803.0,6956.0,3749.0,415.0,1524.0,7215.0,5296.0,10101.0,4072.0,550.0,1563.0,7367.0,5305.0,10103.0,4746.0,287.0,1567.0,3649.0,5405.0,10036.0,4769.0,559.0,1489.0,7059.0,5527.0,10444.0,4900.0,625.0,1392.0,6223.0,5910.0,9624.0
37,CANAL ST,40.722713899999995,-74.00630600000001,891.0,896.0,4155.0,6433.0,7283.0,3256.0,907.0,612.0,3124.0,5599.0,5433.0,2225.0,284.0,2975.0,9767.0,7476.0,13992.0,3083.0,345.0,3096.0,10259.0,7907.0,14384.0,3634.0,385.0,3000.0,10302.0,7879.0,15000.0,3779.0,424.0,2995.0,10360.0,8336.0,15370.0,4537.0,462.0,2733.0,9554.0,9362.0,13768.0
38,QUEENSBORO PLZ,40.7505127,-73.9398439,609.0,2497.0,7274.0,7799.0,6726.0,1443.0,384.0,1730.0,5596.0,6297.0,5244.0,2719.0,370.0,1975.0,5412.0,3890.0,5869.0,1838.0,309.0,2186.0,5427.0,3640.0,6253.0,2046.0,367.0,2148.0,5323.0,4454.0,5965.0,2023.0,405.0,1957.0,5021.0,3493.0,5687.0,1987.0,437.0,2009.0,5036.0,4240.0,6161.0
39,MYRTLE-WYCKOFF,40.699686,-73.9117713,1721.0,2629.0,5593.0,6736.0,6226.0,4214.0,1600.0,1663.0,4530.0,5762.0,5340.0,3316.0,830.0,5841.0,8466.0,6204.0,8558.0,4150.0,1041.0,6156.0,8679.0,6126.0,8176.0,4524.0,1103.0,6263.0,8748.0,6153.0,8692.0,4330.0,1133.0,5762.0,8335.0,5748.0,8670.0,4659.0,1211.0,5955.0,8462.0,6378.0,8713.0
40,51 ST,40.757135,-73.97191190000001,869.0,1219.0,4177.0,5749.0,5407.0,2992.0,766.0,867.0,3609.0,5644.0,4764.0,2289.0,330.0,3976.0,14061.0,7871.0,14935.0,3363.0,482.0,4052.0,14766.0,8805.0,15282.0,3993.0,515.0,3816.0,14828.0,8895.0,15811.0,4404.0,561.0,3733.0,14667.0,9262.0,15251.0,4318.0,565.0,3558.0,13577.0,9534.0,13862.0
41,COURT SQ,40.7467885,-73.944548,895.0,1158.0,3182.0,4340.0,4002.0,2411.0,665.0,646.0,2140.0,3636.0,3638.0,1728.0,273.0,4323.0,11325.0,6752.0,12564.0,4220.0,882.0,4930.0,11323.0,5958.0,12393.0,4360.0,833.0,4854.0,11564.0,6714.0,12821.0,4157.0,812.0,4487.0,11462.0,6773.0,12382.0,4456.0,887.0,4451.0,7116.0,4584.0,10284.0
42,JAMAICA CENTER,40.702144700000005,-73.8008771,2242.0,4734.0,7192.0,8644.0,8629.0,5812.0,2058.0,3084.0,5261.0,6059.0,6808.0,4509.0,1501.0,14830.0,14878.0,12607.0,19842.0,7009.0,1826.0,15459.0,14905.0,13079.0,19275.0,7847.0,1655.0,15749.0,15042.0,13164.0,21147.0,7023.0,1738.0,14579.0,14512.0,12831.0,19680.0,8001.0,1800.0,15086.0,13845.0,13243.0,18557.0
43,49 ST,40.7598372,-73.98418249999999,2253.0,1683.0,5649.0,9041.0,10660.0,7755.0,1788.0,1091.0,5107.0,8418.0,8116.0,5217.0,718.0,3614.0,11550.0,8038.0,16403.0,6342.0,943.0,3758.0,12334.0,8509.0,17803.0,7569.0,1015.0,3780.0,12744.0,8770.0,17798.0,7748.0,1074.0,3500.0,12098.0,8579.0,18249.0,8238.0,1150.0,3380.0,11574.0,10448.0,17325.0
44,BOWLING GREEN,40.7048108,-74.0144596,931.0,1384.0,5337.0,7311.0,6716.0,2661.0,890.0,861.0,3855.0,5277.0,4957.0,1877.0,438.0,5977.0,17686.0,10972.0,20733.0,3702.0,546.0,6183.0,18720.0,12202.0,20897.0,3780.0,605.0,6243.0,18923.0,12501.0,21525.0,3933.0,674.0,5977.0,18438.0,12785.0,21498.0,4225.0,692.0,5715.0,17301.0,13145.0,18887.0
45,BLEECKER ST,40.7259346,-73.9946724,1359.0,780.0,2661.0,,,2468.0,1023.0,537.0,1902.0,3562.0,3763.0,1880.0,413.0,1455.0,4798.0,3677.0,6979.0,2903.0,466.0,1516.0,5163.0,4150.0,7498.0,3255.0,508.0,1545.0,5170.0,4210.0,7400.0,3505.0,601.0,1383.0,5062.0,4123.0,7659.0,3634.0,696.0,1311.0,4795.0,4822.0,7366.0
46,VERNON-JACKSON,40.7426713,-73.9537248,628.0,788.0,3650.0,4232.0,4185.0,2905.0,625.0,533.0,2392.0,3899.0,3766.0,1827.0,294.0,3279.0,8348.0,4226.0,8042.0,2885.0,347.0,3173.0,7900.0,4491.0,8089.0,3162.0,361.0,3643.0,8576.0,4501.0,8171.0,3478.0,387.0,3272.0,8540.0,4466.0,7510.0,3563.0,425.0,3244.0,8307.0,4954.0,8144.0
47,28 ST,40.7470686,-73.99350919999998,825.0,701.0,3600.0,5107.0,5180.0,2992.0,821.0,480.0,2857.0,4583.0,4060.0,2284.0,265.0,1548.0,7557.0,5254.0,9285.0,2875.0,348.0,1616.0,7846.0,5845.0,9796.0,3171.0,402.0,1584.0,7925.0,5545.0,9786.0,3410.0,476.0,1400.0,7802.0,6039.0,10032.0,3603.0,529.0,1419.0,6885.0,6389.0,8917.0
48,SUTPHIN-ARCHER,40.700572799999996,-73.8077071,1603.0,3344.0,5380.0,6400.0,6811.0,4514.0,1568.0,2441.0,4366.0,5674.0,6568.0,3959.0,1167.0,8451.0,9608.0,8856.0,12571.0,4995.0,1126.0,8433.0,9139.0,9233.0,11955.0,5381.0,1280.0,8605.0,9129.0,8913.0,12891.0,5063.0,1277.0,8063.0,9030.0,9002.0,12689.0,5805.0,1399.0,8546.0,9258.0,9321.0,12557.0
49,FORDHAM RD,40.8614886,-73.8905408,834.0,2519.0,4245.0,5419.0,5085.0,2903.0,851.0,1587.0,2851.0,4230.0,3937.0,2008.0,586.0,5713.0,6683.0,6632.0,7871.0,2994.0,786.0,5932.0,6847.0,6278.0,7548.0,3031.0,801.0,6078.0,6725.0,6519.0,8046.0,2975.0,849.0,5606.0,6480.0,6414.0,7886.0,3142.0,840.0,5954.0,6679.0,6345.0,7807.0
50,HIGH ST,40.6993673,-73.99126559999998,694.0,664.0,4388.0,7395.0,7328.0,3963.0,693.0,469.0,3786.0,7060.0,6220.0,2785.0,232.0,1824.0,6047.0,4332.0,7490.0,2063.0,44.0,1876.0,6559.0,4529.0,7512.0,1902.0,3.0,1849.0,6650.0,4541.0,7495.0,1726.0,0.0,1696.0,6431.0,4650.0,7765.0,2065.0,0.0,1615.0,6237.0,5292.0,7486.0
51,BROOKLYN BRIDGE,40.6993673,-73.99126559999998,507.0,724.0,3237.0,5617.0,4698.0,2316.0,429.0,502.0,2290.0,3975.0,4071.0,1596.0,253.0,3198.0,10628.0,8566.0,12007.0,2916.0,324.0,3655.0,11629.0,9225.0,12051.0,3105.0,339.0,3703.0,12140.0,9654.0,12512.0,3133.0,400.0,3475.0,11303.0,10064.0,12408.0,3296.0,406.0,3179.0,10209.0,9120.0,10880.0
52,103 ST-CORONA,40.7498268,-73.862746,1500.0,4189.0,5589.0,5809.0,6060.0,3950.0,1414.0,2191.0,4391.0,5053.0,4839.0,3139.0,957.0,8243.0,6810.0,5646.0,8535.0,4006.0,1118.0,8273.0,6671.0,5979.0,8209.0,4217.0,1287.0,8550.0,7101.0,5895.0,8873.0,4132.0,1321.0,7730.0,6671.0,5574.0,8542.0,4326.0,1339.0,8496.0,6869.0,6074.0,8636.0
53,GRAND-NEWTOWN,40.736835,-73.87758840000001,681.0,1937.0,4478.0,4797.0,4522.0,2564.0,611.0,1091.0,3647.0,4004.0,3785.0,2203.0,348.0,5921.0,7904.0,5097.0,7250.0,2842.0,425.0,5821.0,7897.0,5107.0,6774.0,3188.0,507.0,6198.0,8005.0,5110.0,7078.0,2717.0,573.0,5480.0,7641.0,4884.0,6925.0,3152.0,597.0,5879.0,7992.0,5385.0,7051.0
54,181 ST,40.84913,-73.93372889999998,1262.0,1757.0,4532.0,6093.0,5755.0,3859.0,1236.0,1241.0,3460.0,4978.0,5310.0,3263.0,761.0,3133.0,5316.0,5445.0,6743.0,3375.0,945.0,3351.0,5291.0,5749.0,6859.0,3825.0,940.0,3349.0,5384.0,5499.0,6860.0,3560.0,1139.0,2904.0,5045.0,5388.0,6576.0,3882.0,1084.0,3222.0,5170.0,5692.0,6656.0
55,167 ST,40.835598,-73.9213791,1342.0,2652.0,4124.0,4347.0,4643.0,3397.0,1104.0,1794.0,3001.0,3527.0,3372.0,2637.0,795.0,6134.0,7108.0,6305.0,8348.0,3445.0,1201.0,6268.0,7221.0,6575.0,8119.0,3648.0,1293.0,6543.0,7303.0,6522.0,8622.0,3594.0,1315.0,5720.0,6876.0,6402.0,8055.0,3786.0,1339.0,6227.0,7105.0,6814.0,8401.0
56,82 ST-JACKSON H,40.7477145,-73.8839373,1377.0,1883.0,5460.0,7573.0,7190.0,4277.0,1314.0,1179.0,3802.0,6615.0,6291.0,3253.0,786.0,4049.0,6904.0,7922.0,10807.0,4165.0,818.0,3939.0,6998.0,8027.0,10061.0,4356.0,965.0,4144.0,7161.0,7963.0,10312.0,4257.0,912.0,3529.0,6573.0,7630.0,9906.0,4527.0,926.0,4003.0,6660.0,7868.0,10739.0
57,KINGS HWY,40.60867440000001,-73.9578059,761.0,1548.0,4135.0,4998.0,4761.0,2562.0,703.0,1105.0,3952.0,4535.0,4313.0,2139.0,348.0,6122.0,9313.0,7515.0,11717.0,3676.0,448.0,6151.0,9575.0,7286.0,11293.0,4104.0,453.0,6547.0,9502.0,7864.0,11512.0,3785.0,562.0,5797.0,9301.0,6919.0,11282.0,3992.0,516.0,4843.0,6627.0,7807.0,9987.0
58,3 AV-149 ST,40.816129,-73.917811,934.0,2994.0,5813.0,6749.0,5345.0,2730.0,805.0,1937.0,4096.0,5086.0,4411.0,1995.0,571.0,5236.0,7985.0,7843.0,8401.0,2543.0,624.0,5632.0,8014.0,7781.0,8344.0,2662.0,701.0,5568.0,8174.0,8157.0,8335.0,2508.0,624.0,5174.0,7719.0,5385133989.0,7961.0,2642.0,636.0,5460.0,7857.0,8326.0,8278.0
59,EAST BROADWAY,40.714402899999996,-73.98991880000001,37.0,8.0,12.0,6.0,9.0,9.0,8.0,6.0,11.0,9.0,40.0,18.0,32.0,2383.0,5267.0,4648.0,6154.0,2307.0,338.0,2331.0,5177.0,4590.0,6225.0,2550.0,382.0,2527.0,5309.0,4786.0,6295.0,2591.0,374.0,2075.0,4945.0,4774.0,6176.0,2728.0,416.0,2368.0,5184.0,4653.0,5979.0
60,72 ST,40.778453000000006,-73.98196999999998,,,,,,,,,,,,,,,,,,,,,,,,,,,,,,,,,,,,,,,,,
61,WALL ST,40.706396500000004,-74.0094441,91.0,164.0,56.0,34.0,80.0,62.0,32.0,130.0,65.0,24.0,36.0,6.0,44.0,4537.0,16170.0,6456.0,18178.0,1865.0,7.0,4647.0,17048.0,6841.0,18296.0,1953.0,14.0,4430.0,16804.0,7444.0,19053.0,1966.0,17.0,4473.0,16836.0,7514.0,18239.0,2002.0,24.0,3971.0,14258.0,8299.0,15082.0
62,21 ST-QNSBRIDGE,40.75417770000001,-73.94247419999998,514.0,997.0,2696.0,2690.0,2733.0,1676.0,579.0,713.0,2196.0,2288.0,2313.0,1409.0,308.0,2581.0,4623.0,3469.0,5036.0,1725.0,265.0,2872.0,4803.0,3786.0,5184.0,1958.0,347.0,2883.0,5058.0,3699.0,5195.0,1994.0,343.0,2647.0,4760.0,3552.0,4986.0,2101.0,356.0,2663.0,4675.0,3787.0,4744.0
63,HOYT-SCHER,40.688828799999996,-73.98531249999998,609.0,530.0,2499.0,4199.0,4337.0,2481.0,586.0,331.0,2030.0,3845.0,3566.0,1599.0,211.0,1555.0,5044.0,4307.0,6359.0,2173.0,284.0,1595.0,5021.0,4706.0,6325.0,2255.0,264.0,1601.0,5038.0,4522.0,6379.0,2168.0,324.0,1479.0,4871.0,4673.0,6394.0,2537.0,317.0,1485.0,4983.0,4826.0,6307.0
64,FRANKLIN AV,40.7190056,-74.0066801,707.0,774.0,2682.0,3199.0,3001.0,2144.0,606.0,538.0,1969.0,2803.0,2631.0,1466.0,248.0,2727.0,6347.0,3147.0,5627.0,2351.0,312.0,2849.0,6449.0,3437.0,5671.0,2633.0,353.0,2843.0,6682.0,3533.0,5635.0,2811.0,426.0,2739.0,6600.0,3713.0,5559.0,2747.0,453.0,2637.0,6193.0,4001.0,5436.0
65,168 ST,40.841041,-73.939971,1691.0,3613.0,8885.0,10426.0,9442.0,5253.0,1411.0,2477.0,6854.0,8749.0,7811.0,3938.0,903.0,6309.0,12680.0,9432.0,13352.0,4684.0,830.0,6476.0,13198.0,10457.0,13777.0,5038.0,1267.0,6733.0,12944.0,9820.0,14260.0,4805.0,1332.0,6072.0,13013.0,9542.0,13770.0,5076.0,1231.0,6303.0,11905.0,10052.0,12631.0
66,NEVINS ST,40.6882963,-73.98052059999999,506.0,642.0,2490.0,4044.0,3736.0,1779.0,431.0,434.0,1651.0,2926.0,2894.0,1247.0,234.0,2193.0,5310.0,4660.0,6675.0,2092.0,254.0,2282.0,5343.0,4694.0,6340.0,2101.0,283.0,2338.0,5337.0,4640.0,6688.0,2085.0,326.0,2095.0,5175.0,4782.0,6582.0,2269.0,321.0,2227.0,5240.0,5304.0,6585.0
67,5 AVE,40.760216299999996,-73.975543,440.0,448.0,1540.0,2610.0,2831.0,1307.0,286.0,198.0,1319.0,2096.0,2246.0,763.0,87.0,1809.0,6703.0,4075.0,9286.0,2322.0,281.0,1577.0,6370.0,4535.0,9792.0,2622.0,267.0,1775.0,5071.0,3644.0,9781.0,,,1683.0,6773.0,4420.0,9702.0,2585.0,309.0,1604.0,5952.0,5039.0,8715.0
68,PROSPECT PARK,40.66087879999999,-73.9621109,775.0,810.0,2840.0,4265.0,3917.0,2406.0,837.0,652.0,2589.0,5396.0,4135.0,1642.0,412.0,2419.0,4843.0,3470.0,5371.0,2624.0,549.0,2569.0,5201.0,3543.0,6002.0,3016.0,517.0,2581.0,5333.0,3716.0,6181.0,3061.0,603.0,2295.0,5053.0,3604.0,5890.0,3029.0,581.0,2387.0,5300.0,4387.0,5702.0
69,CENTRAL PK N110,40.798737599999995,-73.9522934,652.0,842.0,2498.0,3459.0,3210.0,2090.0,625.0,603.0,2043.0,2989.0,2627.0,1545.0,335.0,2450.0,4632.0,3575.0,4989.0,2054.0,419.0,2591.0,4809.0,3754.0,4772.0,2183.0,378.0,2603.0,4761.0,3815.0,4854.0,2126.0,435.0,2276.0,4624.0,3511.0,4814.0,2333.0,461.0,2459.0,4576.0,4010.0,4969.0
70,LEXINGTON AV/53,40.757698100000006,-73.96907420000001,1476.0,1658.0,5666.0,7385.0,7282.0,4550.0,1112.0,998.0,4139.0,6330.0,6165.0,3230.0,434.0,8814.0,28996.0,13815.0,30936.0,6576.0,840.0,9250.0,30046.0,14568.0,31805.0,7346.0,1044.0,9200.0,29841.0,15290.0,32784.0,7829.0,1034.0,8950.0,29205.0,15257.0,32344.0,7872.0,1099.0,8585.0,26821.0,17184.0,27577.0
71,63 DR-REGO PARK,40.7301359,-73.86236729999999,277.0,953.0,2864.0,3847.0,3349.0,1548.0,238.0,637.0,2383.0,3208.0,3063.0,1201.0,176.0,3898.0,6421.0,4207.0,5830.0,1765.0,182.0,4108.0,6599.0,4320.0,5452.0,1909.0,185.0,4015.0,6684.0,4219.0,5745.0,1730.0,232.0,3728.0,6499.0,4490.0,5734.0,1861.0,261.0,3753.0,6338.0,4517.0,5630.0
72,3 AV,40.733135299999994,-73.98675829999998,938.0,373.0,1666.0,2932.0,3431.0,2691.0,985.0,265.0,1389.0,2489.0,2993.0,2062.0,260.0,1133.0,2939.0,2577.0,4334.0,2160.0,303.0,1195.0,3113.0,2324.0,4354.0,2434.0,348.0,1184.0,2992.0,2630.0,4490.0,2682.0,404.0,1149.0,2796.0,2534.0,4514.0,2676.0,446.0,1113.0,2968.0,2846.0,4601.0
73,175 ST,40.847916600000005,-73.9394823,1.0,3.0,3.0,2.0,0.0,1.0,0.0,1.0,0.0,0.0,1.0,1.0,3.0,3022.0,5511.0,3461.0,5368.0,1165.0,6.0,3378.0,5629.0,3785.0,5613.0,1124.0,2.0,1764.0,5747.0,3559.0,5749.0,1130.0,4.0,3183.0,5613.0,3964.0,5982.0,1239.0,2.0,2978.0,5434.0,4040.0,5763.0
74,53 ST,40.760216299999996,-73.975543,478.0,883.0,1999.0,2445.0,2375.0,1403.0,426.0,547.0,1618.0,2004.0,1976.0,1257.0,285.0,2650.0,3131.0,2726.0,4053.0,1528.0,33.0,2460.0,3176.0,2919.0,3833.0,1515.0,30.0,2633.0,3276.0,2920.0,3917.0,1621.0,15.0,2176.0,3249.0,2538.0,4048.0,1512.0,14.0,2507.0,3124.0,2963.0,3869.0
75,110 ST,40.798737599999995,-73.9522934,777.0,1127.0,2973.0,3601.0,3384.0,2313.0,677.0,799.0,2204.0,2791.0,2716.0,1682.0,410.0,3094.0,5242.0,4441.0,5523.0,2167.0,418.0,3143.0,5231.0,4540.0,5627.0,2456.0,408.0,3276.0,5305.0,4764.0,5725.0,2286.0,469.0,2617.0,4921.0,4236.0,5440.0,2353.0,468.0,3173.0,5391.0,4906.0,5571.0
76,BEDFORD-NOSTRAN,40.6898534,-73.9516398,571.0,526.0,2011.0,2662.0,2345.0,1640.0,598.0,383.0,1672.0,2270.0,2078.0,1183.0,213.0,2010.0,4454.0,2281.0,3637.0,1798.0,510.0,2052.0,4413.0,2275.0,3612.0,2124.0,465.0,2139.0,4586.0,2295.0,3670.0,2214.0,520.0,1850.0,4365.0,2117.0,3456.0,1812.0,338.0,1816.0,4301.0,2487.0,3580.0
77,GRAHAM AV,40.714526299999996,-73.94438180000002,727.0,543.0,2316.0,3522.0,3362.0,2337.0,774.0,359.0,1809.0,2883.0,2768.0,1533.0,211.0,1907.0,5245.0,2782.0,4437.0,2118.0,327.0,1995.0,5422.0,2456.0,4384.0,2259.0,447.0,1976.0,5546.0,2921.0,4585.0,2492.0,499.0,1738.0,5347.0,2806.0,4610.0,2574.0,423.0,1756.0,5270.0,3223.0,4591.0
78,46 ST BLISS ST,40.7430691,-73.91824030000002,834.0,1656.0,3754.0,4192.0,4429.0,2740.0,808.0,916.0,2876.0,3614.0,3658.0,2030.0,421.0,2516.0,4061.0,4166.0,6318.0,2938.0,524.0,3791.0,5724.0,4283.0,6142.0,2984.0,570.0,3841.0,5729.0,4323.0,6686.0,2928.0,577.0,3458.0,5648.0,4216.0,6064.0,2941.0,595.0,3747.0,5595.0,4582.0,7575.0
79,CHRISTOPHER ST,40.733578400000006,-74.00287279999998,1412.0,448.0,2240.0,4845.0,5627.0,4311.0,1466.0,341.0,2153.0,4647.0,4654.0,2861.0,407.0,1033.0,3961.0,3086.0,5490.0,3214.0,420.0,1053.0,4024.0,3721.0,5754.0,3552.0,503.0,1051.0,4261.0,3864.0,6323.0,3659.0,466.0,1098.0,4017.0,3522.0,6158.0,4111.0,702.0,1045.0,3767.0,4269.0,6432.0
80,191 ST,40.855738,-73.9306512,878.0,1084.0,2797.0,3523.0,3435.0,2505.0,768.0,783.0,2036.0,,3234.0,2029.0,510.0,2807.0,3831.0,3394.0,5033.0,2579.0,607.0,2657.0,3768.0,3738.0,4859.0,2748.0,561.0,2912.0,3821.0,3571.0,4884.0,2735.0,666.0,2402.0,3289.0,3381.0,4845.0,2774.0,698.0,2733.0,3695.0,3562.0,4819.0
81,ROOSEVELT ISLND,40.7591362,-73.9533215,329.0,359.0,1880.0,2967.0,3007.0,1629.0,344.0,450.0,2911.0,2792.0,2676.0,1239.0,99.0,1467.0,3801.0,2743.0,4264.0,1671.0,135.0,1621.0,4064.0,2960.0,4281.0,1914.0,157.0,1560.0,3979.0,2800.0,4721.0,1863.0,152.0,1359.0,4152.0,2736.0,4582.0,1981.0,160.0,1491.0,4013.0,3147.0,4382.0
82,BROADWAY JCT,40.6789137,-73.9039,,,,,,,,,,,,,,,,,,,,,,,,,,,,,,,,,,,,,,,,,
83,HOYT ST,40.688828799999996,-73.98531249999998,29.0,19.0,20.0,33.0,15.0,22.0,43.0,26.0,38.0,16.0,27.0,36.0,25.0,1095.0,3482.0,3200.0,4402.0,684.0,10.0,1063.0,3335.0,2975.0,4436.0,833.0,48.0,1049.0,3443.0,3216.0,4451.0,778.0,18.0,895.0,3234.0,3067.0,4398.0,814.0,26.0,985.0,3246.0,3519.0,4322.0
84,135 ST,40.817894,-73.947647,656.0,953.0,2863.0,3427.0,2952.0,1925.0,535.0,713.0,2306.0,2854.0,2246.0,1348.0,319.0,2812.0,5169.0,3733.0,4890.0,1812.0,378.0,3086.0,5359.0,3818.0,4806.0,2153.0,406.0,3033.0,5308.0,3882.0,5014.0,1863.0,418.0,2730.0,5371.0,3756.0,4599.0,2047.0,463.0,2865.0,5077.0,4122.0,4668.0
85,ELMHURST AV,40.74244789999999,-73.88198440000001,249.0,1194.0,2880.0,2890.0,2182.0,1167.0,261.0,789.0,2543.0,2511.0,2069.0,991.0,206.0,3701.0,4833.0,2643.0,2778.0,1043.0,196.0,3477.0,4865.0,2805.0,2893.0,1130.0,218.0,,,2797.0,3006.0,1096.0,201.0,3179.0,4993.0,2818.0,2966.0,1154.0,209.0,3657.0,4930.0,2815.0,3144.0
86,RECTOR ST,40.7078954,-74.01363649999998,618.0,546.0,3221.0,4652.0,4706.0,2045.0,523.0,439.0,2334.0,3664.0,3547.0,1448.0,134.0,1960.0,7726.0,4982.0,9582.0,2332.0,317.0,2032.0,8157.0,5442.0,9501.0,2301.0,342.0,1897.0,8277.0,5421.0,10042.0,2578.0,431.0,2111.0,8143.0,5701.0,10227.0,2796.0,431.0,1968.0,7737.0,6389.0,8902.0
87,4AV-9 ST,40.6701803,-73.98929150000002,450.0,554.0,2129.0,2979.0,2639.0,1631.0,406.0,331.0,1578.0,2410.0,2201.0,968.0,162.0,2001.0,4746.0,2940.0,4524.0,1606.0,159.0,2094.0,5008.0,3094.0,4649.0,1743.0,191.0,2161.0,4982.0,2936.0,4573.0,1592.0,196.0,1783.0,4695.0,2932.0,4499.0,1726.0,226.0,2022.0,4675.0,3281.0,4534.0
88,96 ST,40.7858701,-73.95093469999998,117.0,139.0,731.0,1225.0,1186.0,615.0,129.0,125.0,460.0,1019.0,1191.0,514.0,55.0,1969.0,5206.0,3844.0,6437.0,1348.0,100.0,2137.0,5503.0,4000.0,6530.0,1440.0,95.0,2211.0,5464.0,4096.0,6842.0,1509.0,103.0,1850.0,5029.0,4130.0,6550.0,1579.0,88.0,1979.0,5029.0,4376.0,5596.0
89,JAMAICA 179 ST,40.71264420000001,-73.7838184,664.0,2237.0,3272.0,2911.0,2928.0,1634.0,580.0,1396.0,2432.0,2396.0,2324.0,1330.0,504.0,9646.0,7692.0,4416.0,6522.0,2294.0,574.0,10416.0,7388.0,4660.0,6054.0,2593.0,583.0,10753.0,7465.0,4648.0,6904.0,2240.0,564.0,10233.0,7287.0,4641.0,6704.0,2272.0,582.0,9962.0,7137.0,4785.0,6407.0
90,BRIGHTON BEACH,40.5776648,-73.96127690000002,342.0,1136.0,2827.0,3740.0,3306.0,1518.0,387.0,740.0,2208.0,2555.0,2526.0,1104.0,195.0,3217.0,5138.0,5155.0,6057.0,1957.0,260.0,3157.0,4823.0,4731.0,5199.0,1928.0,211.0,3414.0,4927.0,4982.0,5794.0,2020.0,210.0,3043.0,4602.0,4364.0,5828.0,2066.0,263.0,3265.0,5042.0,5580.0,5691.0
91,CARROLL ST,40.679331299999994,-73.9954833,344.0,343.0,1858.0,2699.0,2743.0,1604.0,355.0,269.0,1475.0,2267.0,1976.0,906.0,108.0,2060.0,5649.0,2803.0,4681.0,1415.0,148.0,2117.0,5612.0,3117.0,4670.0,,175.0,4412.0,,3382.0,4876.0,1564.0,174.0,1826.0,5700.0,2823.0,4934.0,1722.0,193.0,1893.0,5504.0,3425.0,4667.0
92,149/GRAND CONC,40.8183248,-73.9274121,871.0,1482.0,3232.0,3830.0,3372.0,1955.0,711.0,1057.0,1902.0,2959.0,2861.0,1571.0,462.0,2792.0,4810.0,5072.0,5441.0,2240.0,774.0,2796.0,4894.0,5160.0,5220.0,2495.0,772.0,2802.0,4741.0,5131.0,5544.0,2419.0,870.0,2688.0,4434.0,4696.0,5317.0,2400.0,847.0,2754.0,4490.0,4993.0,4915.0
93,UNION ST,40.6771729,-73.98324670000001,470.0,332.0,1289.0,2050.0,2271.0,1578.0,421.0,221.0,1138.0,1811.0,1759.0,861.0,131.0,1472.0,3502.0,1918.0,3751.0,1157.0,110.0,1530.0,3514.0,2078.0,3641.0,1299.0,119.0,1430.0,3659.0,1923.0,3749.0,1350.0,123.0,1370.0,3599.0,1944.0,3790.0,1406.0,169.0,1291.0,3329.0,2304.0,3689.0
94,111 ST,40.75172999999999,-73.855334,659.0,2483.0,3587.0,3421.0,3510.0,2468.0,593.0,1232.0,2879.0,2830.0,2862.0,1744.0,374.0,5533.0,4678.0,3458.0,5221.0,1963.0,422.0,5755.0,4453.0,3516.0,4987.0,2083.0,446.0,5888.0,4530.0,3589.0,5360.0,2016.0,431.0,5131.0,4535.0,3302.0,4922.0,2188.0,470.0,5649.0,4435.0,3521.0,5022.0
95,MONTROSE AV,40.7077716,-73.93986329999998,603.0,609.0,1804.0,2676.0,3053.0,2089.0,671.0,398.0,1422.0,2224.0,2084.0,1183.0,220.0,1319.0,2998.0,2006.0,2771.0,1505.0,281.0,1416.0,3026.0,2021.0,2760.0,1648.0,316.0,1485.0,3167.0,2106.0,2870.0,1619.0,352.0,1286.0,3101.0,1770.0,2770.0,1625.0,356.0,1257.0,3012.0,1968.0,2775.0
96,MORGAN AV,40.70607589999999,-73.93370999999998,645.0,661.0,1714.0,2886.0,2809.0,2052.0,771.0,408.0,1357.0,2513.0,2349.0,1378.0,259.0,1396.0,3241.0,2000.0,3213.0,1409.0,293.0,1411.0,3228.0,2140.0,3150.0,1587.0,328.0,1526.0,3195.0,2303.0,3290.0,1571.0,335.0,1404.0,3144.0,2139.0,3310.0,1719.0,420.0,1444.0,483.0,408.0,3574.0
97,90 ST-ELMHURST,40.748436700000006,-73.87652890000001,816.0,2719.0,4461.0,4588.0,4016.0,2484.0,786.0,1496.0,3769.0,3899.0,,,480.0,5707.0,5729.0,4302.0,5927.0,2483.0,608.0,5832.0,5604.0,4451.0,5604.0,2648.0,683.0,6027.0,5829.0,4584.0,5948.0,2513.0,680.0,5345.0,5626.0,4540.0,5610.0,2676.0,710.0,5907.0,5596.0,4439.0,5713.0
98,6 AV,40.7373653,-73.99684529999998,404.0,226.0,1184.0,2119.0,2069.0,1344.0,358.0,173.0,837.0,1582.0,1741.0,857.0,117.0,655.0,1857.0,1415.0,2767.0,1121.0,154.0,676.0,1936.0,1632.0,3029.0,1321.0,150.0,709.0,1916.0,1646.0,3127.0,1381.0,163.0,629.0,1920.0,1486.0,2968.0,1404.0,195.0,627.0,1613.0,1718.0,2960.0
99,BOWERY,40.720166799999994,-73.99353470000001,658.0,382.0,1547.0,2370.0,2746.0,1736.0,670.0,283.0,1289.0,2038.0,2272.0,1320.0,211.0,404.0,1428.0,1493.0,2354.0,1052.0,169.0,415.0,1478.0,1503.0,2287.0,1225.0,271.0,470.0,1445.0,1533.0,2378.0,1159.0,226.0,366.0,1426.0,1551.0,2211.0,1327.0,293.0,398.0,1511.0,1631.0,2510.0
100,BURNSIDE AV,40.85345299999999,-73.90768400000002,644.0,1424.0,2458.0,2904.0,2116.0,1480.0,511.0,981.0,1762.0,2247.0,2244.0,1255.0,344.0,2778.0,3407.0,3476.0,3806.0,1640.0,442.0,2773.0,3464.0,3738.0,3679.0,1769.0,477.0,2895.0,3472.0,3894.0,3685.0,1777.0,463.0,2652.0,3287.0,3503.0,3787.0,1804.0,510.0,2910.0,3344.0,3786.0,3634.0
101,45 ST,40.6493588,-74.00959069999998,206.0,647.0,1627.0,1876.0,1621.0,809.0,232.0,400.0,1202.0,1614.0,1486.0,777.0,141.0,2230.0,2703.0,2005.0,3106.0,1002.0,2.0,2103.0,2793.0,2145.0,3019.0,1040.0,15.0,2160.0,2827.0,2132.0,3024.0,1129.0,11.0,1794.0,2631.0,1964.0,3043.0,1104.0,7.0,2039.0,2796.0,2258.0,3081.0
102,170 ST,40.840050399999996,-73.9133477,799.0,1103.0,2032.0,2522.0,2349.0,1648.0,663.0,669.0,1377.0,1858.0,1864.0,1265.0,381.0,2881.0,3393.0,3368.0,4940.0,1868.0,471.0,2997.0,3562.0,3431.0,4710.0,1990.0,624.0,3056.0,3477.0,3123.0,3910.0,1826.0,526.0,2700.0,3093.0,3116.0,3820.0,1878.0,712.0,2988.0,3418.0,3456.0,4082.0
103,169 ST,40.7104152,-73.79374600000001,376.0,853.0,1643.0,2010.0,2090.0,1127.0,386.0,621.0,1223.0,1610.0,1840.0,918.0,298.0,2676.0,3266.0,3252.0,4662.0,1434.0,305.0,2642.0,3225.0,3066.0,4325.0,1771.0,355.0,2738.0,3328.0,3194.0,4842.0,1556.0,369.0,2510.0,3077.0,2949.0,4646.0,1551.0,367.0,2593.0,3217.0,3348.0,4406.0
104,74 ST-BROADWAY,40.746941899999996,-73.89146020000001,311.0,313.0,1276.0,2127.0,2063.0,1368.0,315.0,228.0,1128.0,2398.0,2624.0,1235.0,240.0,626.0,1291.0,1816.0,2923.0,1300.0,220.0,616.0,1311.0,1740.0,2690.0,1366.0,233.0,673.0,1313.0,1745.0,2699.0,1264.0,208.0,519.0,1257.0,1787.0,2682.0,1354.0,252.0,682.0,1355.0,1763.0,2848.0
105,40 ST LOWERY ST,40.7438729,-73.92423409999998,553.0,870.0,2619.0,3059.0,3095.0,2088.0,562.0,559.0,2043.0,2543.0,2548.0,1577.0,264.0,2932.0,5109.0,3655.0,5578.0,2309.0,329.0,3039.0,5247.0,3866.0,5450.0,2380.0,352.0,3020.0,5237.0,3728.0,5808.0,2471.0,420.0,2440.0,4835.0,3484.0,5136.0,2587.0,450.0,2830.0,5016.0,3980.0,5373.0
106,CASTLE HILL AV,40.83429599999999,-73.85168399999998,558.0,966.0,1579.0,2028.0,1811.0,1356.0,593.0,606.0,1180.0,1463.0,1604.0,1125.0,355.0,2739.0,2549.0,2514.0,3700.0,1549.0,464.0,2822.0,2701.0,2678.0,3587.0,1622.0,456.0,2914.0,2683.0,2596.0,4011.0,1616.0,443.0,2608.0,2513.0,2382.0,3819.0,1546.0,563.0,2761.0,2570.0,2660.0,3821.0
107,HALSEY ST,40.69577750000001,-73.9044092,985.0,1056.0,2085.0,2382.0,2542.0,1887.0,739.0,611.0,1541.0,2060.0,2233.0,1578.0,335.0,2849.0,3398.0,2286.0,3687.0,1755.0,418.0,2842.0,3475.0,2147.0,3627.0,1828.0,414.0,2960.0,3620.0,2417.0,3711.0,1798.0,509.0,2691.0,3441.0,2285.0,3470.0,2099.0,516.0,2773.0,3403.0,2463.0,3444.0
108,CLARK ST,40.6974878,-73.99314090000001,0.0,0.0,0.0,2.0,1.0,0.0,0.0,0.0,0.0,3.0,0.0,1.0,0.0,689.0,2465.0,1504.0,2892.0,815.0,0.0,712.0,2639.0,1548.0,2626.0,618.0,9.0,708.0,2553.0,1736.0,2920.0,703.0,10.0,709.0,2758.0,1709.0,2715.0,677.0,0.0,625.0,2489.0,1960.0,2806.0
109,SUTTER AV-RUTLD,40.664992100000006,-73.92290849999998,511.0,78.0,0.0,1.0,0.0,0.0,0.0,0.0,0.0,5.0,0.0,371.0,287.0,2614.0,2985.0,2699.0,4055.0,1585.0,394.0,2674.0,2965.0,2930.0,4003.0,1545.0,405.0,2761.0,2846.0,2817.0,4100.0,1556.0,376.0,2317.0,2649.0,2628.0,4005.0,1626.0,415.0,2528.0,2839.0,2992.0,3947.0
110,EASTN PKWY-MUSM,40.671993799999996,-73.96420649999999,233.0,334.0,1463.0,2852.0,3298.0,2188.0,255.0,184.0,1024.0,2632.0,2289.0,885.0,97.0,818.0,2306.0,1447.0,2748.0,1152.0,180.0,828.0,2447.0,1729.0,2764.0,1155.0,132.0,876.0,2815.0,2533.0,3647.0,1304.0,135.0,787.0,2725.0,2537.0,3725.0,1454.0,167.0,741.0,3137.0,3065.0,3603.0
111,BAY RIDGE AV,40.634968,-74.023376,250.0,628.0,1566.0,1787.0,1677.0,973.0,279.0,557.0,1507.0,1612.0,1491.0,784.0,202.0,2319.0,2950.0,1995.0,2895.0,978.0,1.0,2091.0,3023.0,2058.0,2863.0,983.0,2.0,2306.0,3171.0,2172.0,2927.0,1029.0,3.0,1888.0,3105.0,2107.0,2863.0,1002.0,1.0,2126.0,3019.0,2136.0,2846.0
112,OZONE PK LEFFRT,40.685956700000006,-73.8257601,394.0,1128.0,1457.0,1606.0,1787.0,1063.0,378.0,739.0,1096.0,1408.0,1352.0,860.0,329.0,3957.0,2397.0,2132.0,3910.0,1398.0,365.0,4196.0,2507.0,2240.0,3819.0,1412.0,332.0,4184.0,2718.0,2049.0,4300.0,1230.0,351.0,3940.0,2515.0,2062.0,3879.0,1575.0,375.0,4033.0,2376.0,2268.0,3816.0
113,JEFFERSON ST,40.7065868,-73.922872,845.0,557.0,1672.0,3350.0,4149.0,2157.0,1081.0,432.0,1173.0,1981.0,1804.0,1156.0,208.0,1518.0,2699.0,1678.0,2486.0,969.0,209.0,1564.0,2708.0,1543.0,2542.0,1111.0,296.0,1599.0,2851.0,1707.0,2617.0,1325.0,374.0,1442.0,2801.0,1724.0,2649.0,1329.0,445.0,1500.0,2717.0,1924.0,2696.0
114,MORISN AV/SNDVW,40.8294898,-73.8746754,595.0,1126.0,1683.0,1954.0,1838.0,1269.0,655.0,736.0,1208.0,1495.0,1481.0,1178.0,399.0,2799.0,2527.0,2299.0,2972.0,1479.0,445.0,2850.0,2466.0,2298.0,2796.0,1593.0,492.0,2981.0,2486.0,1961.0,2904.0,1441.0,503.0,2680.0,1837.0,1566.0,2694.0,1579.0,525.0,2855.0,2390.0,2528.0,2839.0
115,207 ST,40.8676635,-73.9212009,375.0,908.0,2089.0,2554.0,2267.0,1389.0,369.0,627.0,1595.0,2238.0,1974.0,1100.0,234.0,1695.0,2376.0,2140.0,2544.0,1206.0,270.0,1768.0,2372.0,2228.0,2615.0,1301.0,234.0,1848.0,2493.0,2230.0,2441.0,1338.0,264.0,1588.0,2254.0,2205.0,2538.0,1324.0,308.0,1834.0,2378.0,2549.0,2570.0
116,EUCLID AV,40.6754013,-73.8719033,382.0,1250.0,2186.0,2213.0,1826.0,1096.0,301.0,796.0,1665.0,1777.0,1379.0,908.0,228.0,3348.0,3673.0,2664.0,2798.0,1080.0,265.0,3514.0,3658.0,2769.0,2710.0,1148.0,314.0,3572.0,3667.0,2737.0,2729.0,1125.0,294.0,3095.0,3475.0,2555.0,2584.0,1202.0,306.0,3538.0,3635.0,2781.0,2719.0
117,GRAND ARMY PLAZ,40.6752403,-73.97104159999998,150.0,140.0,1169.0,1811.0,1533.0,699.0,123.0,113.0,816.0,1543.0,1236.0,414.0,57.0,1146.0,3525.0,1833.0,2867.0,843.0,46.0,1137.0,3692.0,1952.0,2885.0,1105.0,65.0,1129.0,3548.0,2011.0,2867.0,891.0,80.0,970.0,3564.0,1959.0,2952.0,1004.0,72.0,1007.0,3324.0,2090.0,2742.0
118,PARSONS BLVD,40.707714,-73.8028238,441.0,924.0,1319.0,1524.0,1480.0,855.0,354.0,526.0,1050.0,1189.0,1111.0,802.0,295.0,2383.0,2800.0,2534.0,3308.0,1264.0,389.0,2515.0,2527.0,2534.0,3079.0,1320.0,328.0,2496.0,2964.0,2498.0,3390.0,1224.0,326.0,2313.0,2233.0,2303.0,3162.0,1208.0,330.0,2452.0,2800.0,2602.0,3150.0
119,231 ST,40.87899229999999,-73.904939,231.0,708.0,1673.0,2061.0,1658.0,840.0,195.0,453.0,1270.0,1627.0,1283.0,657.0,129.0,,,2103.0,2587.0,987.0,136.0,2766.0,3252.0,2287.0,2595.0,1017.0,125.0,2871.0,3201.0,2279.0,2521.0,1007.0,162.0,2591.0,3201.0,2284.0,2579.0,1106.0,156.0,2647.0,3049.0,2437.0,2676.0
120,SMITH-9 ST,40.6746048,-73.99703970000002,249.0,579.0,1668.0,1974.0,1712.0,913.0,273.0,250.0,858.0,1414.0,1299.0,657.0,144.0,1670.0,2625.0,2210.0,3064.0,1015.0,175.0,1767.0,2641.0,2187.0,3078.0,998.0,176.0,1772.0,2733.0,2235.0,3336.0,1008.0,184.0,1558.0,2504.0,2130.0,3180.0,1137.0,168.0,1696.0,2657.0,2398.0,2887.0
121,4 AV-9 ST,40.6701803,-73.98929150000002,268.0,233.0,916.0,1328.0,1398.0,947.0,347.0,153.0,698.0,1110.0,1119.0,717.0,107.0,869.0,1852.0,1504.0,3097.0,1156.0,132.0,939.0,1921.0,1550.0,2958.0,1221.0,189.0,917.0,2003.0,1526.0,3247.0,1216.0,171.0,839.0,1989.0,1492.0,3105.0,1281.0,215.0,907.0,1892.0,1727.0,3007.0
122,67 AV,40.7263823,-73.8515929,173.0,530.0,1670.0,1796.0,1584.0,766.0,239.0,382.0,1528.0,1613.0,1407.0,635.0,125.0,2786.0,4184.0,2165.0,3433.0,1047.0,124.0,2820.0,4097.0,2015.0,3164.0,1210.0,132.0,2906.0,4332.0,2183.0,3548.0,1081.0,180.0,2616.0,4220.0,1878.0,3192.0,1151.0,173.0,2669.0,4104.0,2252.0,3077.0
123,ROCKAWAY AV,40.6625632,-73.9089054,361.0,47.0,7.0,10.0,0.0,0.0,0.0,0.0,2.0,0.0,0.0,207.0,247.0,1809.0,2263.0,2189.0,2763.0,1065.0,276.0,1848.0,2402.0,2366.0,2672.0,1117.0,266.0,1853.0,2294.0,2182.0,2714.0,1069.0,286.0,1607.0,2005.0,2160.0,2742.0,1166.0,269.0,1774.0,2204.0,2490.0,2725.0
124,PELHAM BAY PARK,40.852930799999996,-73.8270555,379.0,714.0,1301.0,1895.0,1822.0,1081.0,306.0,449.0,1048.0,1438.0,1413.0,779.0,189.0,3120.0,2536.0,2045.0,2667.0,1072.0,258.0,3138.0,2828.0,2216.0,2580.0,1112.0,245.0,3341.0,2592.0,2230.0,2721.0,1075.0,258.0,3158.0,2492.0,2224.0,2653.0,1204.0,331.0,3097.0,2670.0,2354.0,2761.0
125,CLASSON AV,40.688873,-73.96007,360.0,350.0,1289.0,1779.0,1973.0,1343.0,518.0,238.0,1017.0,1636.0,1667.0,1014.0,180.0,1381.0,2861.0,1749.0,3315.0,1249.0,154.0,1425.0,2889.0,1727.0,3253.0,1328.0,122.0,1448.0,2898.0,1853.0,3390.0,1481.0,145.0,1203.0,2883.0,1734.0,3026.0,1378.0,170.0,1328.0,2688.0,1913.0,3267.0
126,NEW LOTS AV,40.6663015,-73.88371579999998,478.0,66.0,6.0,0.0,0.0,0.0,1.0,1.0,2.0,0.0,0.0,267.0,317.0,2442.0,2321.0,2120.0,3299.0,1394.0,415.0,2557.0,2358.0,2432.0,3180.0,1457.0,440.0,2532.0,2397.0,2454.0,3250.0,1423.0,426.0,2228.0,2231.0,2179.0,2975.0,1534.0,426.0,2405.0,2325.0,2336.0,3130.0
127,GRANT AV,40.6768777,-73.86534619999998,548.0,865.0,1426.0,1655.0,1625.0,1111.0,470.0,562.0,1030.0,1278.0,1241.0,842.0,332.0,2318.0,2392.0,1984.0,2874.0,1241.0,388.0,1786.0,2451.0,2029.0,2732.0,1259.0,403.0,2346.0,2494.0,2038.0,3054.0,1248.0,402.0,2132.0,2399.0,2049.0,2750.0,1345.0,402.0,2113.0,2359.0,1984.0,2791.0
128,STERLING ST,40.6632908,-73.951044,217.0,366.0,1174.0,1326.0,1239.0,754.0,212.0,295.0,985.0,1321.0,1019.0,629.0,113.0,1454.0,2662.0,1703.0,2474.0,883.0,124.0,1505.0,2680.0,1705.0,2416.0,961.0,126.0,1534.0,2714.0,1739.0,2375.0,891.0,123.0,1379.0,2580.0,1727.0,2388.0,971.0,129.0,1403.0,2553.0,1923.0,2452.0
129,PROSPECT AV,40.66541369999999,-73.99292590000002,359.0,333.0,1181.0,1503.0,1345.0,808.0,254.0,221.0,780.0,1150.0,1108.0,547.0,116.0,1520.0,3044.0,1703.0,2768.0,817.0,123.0,1601.0,3133.0,1794.0,2642.0,847.0,162.0,1629.0,3145.0,1698.0,2766.0,927.0,168.0,1389.0,2956.0,1587.0,2572.0,957.0,220.0,1488.0,3011.0,1837.0,2619.0
130,18 ST,40.74122390000001,-73.9980319,337.0,271.0,1411.0,2412.0,2519.0,1306.0,336.0,152.0,941.0,2131.0,2052.0,858.0,109.0,819.0,3683.0,3110.0,5226.0,1343.0,127.0,825.0,4095.0,3449.0,5497.0,1610.0,167.0,761.0,3816.0,3473.0,5477.0,1726.0,174.0,770.0,3596.0,3359.0,5530.0,1859.0,206.0,838.0,3433.0,3754.0,4977.0
131,SARATOGA AV,40.669094,-73.91828199999998,404.0,40.0,1.0,4.0,0.0,0.0,0.0,2.0,3.0,0.0,0.0,243.0,228.0,2231.0,2184.0,1974.0,3206.0,1281.0,324.0,2290.0,2178.0,2096.0,3071.0,1355.0,284.0,2417.0,2332.0,2093.0,3240.0,1291.0,324.0,1294.0,2022.0,1895.0,2905.0,1313.0,294.0,2225.0,2139.0,2047.0,3132.0
132,WILSON AV,40.6887823,-73.90467240000001,590.0,520.0,1270.0,1658.0,1810.0,1253.0,516.0,356.0,993.0,1381.0,1463.0,1031.0,240.0,1342.0,2092.0,1653.0,2479.0,1312.0,312.0,1446.0,2075.0,1567.0,2409.0,1468.0,313.0,1467.0,2096.0,1698.0,2539.0,1424.0,381.0,1280.0,1915.0,1499.0,2345.0,1555.0,403.0,1381.0,2132.0,1763.0,2355.0
133,V.CORTLANDT PK,40.89642429999999,-73.8852842,300.0,820.0,1437.0,1699.0,1405.0,846.0,288.0,435.0,1064.0,1264.0,1193.0,646.0,156.0,2786.0,2332.0,1530.0,2540.0,899.0,158.0,2913.0,2512.0,1902.0,2526.0,980.0,155.0,3004.0,2536.0,1790.0,2735.0,932.0,181.0,2790.0,2583.0,1838.0,2706.0,1059.0,197.0,2802.0,2325.0,1927.0,2582.0
134,WESTCHESTER SQ,40.840124700000004,-73.84282579999999,363.0,739.0,1268.0,1523.0,1330.0,817.0,340.0,479.0,833.0,1135.0,992.0,676.0,190.0,2108.0,2701.0,2540.0,3236.0,1110.0,235.0,2237.0,2852.0,2748.0,3298.0,1139.0,253.0,2368.0,2816.0,2642.0,3374.0,1162.0,286.0,2081.0,2480.0,2461.0,3175.0,1238.0,283.0,2270.0,2650.0,2638.0,3029.0
135,FAR ROCKAWAY,40.6077527,-73.7517548,426.0,878.0,1284.0,1229.0,1476.0,893.0,347.0,561.0,936.0,1093.0,1121.0,706.0,315.0,2121.0,1712.0,1666.0,2847.0,1016.0,303.0,2272.0,1802.0,1814.0,2747.0,1045.0,292.0,2288.0,1653.0,1750.0,2915.0,977.0,342.0,1995.0,1726.0,1682.0,2787.0,1163.0,396.0,2185.0,1685.0,1974.0,2892.0
136,WOODLAWN,40.88603699999999,-73.878751,334.0,752.0,1017.0,1270.0,1400.0,904.0,274.0,352.0,743.0,903.0,1154.0,684.0,188.0,2442.0,1848.0,1459.0,1973.0,815.0,207.0,2690.0,1855.0,1643.0,1899.0,824.0,238.0,2706.0,1869.0,1597.0,1937.0,752.0,220.0,2673.0,1742.0,1702.0,2010.0,912.0,265.0,2546.0,1694.0,1724.0,1976.0
137,CORTELYOU RD,40.6412697,-73.9639694,206.0,584.0,1619.0,1648.0,1413.0,809.0,214.0,411.0,1294.0,1597.0,1144.0,534.0,145.0,1834.0,2663.0,1624.0,1714.0,684.0,134.0,1831.0,2767.0,1555.0,1581.0,672.0,135.0,1964.0,2802.0,1715.0,1737.0,694.0,150.0,1612.0,2669.0,1531.0,1586.0,802.0,172.0,1801.0,2673.0,1749.0,1794.0
138,BERGEN ST,40.686083200000006,-73.9909074,247.0,131.0,731.0,1042.0,1023.0,560.0,128.0,87.0,575.0,974.0,870.0,372.0,60.0,671.0,2231.0,1081.0,1924.0,591.0,46.0,722.0,2209.0,1083.0,1842.0,634.0,53.0,698.0,2242.0,1167.0,2041.0,837.0,75.0,620.0,2172.0,997.0,1854.0,643.0,59.0,674.0,2199.0,1274.0,1989.0
139,BEDFORD PK BLVD,40.8732636,-73.8871965,296.0,610.0,1079.0,1255.0,1274.0,930.0,263.0,417.0,886.0,1170.0,877.0,568.0,193.0,1717.0,1892.0,2248.0,2197.0,971.0,227.0,1605.0,1929.0,1641.0,2085.0,885.0,248.0,1870.0,1775.0,2052.0,3417.0,1005.0,232.0,1469.0,2063.0,2124.0,2108.0,1002.0,245.0,1809.0,1678.0,1984.0,2121.0
140,HARLEM 148 ST,40.8240504,-73.9369385,269.0,402.0,995.0,1315.0,1281.0,855.0,260.0,258.0,747.0,1015.0,1013.0,615.0,139.0,1289.0,1847.0,1512.0,2126.0,847.0,160.0,1367.0,1852.0,1397.0,2005.0,952.0,180.0,1396.0,1952.0,1666.0,2141.0,857.0,186.0,1059.0,1626.0,1366.0,1972.0,941.0,179.0,1267.0,1827.0,1609.0,1997.0
141,BAY RIDGE-95 ST,40.6167174,-74.0308527,196.0,417.0,1251.0,1296.0,1140.0,669.0,238.0,299.0,918.0,1052.0,960.0,558.0,129.0,2142.0,2552.0,1583.0,2577.0,825.0,15.0,2205.0,2643.0,1687.0,2585.0,951.0,24.0,2191.0,2807.0,1680.0,2667.0,1044.0,13.0,2038.0,2711.0,1701.0,2614.0,951.0,15.0,2044.0,2534.0,1660.0,2460.0
142,CLINTON-WASH AV,40.683498900000004,-73.9668944,368.0,376.0,1568.0,1854.0,1857.0,1303.0,440.0,241.0,1108.0,1739.0,1655.0,880.0,127.0,1682.0,3929.0,2055.0,3472.0,1309.0,182.0,1731.0,4094.0,2147.0,3368.0,1421.0,240.0,1739.0,4327.0,2284.0,3809.0,1424.0,256.0,1505.0,4071.0,2096.0,3407.0,1521.0,261.0,1596.0,3952.0,2621.0,3241.0
143,KINGSTON-THROOP,40.679826500000004,-73.94112940000001,686.0,569.0,1642.0,2107.0,1929.0,1434.0,709.0,404.0,1389.0,1729.0,1721.0,1240.0,393.0,1621.0,3154.0,2106.0,3177.0,1562.0,461.0,1652.0,3238.0,2216.0,3109.0,1650.0,433.0,1667.0,3299.0,2227.0,3181.0,1849.0,466.0,1539.0,3208.0,2134.0,3130.0,1790.0,558.0,1589.0,3241.0,2679.0,2894.0
144,ST LAWRENCE AV,40.8315326,-73.8672593,434.0,733.0,1026.0,1181.0,1210.0,849.0,409.0,493.0,802.0,1052.0,1023.0,736.0,235.0,1703.0,1581.0,1504.0,1939.0,1026.0,310.0,1783.0,1584.0,1557.0,1946.0,1036.0,317.0,1822.0,1511.0,1355.0,2041.0,1012.0,326.0,1638.0,1454.0,1464.0,1910.0,915.0,358.0,1781.0,1540.0,1622.0,1991.0
145,176 ST,40.8484597,-73.9117411,318.0,799.0,1204.0,1426.0,1205.0,975.0,323.0,474.0,779.0,961.0,1132.0,760.0,261.0,1886.0,2060.0,1791.0,2123.0,946.0,231.0,2013.0,2182.0,1748.0,2064.0,1035.0,259.0,1997.0,2237.0,1780.0,2219.0,1034.0,262.0,1706.0,1879.0,1785.0,1984.0,1049.0,265.0,1958.0,2157.0,1880.0,2251.0
146,FULTON ST,40.709893,-74.0079818,361.0,347.0,1373.0,2366.0,2383.0,1542.0,325.0,207.0,996.0,1943.0,2058.0,988.0,111.0,1149.0,2118.0,2719.0,3560.0,1328.0,119.0,1080.0,2346.0,2077.0,3171.0,1273.0,98.0,1197.0,2199.0,2663.0,3850.0,1728.0,141.0,897.0,2064.0,1755.0,3120.0,1174.0,132.0,1129.0,2054.0,2822.0,3697.0
147,AVENUE J,40.6252684,-73.9607296,194.0,528.0,1325.0,1416.0,1253.0,663.0,169.0,440.0,1540.0,1696.0,1370.0,651.0,134.0,1716.0,2650.0,2082.0,2621.0,880.0,127.0,1623.0,2646.0,2044.0,2348.0,889.0,131.0,1650.0,2673.0,2114.0,2516.0,849.0,120.0,1506.0,2660.0,1795.0,2463.0,950.0,182.0,1745.0,2572.0,2125.0,2171.0
148,183 ST,40.8583924,-73.90397810000002,335.0,930.0,1269.0,1444.0,1305.0,912.0,315.0,552.0,968.0,1120.0,1085.0,746.0,238.0,2095.0,1971985817.0,1781.0,1997.0,914.0,254.0,2128.0,1908.0,1396.0,1944.0,1009.0,282.0,2156.0,1986.0,1201.0,2098.0,995.0,326.0,1874.0,1928.0,1580.0,2032.0,1122.0,308.0,2128.0,1916.0,1271.0,2061.0
149,18 AV,40.6201053,-73.9894661,233.0,1034.0,2209.0,2117.0,1709.0,813.0,259.0,663.0,1895.0,1844.0,1607.0,731.0,167.0,3276.0,3861.0,2559.0,3187.0,891.0,159.0,3311.0,3948.0,2706.0,3039.0,941.0,184.0,3404.0,3983.0,2687.0,3224.0,940.0,181.0,3132.0,3895.0,2506.0,3265.0,988.0,187.0,3326.0,1387.0,2715.0,3055.0
150,KINGSTON AV,40.669284499999996,-73.9422927,306.0,303.0,931.0,1126.0,1065.0,704.0,371.0,278.0,1066.0,1405.0,1408.0,708.0,191.0,1165.0,2261.0,1590.0,2412.0,1074.0,220.0,1183.0,2237.0,1655.0,2360.0,1047.0,219.0,1188.0,2266.0,1691.0,2319.0,1073.0,235.0,1128.0,2226.0,1675.0,2265.0,1115.0,251.0,1125.0,2244.0,2296.0,2185.0
151,BEVERLEY ROAD,40.644229100000004,-73.96449799999998,294.0,343.0,893.0,1120.0,1226.0,821.0,286.0,260.0,799.0,1035.0,1084.0,613.0,182.0,1087.0,1606.0,1084.0,1936.0,865.0,201.0,1049.0,1604.0,1152.0,1783.0,971.0,207.0,1135.0,1663.0,1307.0,1936.0,980.0,253.0,950.0,1706.0,1073.0,1854.0,967.0,276.0,1061.0,1558.0,1127.0,1786.0
152,71 ST,40.619621200000005,-73.99877699999998,251.0,855.0,1761.0,1329.0,1274.0,775.0,170.0,557.0,1605.0,1143.0,971.0,533.0,126.0,2206.0,2429.0,1136.0,1694.0,606.0,127.0,2183.0,2451.0,1376.0,1745.0,721.0,157.0,2190.0,2474.0,1204.0,1671.0,633.0,158.0,1878.0,,1181.0,1635.0,,170.0,2098.0,2326.0,1198.0,1611.0
153,ST. GEORGE,40.64400390000001,-74.07332480000001,382.0,532.0,940.0,1125.0,1196.0,775.0,411.0,322.0,693.0,886.0,859.0,453.0,177.0,3843.0,1346.0,1485.0,5405.0,837.0,250.0,3895.0,2752.0,1878.0,5570.0,919.0,276.0,3950.0,2691.0,1822.0,5726.0,1023.0,255.0,3745.0,2736.0,1710.0,5579.0,1045.0,338.0,3447.0,2511.0,1853.0,5011.0
154,MT EDEN AV,40.844528499999996,-73.9146157,428.0,693.0,1172.0,1277.0,1211.0,990.0,352.0,435.0,735.0,865.0,1005.0,804.0,223.0,1870.0,2107.0,1788.0,2311.0,970.0,283.0,1886.0,2005.0,1855.0,2282.0,986.0,300.0,1944.0,2124.0,1875.0,2383.0,1046.0,340.0,1728.0,1941.0,1738.0,2273.0,1069.0,362.0,1812.0,2011.0,1794.0,2381.0
155,MARBLE HILL-225,40.8743487,-73.91043309999998,159.0,483.0,1009.0,1378.0,1171.0,633.0,148.0,316.0,699.0,1023.0,1037.0,490.0,88.0,1533.0,1638.0,1423.0,1759.0,614.0,75.0,1642.0,1778.0,1490.0,1752.0,639.0,92.0,1611.0,1668.0,1418.0,1735.0,674.0,86.0,1482.0,1738.0,1429.0,1714.0,651.0,116.0,1536.0,1697.0,1552.0,1763.0
156,174-175 STS,40.846524,-73.90972690000001,170.0,582.0,1082.0,1222.0,956.0,622.0,162.0,443.0,782.0,958.0,848.0,466.0,138.0,1475.0,1878.0,1539.0,1827.0,550.0,178.0,1488.0,2064.0,1590.0,1768.0,561.0,171.0,1540.0,1993.0,1511.0,1830.0,560.0,191.0,1315.0,1833.0,1545.0,1808.0,565.0,178.0,1506.0,1848.0,1710.0,1885.0
157,33 ST-RAWSON ST,40.744587,-73.93099699999998,180.0,702.0,1757.0,2150.0,1273.0,468.0,153.0,371.0,907.0,1154.0,953.0,336.0,182.0,2412.0,6199.0,5991.0,6995.0,1722.0,169.0,2061.0,4460.0,4671.0,5517.0,1474.0,198.0,2610.0,5865.0,5671.0,6772.0,1795.0,179.0,2144.0,5188.0,5611.0,6360.0,1761.0,183.0,2501.0,4704.0,4767.0,4602.0
158,CITY HALL,40.7135245,-74.00671009999998,125.0,140.0,878.0,1615.0,1368.0,616.0,57.0,88.0,615.0,1175.0,1190.0,358.0,37.0,759.0,2390.0,2375.0,3985.0,862.0,80.0,796.0,2138.0,2075.0,3980.0,888.0,76.0,869.0,2984.0,2705.0,3866.0,887.0,87.0,673.0,2746.0,2558.0,4101.0,990.0,85.0,753.0,,,3466.0
159,182-183 STS,40.8560934,-73.90102949999998,203.0,673.0,1023.0,1086.0,872.0,587.0,238.0,494.0,774.0,865.0,769.0,549.0,173.0,1572.0,1578.0,1388.0,1323.0,577.0,114.0,1592.0,1583.0,1559.0,1283.0,566.0,97.0,1617.0,1695.0,1511.0,1336.0,515.0,113.0,1425.0,1536.0,1392.0,1294.0,586.0,137.0,1539.0,1566.0,1571.0,1342.0
160,PRESIDENT ST,40.668158500000004,-73.95065859999998,230.0,342.0,841.0,1058.0,936.0,743.0,226.0,215.0,632.0,979.0,839.0,646.0,145.0,1212.0,2172.0,1600.0,2416.0,804.0,129.0,1289.0,2186.0,1667.0,2376.0,890.0,117.0,1280.0,2247.0,1682.0,2556.0,825.0,101.0,1005.0,1998.0,1574.0,2375.0,802.0,100.0,1258.0,2114.0,1832.0,2275.0
161,77 ST,40.7736346,-73.95982939999998,134.0,340.0,1008.0,1141.0,922.0,475.0,133.0,217.0,860.0,951.0,837.0,380.0,75.0,1838.0,2367.0,1136.0,1835.0,515.0,3.0,1897.0,2465.0,1266.0,1830.0,530.0,2.0,1961.0,2441.0,1259.0,1934.0,577.0,0.0,1755.0,2486.0,1410.0,1895.0,618.0,2.0,1681.0,2286.0,1217.0,1795.0
162,GUN HILL RD,40.87773920000001,-73.86630459999998,140.0,544.0,752.0,846.0,602.0,485.0,104.0,325.0,521.0,607.0,493.0,361.0,131.0,2403.0,1749.0,1230.0,1160.0,413.0,130.0,2442.0,1791.0,1227.0,1142.0,495.0,130.0,2575.0,1817.0,1274.0,1237.0,425.0,100.0,2267.0,1701.0,1208.0,1089.0,484.0,108.0,2352.0,1753.0,1242.0,1174.0
163,79 ST,40.783934,-73.979917,133.0,815.0,1761.0,1120.0,967.0,484.0,120.0,465.0,1438.0,924.0,755.0,394.0,72.0,2288.0,2818.0,1405.0,1531.0,543.0,106.0,2179.0,2559.0,1260.0,1600.0,513.0,116.0,2385.0,2807.0,1376.0,1431.0,546.0,91.0,1997.0,2385.0,1081.0,1404.0,546.0,119.0,2263.0,2621.0,1336.0,1459.0
164,190 ST,40.858887700000004,-73.93422159999999,1.0,0.0,1.0,0.0,1.0,0.0,0.0,0.0,0.0,0.0,0.0,0.0,0.0,1280.0,1985.0,1347.0,1571.0,317.0,6.0,1252.0,2216.0,1515.0,1639.0,331.0,5.0,1256.0,2130.0,1490.0,1517.0,357.0,13.0,1148.0,2160.0,1513.0,1599.0,391.0,19.0,1189.0,2090.0,1672.0,1508.0
165,20 AV,40.617271,-73.9847709,88.0,603.0,1071.0,1065.0,1007.0,424.0,55.0,369.0,1020.0,1019.0,806.0,380.0,65.0,1792.0,1808.0,1036.0,1436.0,457.0,76.0,1800.0,1759.0,1082.0,1278.0,555.0,86.0,1793.0,1865.0,1166.0,1337.0,499.0,87.0,1646.0,1816.0,1094.0,1421.0,550.0,85.0,1759.0,1775.0,1113.0,1246.0
166,25 ST,40.6604039,-73.99810550000001,257.0,357.0,924.0,1084.0,1055.0,758.0,197.0,219.0,825.0,996.0,873.0,555.0,130.0,1107.0,1918.0,1287.0,2102.0,669.0,135.0,1101.0,1879.0,1378.0,1883.0,703.0,155.0,1127.0,1846.0,1375.0,2006.0,749.0,147.0,1015.0,1825.0,1218.0,1902.0,764.0,174.0,1031.0,1903.0,1515.0,1864.0
167,BRIARWOOD,40.7093666,-73.81988539999998,155.0,324.0,866.0,1021.0,847.0,502.0,137.0,294.0,709.0,797.0,676.0,385.0,107.0,1740.0,2106.0,1661.0,1848.0,698.0,101.0,1870.0,2103.0,1686.0,1803.0,695.0,135.0,1907.0,2048.0,1767.0,2087.0,722.0,134.0,1764.0,1984.0,1771.0,1789.0,768.0,133.0,1743.0,1963.0,1735.0,1724.0
168,AQUEDUCT RACETR,40.6721498,-73.8356843,255.0,250.0,216.0,605.0,938.0,671.0,267.0,174.0,183.0,552.0,942.0,452.0,141.0,209.0,280.0,466.0,,432.0,105.0,174.0,272.0,577.0,615.0,427.0,115.0,229.0,238.0,554.0,673.0,430.0,142.0,211.0,271.0,519.0,874.0,483.0,142.0,231.0,256.0,662.0,924.0
169,PENNSYLVANIA AV,40.6646911,-73.8941747,180.0,21.0,6.0,4.0,4.0,1.0,0.0,3.0,2.0,2.0,3.0,105.0,108.0,1460.0,1581.0,1339.0,1675.0,575.0,133.0,,1664.0,1427.0,,631.0,138.0,1546.0,1605.0,1405.0,1645.0,600.0,149.0,,,1250.0,1488.0,661.0,,,,,
170,AVENUE M,40.6180725,-73.9593745,87.0,428.0,1153.0,1114.0,879.0,471.0,99.0,354.0,1336.0,1340.0,1101.0,477.0,58.0,1766.0,,,2315.0,625.0,77.0,1579.0,2711.0,1928.0,2272.0,575.0,69.0,1874.0,2831.0,2190.0,2343.0,736.0,84.0,1415.0,2493.0,1654.0,2228.0,693.0,85.0,1749.0,2730.0,2227.0,1910.0
171,OCEAN PKWY,40.5762935,-73.9684997,109.0,276.0,798.0,1042.0,817.0,387.0,111.0,200.0,710.0,799.0,656.0,296.0,48.0,931.0,1094.0,1201.0,1271.0,403.0,66.0,,,1023.0,1238.0,426.0,58.0,948.0,1203.0,1269.0,1269.0,449.0,69.0,818.0,1183.0,1005.0,1227.0,424.0,59.0,872.0,1300.0,1328.0,1289.0
172,AVENUE H,40.6297445,-73.96166170000001,175.0,312.0,774.0,918.0,864.0,562.0,182.0,191.0,725.0,756.0,737.0,447.0,103.0,859.0,1624.0,1270.0,1649.0,731.0,146.0,865.0,1617.0,1185.0,1661.0,771.0,191.0,848.0,1659.0,1292.0,1704.0,713.0,147.0,744.0,1495.0,1083.0,1581.0,795.0,155.0,813.0,1452.0,1235.0,1399.0
173,JUNIUS ST,40.67504,-73.904496,134.0,,,0.0,0.0,0.0,0.0,0.0,0.0,0.0,0.0,86.0,68.0,745.0,970.0,995.0,1452.0,491.0,114.0,778.0,,,1328.0,512.0,100.0,833.0,996.0,1035.0,1357.0,479.0,107.0,667.0,959.0,973.0,1325.0,528.0,108.0,815.0,941.0,1061.0,1476.0
174,NECK RD,40.595153100000005,-73.9550266,76.0,479.0,1081.0,815.0,741.0,368.0,75.0,293.0,911.0,760.0,569.0,274.0,58.0,1452.0,1828.0,763.0,1239.0,348.0,59.0,1498.0,1892.0,882.0,1420.0,421.0,52.0,1520.0,1830.0,888.0,1406.0,437.0,60.0,1427.0,1882.0,878.0,1375.0,468.0,66.0,1496.0,1780.0,867.0,1327.0
175,VAN SICLEN AV,40.67274219999999,-73.8903155,219.0,24.0,0.0,0.0,0.0,0.0,0.0,0.0,0.0,0.0,0.0,138.0,155.0,1164.0,1260.0,1125.0,1813.0,709.0,168.0,1237.0,1313.0,1159.0,1723.0,731.0,171.0,1268.0,1309.0,1104.0,1766.0,681.0,233.0,1098.0,1215.0,1163.0,1631.0,788.0,179.0,1155.0,1200.0,1193.0,1760.0
176,138/GRAND CONC,40.8132249,-73.9298111,256.0,487.0,821.0,914.0,946.0,574.0,230.0,268.0,452.0,619.0,649.0,444.0,147.0,1148.0,1399.0,1394.0,1531.0,530.0,224.0,1163.0,1535.0,1444.0,1636.0,545.0,196.0,1137.0,1455.0,1540.0,1542.0,525.0,187.0,1146.0,1351.0,1461.0,1441.0,557.0,203.0,1167.0,1499.0,1454.0,1536.0
177,BEVERLY RD,40.8322067,-73.3848891,130.0,413.0,741.0,796.0,637.0,368.0,127.0,302.0,530.0,663.0,461.0,288.0,61.0,1519.0,1579.0,865.0,877.0,354.0,70.0,1537.0,1603.0,944.0,861.0,389.0,81.0,1534.0,1598.0,941.0,905.0,346.0,96.0,1372.0,1525.0,904.0,919.0,401.0,84.0,1489.0,1559.0,931.0,909.0
178,75 AV,40.718331,-73.837324,72.0,128.0,521.0,616.0,561.0,247.0,65.0,102.0,516.0,523.0,405.0,214.0,38.0,936.0,1585.0,723.0,932.0,312.0,37.0,909.0,1668.0,711.0,974.0,337.0,33.0,940.0,1661.0,728.0,958.0,340.0,60.0,838.0,1675.0,736.0,972.0,346.0,64.0,826.0,1560.0,752.0,970.0
179,BUSHWICK AV,40.7002958,-73.94116439999998,255.0,257.0,669.0,886.0,828.0,564.0,266.0,177.0,535.0,699.0,671.0,436.0,106.0,640.0,911.0,668.0,908.0,566.0,143.0,645.0,970.0,732.0,1013.0,627.0,139.0,669.0,986.0,768.0,977.0,590.0,163.0,608.0,903.0,706.0,1001.0,628.0,167.0,654.0,941.0,840.0,928.0
180,BEACH 67 ST,40.5909714,-73.79631690000001,184.0,350.0,573.0,941.0,737.0,421.0,138.0,259.0,452.0,471.0,468.0,286.0,121.0,1007.0,776.0,780.0,1008.0,472.0,158.0,1051.0,814.0,875.0,1023.0,470.0,114.0,1114.0,781.0,802.0,1066.0,472.0,145.0,958.0,791.0,,946.0,,180.0,1027.0,820.0,993.0,1092.0
181,WHITLOCK AV,40.82674420000001,-73.88634559999998,125.0,336.0,546.0,712.0,642.0,446.0,120.0,233.0,425.0,557.0,502.0,352.0,109.0,788.0,775.0,811.0,1068.0,398.0,123.0,821.0,787.0,815.0,1059.0,478.0,119.0,909.0,776.0,721.0,1072.0,430.0,124.0,758.0,685.0,672.0,1039.0,503.0,108.0,823.0,864.0,879.0,1001.0
182,W 8 ST-AQUARIUM,40.57612779999999,-73.97596539999998,49.0,135.0,579.0,1330.0,1255.0,385.0,65.0,121.0,480.0,875.0,709.0,183.0,37.0,498.0,979.0,897.0,884.0,216.0,13.0,507.0,328.0,1380.0,987.0,202.0,24.0,599.0,1186.0,1152.0,1007.0,235.0,30.0,522.0,1486.0,1633.0,1389.0,305.0,29.0,565.0,1436.0,1876.0,1650.0
183,PARK PLACE,40.7132422,-74.0092559,11.0,6.0,14.0,1.0,0.0,0.0,0.0,1.0,17.0,11.0,2.0,6.0,2.0,414.0,1911.0,1150.0,2363.0,257.0,5.0,459.0,2097.0,1354.0,2310.0,308.0,1.0,467.0,2028.0,1316.0,2446.0,287.0,0.0,445.0,1989.0,1470.0,2333.0,300.0,0.0,437.0,1758.0,1551.0,1989.0
184,215 ST,40.8695946,-73.9153019,131.0,216.0,781.0,896.0,827.0,406.0,144.0,181.0,632.0,1063.0,961.0,362.0,82.0,485.0,754.0,816.0,930.0,424.0,96.0,493.0,787.0,898.0,956.0,526.0,105.0,512.0,838.0,873.0,982.0,468.0,92.0,397.0,775.0,851.0,979.0,525.0,94.0,439.0,775.0,865.0,891.0
185,HOWARD BCH JFK,40.660476,-73.83030099999998,,,,,,,,,,,,,,,,,,,,,,,,,,,,,,,,,,,,,,,,,
186,BEACH 25 ST,40.59946790000001,-73.7618536,205.0,292.0,179.0,304.0,450.0,377.0,172.0,206.0,312.0,381.0,371.0,308.0,155.0,1052.0,709.0,736.0,1085.0,538.0,155.0,1050.0,670.0,717.0,1115.0,530.0,140.0,1116.0,713.0,742.0,1158.0,513.0,180.0,857.0,600.0,544.0,1013.0,555.0,182.0,1074.0,708.0,792.0,939.0
187,BEACH 60 ST,40.59244,-73.78928300000003,196.0,322.0,481.0,622.0,543.0,395.0,179.0,220.0,385.0,439.0,424.0,326.0,143.0,921.0,786.0,739.0,921.0,406.0,151.0,963.0,775.0,747.0,920.0,400.0,134.0,975.0,776.0,752.0,942.0,404.0,166.0,806.0,783.0,706.0,903.0,454.0,188.0,936.0,763.0,843.0,890.0
188,ATLANTIC AV,40.675554,-73.90305759999998,61.0,197.0,381.0,476.0,352.0,226.0,61.0,121.0,261.0,316.0,297.0,171.0,40.0,662.0,688.0,507.0,718.0,230.0,52.0,701.0,691.0,521.0,775.0,250.0,56.0,729.0,641.0,509.0,748.0,248.0,60.0,553.0,613.0,474.0,732.0,276.0,60.0,695.0,690.0,612.0,767.0
189,BEACH 36 ST,40.595532,-73.7681238,92.0,142.0,217.0,220.0,311.0,194.0,113.0,105.0,171.0,203.0,205.0,148.0,73.0,474.0,340.0,362.0,589.0,248.0,91.0,476.0,349.0,361.0,533.0,208.0,91.0,486.0,352.0,353.0,589.0,254.0,82.0,419.0,315.0,317.0,531.0,276.0,106.0,455.0,325.0,352.0,495.0
190,55 ST,40.6315514,-73.9956328,65.0,131.0,392.0,369.0,362.0,175.0,58.0,140.0,473.0,518.0,535.0,216.0,51.0,457.0,880.0,755.0,1101.0,255.0,59.0,415.0,913.0,786.0,1025.0,292.0,81.0,454.0,868.0,732.0,1054.0,278.0,79.0,397.0,837.0,766.0,964.0,290.0,56.0,433.0,844.0,861.0,811.0
191,104 ST,40.695145600000004,-73.8443046,126.0,541.0,734.0,725.0,631.0,399.0,115.0,322.0,563.0,532.0,511.0,346.0,129.0,1819.0,1391.0,1036.0,1390.0,472.0,116.0,1911.0,1394.0,942.0,1279.0,510.0,110.0,1877.0,1443.0,939.0,1391.0,481.0,114.0,1746.0,1362.0,880.0,1308.0,530.0,140.0,1858.0,1353.0,1019.0,1284.0
192,BEACH 44 ST,40.592920899999996,-73.77594839999998,76.0,142.0,190.0,221.0,228.0,178.0,93.0,112.0,149.0,177.0,181.0,143.0,67.0,381.0,266.0,271.0,449.0,204.0,64.0,372.0,257.0,299.0,423.0,258.0,70.0,391.0,269.0,300.0,435.0,232.0,72.0,318.0,274.0,267.0,384.0,239.0,78.0,366.0,257.0,277.0,360.0
193,WORLD TRADE CTR,40.712645200000004,-74.00989799999998,496.0,657.0,2879.0,5077.0,5145.0,2220.0,391.0,404.0,2449.0,3950.0,4245.0,1598.0,202.0,3103.0,8966.0,5968.0,12561.0,2692.0,444.0,3185.0,8711.0,6320.0,12894.0,3165.0,485.0,3192.0,8832.0,6546.0,13054.0,3137.0,487.0,2994.0,9147.0,504556.0,13324.0,3730.0,540.0,2632.0,8413.0,7818.0,11844.0
194,NASSAU AV,40.7238944,-73.9506777,594.0,476.0,1670.0,2884.0,2845.0,1707.0,646.0,259.0,1155.0,2034.0,2189.0,1098.0,178.0,1813.0,3988.0,2225.0,4268.0,901.0,9.0,1821.0,4069.0,2470.0,4259.0,941.0,2.0,1798.0,4237.0,2375.0,4633.0,1045.0,8.0,1665.0,4054.0,2245.0,4420.0,999.0,1.0,1610.0,3878.0,2553.0,4172.0
195,39 AV,40.752689700000005,-73.9328056,184.0,0.0,1.0,3.0,8.0,0.0,0.0,2.0,4.0,6.0,5.0,79.0,90.0,1015.0,2508.0,1384.0,2169.0,585.0,144.0,1169.0,2608.0,1393.0,2180.0,626.0,137.0,1184.0,2624.0,1442.0,2180.0,636.0,148.0,1085.0,2620.0,1539.0,2280.0,721.0,171.0,1034.0,2634.0,1841.0,2254.0
196,36 AV,40.7668516,-73.921313,,,,,,,,,,,,,,,,,,,,,,,,,,,,,,,,,,,,,,,,,
197,BROADWAY,40.7623472,-73.9256595,839.0,0.0,1.0,0.0,0.0,0.0,0.0,0.0,0.0,0.0,0.0,508.0,397.0,3945.0,8762.0,4419.0,7117.0,3058.0,482.0,4190.0,9058.0,4638.0,7164.0,3455.0,587.0,4324.0,9269.0,4605.0,7335.0,3320.0,581.0,3893.0,8911.0,4136.0,7052.0,3538.0,605.0,3946.0,8552.0,5071.0,7208.0
198,COURT SQ-23 ST,40.748050799999994,-73.94704779999998,168.0,329.0,1098.0,1262.0,1013.0,555.0,150.0,176.0,723.0,874.0,758.0,444.0,100.0,1260.0,2379.0,1790.0,2360.0,670.0,122.0,1566.0,2867.0,1623.0,2515.0,785.0,118.0,1352.0,2377.0,1725.0,2640.0,711.0,162.0,1142.0,2252.0,1518.0,2590.0,868.0,137.0,1306.0,2353.0,1985.0,2414.0
199,ASTORIA DITMARS,40.7750119,-73.91211,839.0,15.0,3.0,0.0,0.0,5.0,3.0,6.0,0.0,0.0,2.0,447.0,327.0,3948.0,7038.0,3389.0,5534.0,2670.0,514.0,4146.0,7602.0,3671.0,5058.0,2154.0,399.0,4102.0,7744.0,3486.0,5245.0,3106.0,620.0,3953.0,7522.0,3389.0,5960.0,3376.0,629.0,3802.0,7254.0,4175.0,6341.0
200,CYPRESS HILLS,40.68994860000001,-73.87257310000003,61.0,184.0,294.0,314.0,305.0,202.0,59.0,124.0,197.0,258.0,235.0,169.0,44.0,648.0,542.0,396.0,618.0,174.0,51.0,627.0,534.0,485.0,644.0,184.0,61.0,684.0,586.0,514.0,661.0,201.0,50.0,570.0,432.0,416.0,604.0,221.0,52.0,684.0,509.0,425.0,578.0
201,30 AV,40.7668516,-73.921313,,,,,,,,,,,,,,,,,,,,,,,,,,,,,,,,,,,,,,,,,
202,121 ST,40.7006094,-73.8281286,71.0,171.0,194.0,241.0,239.0,160.0,73.0,100.0,148.0,177.0,208.0,122.0,46.0,430.0,388.0,337.0,458.0,158.0,73.0,445.0,384.0,366.0,434.0,167.0,53.0,446.0,375.0,327.0,452.0,188.0,58.0,410.0,406.0,262.0,405.0,186.0,68.0,441.0,375.0,334.0,475.0
203,75 ST-ELDERTS,40.69143649999999,-73.8665512,208.0,600.0,967.0,839.0,825.0,481.0,212.0,341.0,585.0,632.0,629.0,379.0,124.0,1577.0,1450.0,1148.0,1599.0,574.0,129.0,1581.0,1332.0,1203.0,1410.0,571.0,155.0,1708.0,1343.0,1104.0,1548.0,555.0,141.0,1401.0,1133.0,928.0,1339.0,549.0,138.0,1678.0,1320.0,1215.0,1367.0
204,AVENUE X,40.589682200000006,-73.9742509,79.0,378.0,599.0,668.0,505.0,303.0,98.0,197.0,446.0,436.0,438.0,264.0,71.0,1185.0,1152.0,847.0,1361.0,500.0,85.0,1253.0,1197.0,904.0,1227.0,547.0,87.0,1250.0,1219.0,945.0,1358.0,451.0,92.0,1168.0,1152.0,817.0,1285.0,485.0,104.0,1207.0,1124.0,903.0,1155.0
205,AVENUE P,40.6087814,-73.97290840000001,19.0,94.0,264.0,227.0,177.0,68.0,14.0,97.0,224.0,232.0,135.0,75.0,12.0,414.0,497.0,239.0,269.0,86.0,15.0,381.0,520.0,303.0,299.0,79.0,22.0,383.0,505.0,264.0,295.0,83.0,12.0,334.0,474.0,279.0,299.0,86.0,15.0,347.0,442.0,330.0,287.0
206,85 ST-FOREST PK,40.6924861,-73.8590708,254.0,620.0,962.0,954.0,909.0,540.0,192.0,335.0,753.0,731.0,819.0,462.0,182.0,1639.0,1485.0,1249.0,1762.0,763.0,210.0,1605.0,1507.0,1350.0,1665.0,747.0,218.0,1727.0,1463.0,1217.0,1831.0,803.0,218.0,1508.0,1434.0,1187.0,1692.0,811.0,210.0,1634.0,1380.0,1311.0,1820.0
207,WOODHAVEN BLVD,40.6939097,-73.85139269999998,185.0,628.0,946.0,467.0,465.0,607.0,167.0,369.0,770.0,805.0,801.0,468.0,111.0,1741.0,1672.0,1222.0,1838.0,658.0,134.0,1805.0,1675.0,1421.0,1668.0,627.0,140.0,1883.0,1636.0,1353.0,1848.0,679.0,127.0,1566.0,1476.0,1226.0,1683.0,664.0,153.0,1789.0,1562.0,1399.0,1761.0
208,METROPOLITAN AV,40.712132700000005,-73.889276,110.0,284.0,748.0,1065.0,1062.0,440.0,101.0,162.0,538.0,932.0,853.0,357.0,67.0,1586.0,1369.0,1381.0,2270.0,580.0,120.0,1591.0,1431.0,1267.0,2308.0,654.0,97.0,1663.0,1378.0,1456.0,2166.0,572.0,108.0,1605.0,1385.0,1349.0,2204.0,665.0,104.0,1541.0,1399.0,1290.0,2252.0
209,GREENPOINT AV,40.7301618,-73.9540458,729.0,636.0,2260.0,3692.0,3756.0,1879.0,627.0,349.0,1623.0,2934.0,2854.0,1240.0,215.0,2186.0,4569.0,2896.0,5231.0,1077.0,2.0,2166.0,4556.0,3007.0,5240.0,1300.0,103.0,2176.0,4708.0,3127.0,5743.0,1287.0,0.0,2003.0,4602.0,3017.0,5713.0,1524.0,0.0,2006.0,4467.0,3673.0,5593.0
