,StationName,Latitude,Longitude,2018-08-11 00:00:00,2018-08-11 04:00:00,2018-08-11 08:00:00,2018-08-11 12:00:00,2018-08-11 16:00:00,2018-08-11 20:00:00,2018-08-12 00:00:00,2018-08-12 04:00:00,2018-08-12 08:00:00,2018-08-12 12:00:00,2018-08-12 16:00:00,2018-08-12 20:00:00,2018-08-13 00:00:00,2018-08-13 04:00:00,2018-08-13 08:00:00,2018-08-13 12:00:00,2018-08-13 16:00:00,2018-08-13 20:00:00,2018-08-14 00:00:00,2018-08-14 04:00:00,2018-08-14 08:00:00,2018-08-14 12:00:00,2018-08-14 16:00:00,2018-08-14 20:00:00,2018-08-15 00:00:00,2018-08-15 04:00:00,2018-08-15 08:00:00,2018-08-15 12:00:00,2018-08-15 16:00:00,2018-08-15 20:00:00,2018-08-16 00:00:00,2018-08-16 04:00:00,2018-08-16 08:00:00,2018-08-16 12:00:00,2018-08-16 16:00:00,2018-08-16 20:00:00,2018-08-17 00:00:00,2018-08-17 04:00:00,2018-08-17 08:00:00,2018-08-17 12:00:00,2018-08-17 16:00:00
0,34 ST-HERALD SQ,40.748897899999996,-73.98878859999998,5702.0,4877.0,18393.0,31571.0,35746.0,19896.0,4176.0,3531.0,16409.0,29275.0,32724.0,17470.0,2124.0,17173069.0,60210.0,40238.0,82837.0,24048.0,2394.0,17194.0,63673.0,46573.0,87106.0,26114.0,2653.0,17607.0,63821.0,46074.0,88709.0,29690.0,2952.0,17317.0,63605.0,46917.0,87420.0,28985.0,3600.0,16053.0,56778.0,53452.0,77344.0
1,TIMES SQ-42 ST,40.7545563,-73.98667370000001,7657.0,4570.0,14990.0,27308.0,34308.0,25443.0,6666.0,3452.0,14882.0,29667.0,32335.0,21112.0,4028.0,13501.0,45789.0,30740.0,62743.0,23466.0,4249.0,13731.0,49374.0,35267.0,69369.0,27809.0,4452.0,13903.0,50950.0,38151.0,69696.0,29794.0,4978.0,13674.0,49614.0,32697.0,60439.0,30351.0,5230.0,12527.0,44621.0,41727.0,60041.0
2,34 ST-PENN STA,40.751056,-73.99031020000001,3647.0,5492.0,18244.0,25666.0,26786.0,14870.0,3120.0,3509.0,16212.0,21900.0,23658.0,14857.0,1953.0,24650.0,60497.0,34979.0,73779.0,17072.0,1984.0,25124.0,47584.0,30855.0,76403.0,18904.0,2070.0,24002.0,59641.0,38219.0,69299.0,21040.0,2535.0,24306.0,58944.0,38571.0,76502.0,21540.0,2550.0,21418.0,51568.0,46818.0,66090.0
3,59 ST COLUMBUS,40.7684839,-73.98180699999999,2660.0,3078.0,10666.0,18238.0,18623.0,9932.0,2306.0,2298.0,10725.0,19210.0,21181.0,9645.0,1419.0,8771.0,27317.0,22617.0,36457.0,12221.0,1615.0,9642.0,29704.0,26499.0,38863.0,13706.0,1746.0,9403.0,30562.0,27283.0,41042.0,14968.0,1849.0,9283.0,30189.0,27455.0,39655.0,14444.0,2144.0,8476.0,26165.0,27813.0,34127.0
4,86 ST,40.7795016,-73.95557240000001,1493.0,3346.0,10271.0,17454.0,17375.0,7452.0,1310.0,2075.0,8644.0,14738.0,13565.0,5710.0,763.0,9569.0,24551.0,20156.0,29876.0,8389.0,820.0,10118.0,24525.0,20515.0,30606.0,9783.0,951.0,10320.0,24279.0,20422.0,31102.0,10025.0,1052.0,10084.0,23794.0,20125.0,28360.0,9529.0,1068.0,9285.0,22437.0,21748.0,28052.0
5,GRD CNTRL-42 ST,40.75216470000001,-73.97715339999998,2495.0,2962.0,11525.0,17311.0,16992.0,8226.0,1817.0,1589.0,9281.0,14954.0,16059.0,8408.0,965.0,13802.0,39966.0,23841.0,46080.0,11097.0,1575.0,14324.0,40012.0,25051.0,49114.0,11721.0,1616.0,14477.0,40312.0,24863.0,47359.0,12843.0,1690.0,13791.0,39717.0,25467.0,48651.0,13013.0,1881.0,12796.0,35479.0,29915.0,42181.0
6,59 ST,40.6415685,-74.0176783,969.0,4197.0,9863.0,15481.0,14917.0,7618.0,1562.0,2596.0,9065.0,14324.0,14185.0,6511.0,1138.0,11262.0,29869.0,20557.0,37316.0,9974.0,1489.0,12292.0,31524.0,23827.0,38596.0,4973.0,710.0,11937.0,31632.0,23458.0,39709.0,11862.0,1622.0,7344.0,31320.0,12025.0,38479.0,11452.0,1653.0,10998.0,28337.0,25138.0,33718.0
7,FLUSHING-MAIN,40.75955820000001,-73.82992209999998,2371.0,5895.0,13406.0,15071.0,16326.0,10474.0,2095.0,3463.0,12344.0,15071.0,15230.0,9592.0,1332.0,15045.0,22088.0,16065.0,27159.0,12167.0,1531.0,15503.0,23751.0,17898.0,26695.0,13019.0,1657.0,15535.0,23754.0,17576.0,28777.0,13292.0,1934.0,15333.0,22798.0,16679.0,28141.0,13396.0,1773.0,14507.0,22839.0,17646.0,27613.0
8,ATL AV-BARCLAY,40.6837598,-73.97875739999998,1937.0,1916.0,6446.0,12272.0,12876.0,7057.0,1550.0,1406.0,6100.0,11860.0,12028.0,5900.0,829.0,7550.0,18161.0,12953.0,24483.0,7400.0,912.0,7955.0,18965.0,14826.0,25696.0,7956.0,996.0,7617.0,19198.0,14325.0,25768.0,8888.0,1170.0,7455.0,18649.0,14648.0,25749.0,9065.0,1362.0,6587.0,17110.0,16790.0,24188.0
9,23 ST,40.7413626,-73.9891335,1452.0,1247.0,5262.0,8948.0,9423.0,4847.0,1096.0,881.0,4185.0,8219.0,8227.0,4226.0,584.0,4758.0,20785.0,14798.0,29788.0,8283.0,733.0,4840.0,21168.0,17360.0,30313.0,9292.0,873.0,5029.0,21245.0,16947.0,31243.0,9869.0,890.0,5035.0,21325.0,17759.0,32055.0,10520.0,985.0,4379.0,19171.0,19924.0,26298.0
10,42 ST-PORT AUTH,40.7578346,-73.99146259999998,1897.0,4950.0,14312.0,15030.0,15603.0,9673.0,1689.0,2655.0,11274.0,14465.0,15814.0,10100.0,1048.0,19099.0,33168.0,17948.0,34734.0,11218.0,1101.0,19159.0,29980.0,18426.0,37329.0,11586.0,1166.0,18776.0,30159.0,18150.0,34140.0,12202.0,1202.0,18431.0,29778.0,18311.0,34800.0,12613.0,1394.0,16842.0,26962.0,20674.0,31961.0
11,14 ST,40.73747540000001,-73.9970975,2425.0,1845.0,6337.0,12904.0,13781.0,8096.0,2006.0,1144.0,5871.0,12734.0,12773.0,6466.0,918.0,4869.0,19345.0,13695.0,27047.0,8399.0,937.0,5099.0,20706.0,16243.0,28755.0,9535.0,1030.0,5084.0,20834.0,15542.0,28718.0,10350.0,1168.0,5046.0,20393.0,16149.0,29051.0,10289.0,1210.0,4257.0,17607.0,17544.0,25371.0
12,JKSN HT-ROOSVLT,40.746739,-73.89099859999999,3689.0,6384.0,12421.0,15075.0,14167.0,9583.0,3199.0,4353.0,11477.0,14634.0,13283.0,9453.0,2154.0,10691.0,17542.0,15192.0,22190.0,10072.0,2403.0,11188.0,19792.0,17454.0,22368.0,10436.0,2388.0,11072.0,19766.0,16995.0,23536.0,11135.0,2557.0,11093.0,19534.0,17040.0,23373.0,11045.0,2690.0,10757.0,18288.0,17043.0,22960.0
13,BEDFORD AV,40.717354,-73.956972,82.0,144.0,32.0,15.0,30.0,14.0,7.0,21.0,40.0,49.0,36.0,15.0,26.0,3332.0,11632.0,7459.0,15624.0,6825.0,818.0,3703.0,12952.0,8563.0,15544.0,7565.0,856.0,3812.0,12883.0,8878.0,17597.0,8594.0,969.0,3599.0,12985.0,9304.0,16825.0,8506.0,1063.0,3287.0,11954.0,10941.0,16516.0
14,47-50 STS ROCK,40.75885,-73.98118610000002,2019.0,2052.0,6501.0,9823.0,11122.0,5776.0,1312.0,1259.0,5793.0,11028.0,10499.0,5286.0,796.0,9413.0,37697.0,18389.0,43590.0,8380.0,1355.0,10428.0,40166.0,21040.0,45924.0,9478.0,1425.0,10094.0,40825.0,20855.0,45126.0,10028.0,1556.0,10026.0,39836.0,21816.0,44290.0,10088.0,1605.0,9193.0,34865.0,23893.0,37060.0
15,34 ST-HUDSON YD,40.7549713,-74.0010084,339.0,1235.0,2077.0,3275.0,2806.0,1343.0,367.0,756.0,2917.0,3301.0,4244.0,1440.0,163.0,3476.0,7147.0,5492.0,7727.0,1463.0,36.0,3396.0,7727.0,6154.0,7814.0,1554.0,234.0,3491.0,7061.0,6542.0,7154.0,1974.0,312.0,3579.0,6147.0,5221.0,6706.0,1808.0,258.0,3344.0,5247.0,5922.0,5549.0
16,CHAMBERS ST,40.7155134,-74.00922270000001,1557.0,2063.0,7230.0,12127.0,10866.0,5914.0,1240.0,1251.0,6521.0,10797.0,11544.0,5478.0,732.0,7777.0,27642.0,20641.0,34366.0,7279.0,876.0,8320.0,29236.0,24164.0,36966.0,7922.0,855.0,8138.0,29083.0,24197.0,36538.0,8387.0,929.0,7711.0,27934.0,23348.0,36475.0,8835.0,1072.0,6960.0,14516.0,13603.0,29972.0
17,125 ST,40.8043863,-73.9374292,2612.0,2766.0,7296.0,11184.0,11192.0,7089.0,2160.0,2148.0,8271.0,11813.0,11373.0,6218.0,1483.0,5830.0,14017.0,11391.0,16909.0,7604.0,1491.0,6296.0,15249.0,13067.0,17672.0,7936.0,1646.0,6276.0,15246.0,12885.0,19240.0,9471.0,1652.0,6174.0,14718.0,12887.0,19023.0,9538.0,1826.0,5857.0,14085.0,13828.0,18813.0
18,57 ST-7 AV,40.765564000000005,-73.9803309,1540.0,1584.0,5100.0,7707.0,8598.0,5189.0,1151.0,1297.0,5095.0,7630.0,7988.0,4635.0,629.0,4361.0,15035.0,10477.0,20680.0,6435.0,891.0,3856.0,15882.0,12129.0,21894.0,7524.0,973.0,4545.0,15902.0,12002.0,21684.0,7585.0,998.0,4419.0,15878.0,12117.0,21215.0,8108.0,1099.0,4037.0,14170.0,13326.0,18112.0
19,GRAND ST,40.7182003,-73.9935756,820.0,1271.0,5707.0,7438.0,7836.0,3793.0,756.0,948.0,5663.0,7520.0,7928.0,3661.0,460.0,3625.0,11965.0,10796.0,15739.0,5782.0,639.0,4587.0,14454.0,11790.0,16174.0,6200.0,659.0,4389.0,14187.0,11702.0,16876.0,6858.0,726.0,4597.0,13825.0,11855.0,16861.0,6852.0,770.0,4224.0,13734.0,12567.0,16694.0
20,145 ST,40.8240532,-73.94476230000001,3015.0,2944.0,6739.0,9522.0,9376.0,6862.0,2695.0,2329.0,6653.0,9391.0,9531.0,6442.0,1727.0,6054.0,9811.0,8301.0,14822.0,7583.0,1733.0,6245.0,13581.0,9898.0,15398.0,8458.0,1973.0,6298.0,13462.0,9799.0,15809.0,8917.0,2061.0,6243.0,13472.0,10575.0,15725.0,8884.0,2273.0,6016.0,13068.0,11673.0,15521.0
21,42 ST-BRYANT PK,40.75483679999999,-73.9841215,1930.0,1456.0,4961.0,8379.0,9401.0,5660.0,1342.0,949.0,4501.0,10126.0,9015.0,5119.0,923.0,5604.0,22025.0,12434.0,29766.0,7239.0,1145.0,6008.0,24551.0,14882.0,31155.0,8211.0,1200.0,5791.0,24063.0,14830.0,31723.0,9154.0,1291.0,5755.0,24110.0,15790.0,31172.0,8759.0,1387.0,5415.0,21016.0,16890.0,26270.0
22,2 AV,40.723412700000004,-73.9902885,2133.0,875.0,2904.0,5359.0,6459.0,5067.0,1632.0,699.0,2678.0,4805.0,5402.0,3406.0,516.0,2210.0,6473.0,4815.0,8289.0,3666.0,466.0,2217.0,6592.0,5270.0,9511.0,4168.0,434.0,2237.0,6737.0,5292.0,9674.0,4584.0,426.0,2222.0,6793.0,5413.0,10079.0,4886.0,515.0,1985.0,6292.0,6261.0,10182.0
23,50 ST,40.7620363,-73.98632909999998,2868.0,2013.0,7231.0,10494.0,12050.0,8080.0,2479.0,1798.0,7247.0,10668.0,11310.0,6636.0,1264.0,6378.0,21513.0,13193.0,26689.0,9190.0,1413.0,6523.0,22146.0,14575.0,28679.0,10641.0,1659.0,6717.0,22452.0,15355.0,29168.0,10710.0,1789.0,6750.0,22135.0,15081.0,29133.0,11486.0,1988.0,4243.0,13801.0,16808.0,25890.0
24,CHURCH AV,40.6495233,-73.96328390000001,1617.0,2619.0,5467.0,6709.0,6740.0,4153.0,1372.0,2043.0,5462.0,6414.0,6663.0,3998.0,1004.0,6557.0,10587.0,7565.0,12498.0,5250.0,1158.0,6791.0,11469.0,8546.0,12537.0,5448.0,1217.0,6823.0,11418.0,9106.0,13046.0,6136.0,1313.0,6858.0,11229.0,8240.0,13034.0,6086.0,1257.0,6575.0,10773.0,9042.0,12489.0
25,PRINCE ST,40.7242353,-73.99780600000001,689.0,486.0,2638.0,7024.0,7802.0,2895.0,514.0,303.0,2287.0,6447.0,7067.0,2165.0,193.0,995.0,5745.0,5544.0,9553.0,2467.0,229.0,899.0,5916.0,6846.0,10814.0,2918.0,298.0,1048.0,6045.0,7009.0,10823.0,3243.0,257.0,1010.0,5792.0,7215.0,11443.0,3280.0,403.0,877.0,5595.0,8427.0,10776.0
26,SPRING ST,40.7257799,-74.00395209999998,650.0,578.0,3081.0,6243.0,6672.0,3012.0,570.0,360.0,2452.0,5596.0,5725.0,2238.0,219.0,1558.0,7420.0,7277.0,14327.0,3847.0,319.0,1697.0,7987.0,8433.0,14000.0,4404.0,397.0,1692.0,7976.0,8530.0,15415.0,4462.0,358.0,1649.0,8088.0,9074.0,15354.0,4852.0,384.0,1525.0,7032.0,10125.0,13997.0
27,LEXINGTON AV/63,40.764629,-73.96611299999998,837.0,1338.0,4209.0,5561.0,5839.0,3242.0,759.0,949.0,3609.0,5666.0,5282.0,2547.0,425.0,4005.0,10658.0,6940.0,12677.0,3115.0,447.0,5588.0,11894.0,7898.0,12282.0,3701.0,400.0,4405.0,11604.0,8050.0,12383.0,3816.0,483.0,4154.0,11313.0,7915.0,12871.0,3940.0,513.0,3837.0,10087.0,7967.0,10494.0
28,NOSTRAND AV,40.6697362,-73.95050890000002,1352.0,1647.0,4305.0,5826.0,5723.0,4115.0,1048.0,1217.0,4154.0,5289.0,5067.0,3516.0,661.0,3952.0,9129.0,5739.0,8970.0,4001.0,832.0,4107.0,9989.0,6200.0,9289.0,3532.0,599.0,4122.0,9982.0,7715.0,9523.0,4887.0,832.0,4094.0,9775.0,6294.0,9654.0,4713.0,968.0,3911.0,9097.0,7145.0,9428.0
29,JAY ST-METROTEC,40.6922507,-73.9872792,1128.0,1279.0,4085.0,7063.0,6965.0,3817.0,937.0,953.0,4502.0,7334.0,6455.0,3115.0,480.0,4143.0,15022.0,11697.0,19338.0,4033.0,607.0,4344.0,15870.0,13933.0,20762.0,4748.0,609.0,4455.0,15807.0,13697.0,20757.0,5036.0,701.0,4290.0,15416.0,13597.0,20354.0,5110.0,790.0,4002.0,14125.0,14189.0,18390.0
30,1 AV,40.7312776,-73.9823439,0.0,1.0,3.0,2.0,0.0,0.0,0.0,0.0,0.0,0.0,0.0,3.0,1.0,3680.0,8808.0,6585.0,11396.0,5260.0,583.0,3969.0,9204.0,7313.0,12089.0,6030.0,723.0,3944.0,9121.0,7354.0,12540.0,6397.0,737.0,4017.0,9183.0,7242.0,12210.0,6736.0,841.0,3684.0,8481.0,8351.0,12105.0
31,STEINWAY ST,40.756691700000005,-73.92064090000001,783.0,844.0,2280.0,3773.0,3706.0,2448.0,701.0,573.0,1975.0,3377.0,3523.0,2091.0,368.0,2546.0,6316.0,4096.0,7332.0,3228.0,444.0,3034.0,6937.0,4715.0,6993.0,3138.0,481.0,2834.0,6732.0,4775.0,7379.0,3268.0,498.0,2787.0,6698.0,4662.0,7321.0,3331.0,561.0,2612.0,6423.0,5134.0,7694.0
32,JUNCTION BLVD,40.749203,-73.8693365,1525.0,4085.0,5105.0,5940.0,6227.0,3656.0,1290.0,2132.0,4535.0,6083.0,5525.0,3481.0,902.0,7180.0,6817.0,5949.0,10130.0,4086.0,945.0,7370.0,7327.0,6767.0,10065.0,4011.0,1148.0,7314.0,7353.0,6674.0,10673.0,4620.0,1190.0,7462.0,7433.0,6528.0,10892.0,4437.0,1242.0,7434.0,7284.0,6979.0,11043.0
33,DEKALB AV,40.68982020000001,-73.9811611,674.0,914.0,2463.0,4043.0,3866.0,1918.0,495.0,634.0,2476.0,4080.0,4247.0,1989.0,329.0,5111.0,11954.0,7104.0,11126.0,3626.0,420.0,5519.0,13043.0,7714.0,10418.0,3896.0,398.0,5507.0,12809.0,7773.0,11497.0,4101.0,489.0,5435.0,12611.0,7536.0,11142.0,4164.0,474.0,4972.0,11666.0,8268.0,10721.0
34,BOROUGH HALL,40.6931492,-73.9900883,722.0,963.0,3570.0,5978.0,5551.0,2932.0,630.0,605.0,3264.0,5796.0,5749.0,2633.0,343.0,3970.0,15816.0,11404.0,16707.0,3621.0,419.0,4238.0,16878.0,13588.0,17798.0,4245.0,438.0,4348.0,16842.0,13489.0,18101.0,4562.0,442.0,4130.0,16492.0,13547.0,17500.0,4610.0,514.0,3702.0,14388.0,13123.0,14729.0
35,CROWN HTS-UTICA,40.6689469,-73.93183379999998,1478.0,2345.0,4446.0,5698.0,5804.0,4127.0,1158.0,1743.0,3976.0,5178.0,5451.0,3437.0,1099.0,6928.0,9817.0,7151.0,10682.0,4386.0,1152.0,7413.0,10197.0,7532.0,10999.0,4924.0,1132.0,7331.0,10619.0,8019.0,11503.0,5495.0,1193.0,7352.0,10104.0,7741.0,11606.0,5214.0,1341.0,6617.0,9966.0,8161.0,10684.0
36,8 ST-NYU,40.7306065,-73.99244159999998,1358.0,481.0,2131.0,4858.0,6319.0,4309.0,1154.0,388.0,2153.0,4636.0,5420.0,3341.0,415.0,1181.0,6252.0,4342.0,8535.0,3292.0,436.0,1112.0,6543.0,5049.0,9810.0,3944.0,532.0,1209.0,6401.0,5087.0,9696.0,4208.0,547.0,1148.0,6432.0,5249.0,9539.0,4525.0,592.0,1006.0,5767.0,5880.0,8821.0
37,CANAL ST,40.722713899999995,-74.00630600000001,769.0,849.0,3378.0,5614.0,5531.0,2662.0,651.0,536.0,2846.0,5349.0,5023.0,2394.0,305.0,2655.0,9420.0,6422.0,13308.0,3096.0,371.0,2697.0,10049.0,7280.0,14730.0,3586.0,464.0,2779.0,9921.0,7551.0,13793.0,3851.0,504.0,2729.0,9810.0,7638.0,14263.0,3981.0,576.0,2499.0,8759.0,8768.0,12045.0
38,QUEENSBORO PLZ,40.7505127,-73.9398439,589.0,2370.0,5954.0,6847.0,5886.0,3195.0,945.0,1629.0,5500.0,6451.0,4900.0,2443.0,376.0,1875.0,5065.0,3171.0,5741.0,1722.0,578.0,2588.0,5413.0,3474.0,5539.0,2070.0,379.0,1950.0,4807.0,3202.0,5796.0,2099.0,502.0,1975.0,5186.0,3480.0,5567.0,2012.0,461.0,1814.0,4862.0,3505.0,5440.0
39,MYRTLE-WYCKOFF,40.699686,-73.9117713,690.0,1743.0,3379.0,3592.0,3057.0,2040.0,725.0,881.0,2648.0,3144.0,2690.0,1759.0,405.0,4773.0,7139.0,4811.0,7476.0,3236.0,352.0,4938.0,7860.0,5194.0,7634.0,3469.0,359.0,5064.0,7848.0,5161.0,7697.0,3636.0,400.0,5057.0,7697.0,5273.0,7585.0,3621.0,417.0,4818.0,7484.0,5584.0,7708.0
40,51 ST,40.757135,-73.97191190000001,766.0,960.0,3153.0,4500.0,4599.0,2263.0,540.0,726.0,2994.0,3928.0,3830.0,1813.0,320.0,3405.0,13050.0,7494.0,13942.0,3024.0,506.0,3609.0,14108.0,8167.0,14488.0,3459.0,568.0,3619.0,14072.0,8425.0,14433.0,3556.0,577.0,3413.0,13786.0,8449.0,14527.0,3559.0,675.0,3092.0,12335.0,9136.0,12429.0
41,COURT SQ,40.7467885,-73.944548,759.0,1155.0,2342.0,3435.0,4022.0,2294.0,601.0,644.0,2098.0,3596.0,3147.0,1701.0,375.0,3907.0,9377.0,4555.0,11034.0,2587.0,492.0,4358.0,10025.0,5026.0,10980.0,2996.0,451.0,4214.0,10107.0,5173.0,11129.0,2930.0,475.0,4098.0,10057.0,5356.0,11252.0,2936.0,512.0,3737.0,8418.0,5662.0,9202.0
42,JAMAICA CENTER,40.702144700000005,-73.8008771,1763.0,3622.0,4965.0,6070.0,5922.0,4072.0,1341.0,2410.0,3988.0,4366.0,4781.0,3966.0,1320.0,13095.0,12727.0,10740.0,16481.0,6048.0,1577.0,13865.0,13774.0,11779.0,17915.0,6472.0,1738.0,13760.0,13856.0,11891.0,18152.0,7069.0,1792.0,13668.0,13406.0,11675.0,17911.0,7271.0,1815.0,12732.0,12982.0,11431.0,17097.0
43,49 ST,40.7598372,-73.98418249999999,1840.0,1092.0,3529.0,5999.0,8251.0,5799.0,1412.0,858.0,3879.0,6062.0,7091.0,4645.0,691.0,3226.0,11007.0,7233.0,15485.0,5535.0,955.0,2521.0,11414.0,8183.0,17002.0,7113.0,1054.0,3388.0,11972.0,9149.0,17212.0,7504.0,1103.0,3186.0,11367.0,8426.0,16922.0,7954.0,1274.0,2883.0,10680.0,9711.0,15431.0
44,BOWLING GREEN,40.7048108,-74.0144596,742.0,1255.0,3588.0,5273.0,4882.0,1779.0,542.0,674.0,3969.0,5849.0,5855.0,2226.0,383.0,5291.0,16137.0,9879.0,19209.0,3168.0,518.0,5605.0,17841.0,12207.0,20553.0,3452.0,491.0,5691.0,18281.0,11903.0,21111.0,4094.0,608.0,5453.0,18143.0,12297.0,20762.0,4087.0,511.0,5061.0,15360.0,12576.0,16756.0
45,BLEECKER ST,40.7259346,-73.9946724,917.0,475.0,1455.0,3029.0,3702.0,2273.0,884.0,386.0,1236.0,2919.0,3227.0,1805.0,329.0,1084.0,4204.0,3078.0,6213.0,2560.0,485.0,1164.0,4710.0,3632.0,6690.0,3021.0,530.0,1148.0,4761.0,3697.0,6853.0,3216.0,510.0,1139.0,4536.0,3803.0,7054.0,3423.0,696.0,1017.0,3901.0,4234.0,6367.0
46,VERNON-JACKSON,40.7426713,-73.9537248,633.0,682.0,2279.0,3562.0,3411.0,2334.0,494.0,422.0,2090.0,3280.0,3584.0,2104.0,291.0,2773.0,7388.0,3372.0,6888.0,2436.0,13.0,3001.0,7975.0,3784.0,7199.0,2661.0,294.0,2954.0,7994.0,4031.0,7566.0,3202.0,372.0,2835.0,7791.0,3950.0,8078.0,3690.0,390.0,2570.0,7123.0,4235.0,7303.0
47,28 ST,40.7470686,-73.99350919999998,975.0,724.0,2856.0,4388.0,4592.0,2404.0,704.0,521.0,2342.0,3707.0,3423.0,2064.0,352.0,1746.0,8574.0,5704.0,11159.0,2878.0,377.0,1525.0,8969.0,6721.0,11683.0,3428.0,468.0,1773.0,8803.0,6803.0,10980.0,3440.0,490.0,1827.0,8638.0,6937.0,11191.0,3614.0,598.0,1636.0,7932.0,7379.0,9418.0
48,SUTPHIN-ARCHER,40.700572799999996,-73.8077071,1587.0,2576.0,4298.0,5249.0,5200.0,3371.0,932.0,1777.0,3764.0,4746.0,4831.0,3576.0,1016.0,7258.0,8547.0,8237.0,11043.0,4577.0,1178.0,7520.0,8969.0,8792.0,11541.0,4606.0,1314.0,7800.0,8779.0,8757.0,11917.0,5069.0,1254.0,7458.0,8594.0,,,5284.0,1282.0,6871.0,8414.0,9039.0,11714.0
49,FORDHAM RD,40.8614886,-73.8905408,998.0,2303.0,3343.0,4579.0,4243.0,2630.0,872.0,1684.0,3158.0,4517.0,4152.0,2309.0,763.0,4965.0,6044.0,5307.0,6463.0,2666.0,746.0,5133.0,6278.0,5586.0,6743.0,2601.0,878.0,5326.0,6162.0,5786.0,7420.0,2868.0,1122.0,5247.0,6276.0,5746.0,7092.0,2805.0,1120.0,5139.0,5954.0,5848.0,7116.0
50,HIGH ST,40.6993673,-73.99126559999998,509.0,398.0,1912.0,3305.0,3442.0,2013.0,336.0,278.0,2784.0,4889.0,4713.0,2423.0,212.0,1457.0,5276.0,3079.0,6628.0,2322.0,297.0,1636.0,6340.0,4779.0,6520.0,2909.0,286.0,1633.0,6330.0,4976.0,7653.0,3340.0,361.0,1620.0,6274.0,4487.0,8081.0,3979.0,356.0,1467.0,5590.0,5056.0,6541.0
51,BROOKLYN BRIDGE,40.6993673,-73.99126559999998,487.0,570.0,2161.0,3807.0,3247.0,1724.0,314.0,406.0,1874.0,4020.0,4195.0,2164.0,224.0,2800.0,8963.0,6575.0,10736.0,2523.0,323.0,3195.0,10925.0,8977.0,10918.0,2731.0,356.0,3126.0,10470.0,8774.0,11633.0,3374.0,353.0,3180.0,10190.0,8521.0,11460.0,3234.0,411.0,2740.0,9010.0,8304.0,9595.0
52,103 ST-CORONA,40.7498268,-73.862746,1511.0,3762.0,4391.0,4892.0,5303.0,3550.0,1284.0,2032.0,4111.0,4825.0,4754.0,3293.0,1035.0,7246.0,6318.0,5269.0,7684.0,3857.0,1028.0,7611.0,6303.0,5154.0,8499.0,3778.0,1271.0,7802.0,6470.0,4835.0,8548.0,4279.0,1144.0,7650.0,6153.0,4939.0,8120.0,4216.0,1194.0,7524.0,5979.0,4924.0,8375.0
53,GRAND-NEWTOWN,40.736835,-73.87758840000001,596.0,1297.0,2386.0,2511.0,2549.0,1541.0,436.0,639.0,1903.0,2291.0,2110.0,1288.0,283.0,4769.0,6963.0,4263.0,6260.0,2600.0,469.0,4925.0,7548.0,4698.0,6487.0,2743.0,509.0,4908.0,7479.0,4816.0,6667.0,2851.0,532.0,4889.0,7420.0,4786.0,6685.0,2826.0,588.0,4658.0,7166.0,4936.0,6442.0
54,181 ST,40.84913,-73.93372889999998,1086.0,1261.0,2493.0,3823.0,3363.0,2212.0,831.0,910.0,2378.0,3838.0,4199.0,2485.0,647.0,2399.0,4319.0,4286.0,5554.0,2689.0,801.0,2472.0,4247.0,4774.0,5889.0,2861.0,879.0,2489.0,4783.0,4851.0,5778.0,3032.0,781.0,2612.0,4566.0,4574.0,5822.0,3154.0,875.0,2387.0,4395.0,4761.0,5643.0
55,167 ST,40.835598,-73.9213791,1270.0,2427.0,3623.0,4429.0,4433.0,2920.0,1068.0,1729.0,3197.0,4422.0,4333.0,2911.0,845.0,5059.0,6417.0,5743.0,7235.0,3161.0,915.0,5151.0,6668.0,6244.0,7442.0,3279.0,1077.0,5295.0,6939.0,6175.0,7850.0,3648.0,1129.0,5318.0,6730.0,6070.0,7890.0,3622.0,1187.0,5085.0,6448.0,5897.0,7819.0
56,82 ST-JACKSON H,40.7477145,-73.8839373,1391.0,1721.0,4103.0,6186.0,5798.0,3478.0,1115.0,1234.0,3460.0,5514.0,5684.0,3297.0,717.0,3119.0,5769.0,6205.0,9316.0,3707.0,659.0,3269.0,6163.0,6602.0,9339.0,3799.0,845.0,3267.0,6205.0,6259.0,9783.0,4379.0,873.0,3080.0,6034.0,5987.0,9811.0,4262.0,969.0,3123.0,5848.0,5939.0,10044.0
57,KINGS HWY,40.60867440000001,-73.9578059,739.0,1451.0,3182.0,3887.0,3657.0,2089.0,567.0,1011.0,3335.0,3760.0,3943.0,2270.0,411.0,5018.0,7972.0,5371.0,10020.0,3359.0,479.0,5208.0,8913.0,6317.0,10245.0,3571.0,491.0,5244.0,8903.0,6090.0,10902.0,3802.0,516.0,5242.0,8663.0,6102.0,10371.0,3929.0,537.0,4780.0,7998.0,6334.0,8934.0
58,3 AV-149 ST,40.816129,-73.917811,725.0,1774.0,3163.0,4194.0,3408.0,1959.0,622.0,1166.0,2635.0,3777.0,3158.0,1693.0,493.0,4452.0,6889.0,6207.0,6532.0,1576.0,67.0,4624.0,7174.0,7608.0,6892.0,1746.0,99.0,4705.0,5894.0,5421.0,7029.0,1801.0,141.0,4679.0,6747.0,7069.0,7143.0,1812.0,106.0,4379.0,7120.0,7126.0,7312.0
59,EAST BROADWAY,40.714402899999996,-73.98991880000001,522.0,794.0,2355.0,3237.0,3261.0,1831.0,378.0,460.0,2275.0,3244.0,3241.0,1660.0,279.0,1795.0,4880.0,3865.0,5581.0,1890.0,185.0,1768.0,4905.0,4175.0,5905.0,2012.0,197.0,1862.0,5064.0,4410.0,5650.0,2155.0,193.0,1771.0,4867.0,4132.0,5949.0,2063.0,178.0,1789.0,4735.0,4473.0,5603.0
60,72 ST,40.778453000000006,-73.98196999999998,,,,,,,,,,,,,,,,,,,,,,,,,,,,,,,,,,,,,,,,,
61,WALL ST,40.706396500000004,-74.0094441,428.0,520.0,1895.0,2921.0,3148.0,1674.0,313.0,347.0,2103.0,3352.0,3147.0,1510.0,161.0,4515.0,14503.0,5638.0,16433.0,2466.0,238.0,4571.0,14815.0,6853.0,18087.0,2615.0,243.0,4392.0,15382.0,7429.0,17439.0,2886.0,256.0,4408.0,14856.0,7313.0,17089.0,3079.0,324.0,3566.0,12598.0,8154.0,12849.0
62,21 ST-QNSBRIDGE,40.75417770000001,-73.94247419999998,617.0,950.0,2538.0,2664.0,2677.0,1954.0,560.0,688.0,2537.0,2610.0,2470.0,1643.0,400.0,2378.0,4498.0,3054.0,4887.0,1740.0,355.0,2652.0,5151.0,3097.0,4529.0,1841.0,298.0,2448.0,4821.0,3399.0,4644.0,2010.0,381.0,2416.0,4701.0,3283.0,4573.0,1918.0,306.0,2227.0,4583.0,3471.0,4611.0
63,HOYT-SCHER,40.688828799999996,-73.98531249999998,606.0,420.0,1896.0,3395.0,3340.0,1809.0,434.0,338.0,1799.0,3235.0,3330.0,1471.0,239.0,1332.0,4677.0,3857.0,5643.0,1826.0,233.0,1408.0,4718.0,4093.0,5643.0,2023.0,221.0,1373.0,4848.0,4211.0,6002.0,2209.0,284.0,1410.0,4808.0,4143.0,5817.0,2075.0,299.0,1322.0,4449.0,4539.0,5650.0
64,FRANKLIN AV,40.7190056,-74.0066801,662.0,681.0,2235.0,3103.0,3024.0,1885.0,550.0,529.0,1946.0,2883.0,2727.0,1660.0,272.0,2175.0,5808.0,2905.0,5005.0,2370.0,312.0,2293.0,6392.0,3256.0,5183.0,2526.0,364.0,2372.0,6303.0,3455.0,5330.0,2694.0,401.0,2286.0,6153.0,3175.0,5287.0,2741.0,429.0,2045.0,5698.0,3389.0,4912.0
65,168 ST,40.841041,-73.939971,1158.0,2133.0,3966.0,5249.0,4867.0,2981.0,,,3538.0,5348.0,5103.0,2801.0,720.0,5176.0,10956.0,7834.0,11848.0,3561.0,702.0,5537.0,11733.0,8771.0,12237.0,3549.0,869.0,5496.0,11762.0,8812.0,12331.0,3952.0,854.0,5372.0,11541.0,8717.0,12352.0,4134.0,986.0,5112.0,10537.0,8668.0,11065.0
66,NEVINS ST,40.6882963,-73.98052059999999,410.0,595.0,1715.0,2791.0,2716.0,1361.0,382.0,441.0,1394.0,2613.0,2774.0,1323.0,243.0,1790.0,4783.0,3941.0,5575.0,1667.0,265.0,1987.0,5116.0,4426.0,5752.0,1706.0,286.0,1992.0,5148.0,4414.0,6156.0,1999.0,305.0,1948.0,4936.0,4351.0,6063.0,1990.0,301.0,1774.0,,,5892.0
67,5 AVE,40.760216299999996,-73.975543,377.0,396.0,1408.0,2727.0,2916.0,1396.0,306.0,224.0,1327.0,3143.0,2752.0,1247.0,125.0,1588.0,6253.0,3743.0,8830.0,2102.0,104.0,1640.0,6071.0,4338.0,9297.0,2204.0,295.0,1599.0,5880.0,4116.0,9097.0,2600.0,294.0,1473.0,6117.0,4454.0,8901.0,2440.0,350.0,1446.0,5307.0,4974.0,7454.0
68,PROSPECT PARK,40.66087879999999,-73.9621109,782.0,851.0,1866.0,2695.0,2770.0,1804.0,663.0,606.0,2160.0,4916.0,4114.0,1696.0,446.0,1982.0,4566.0,2843.0,5235.0,2320.0,484.0,2124.0,4935.0,3505.0,5231.0,2479.0,528.0,2113.0,4581.0,3310.0,5698.0,2888.0,563.0,2055.0,4905.0,3404.0,5702.0,2877.0,531.0,1881.0,4795.0,3809.0,5399.0
69,CENTRAL PK N110,40.798737599999995,-73.9522934,303.0,735.0,1466.0,35016.0,2139120622.0,2139087686.0,2139053783.0,446.0,2142303841.0,2142304209.0,4283791194.0,,,2144704498.0,36328.0,2144737417.0,4086.0,2144702605.0,2144734633.0,67127.0,34727.0,,,1154.0,43.0,1808.0,,3090.0,4288.0,1385.0,20.0,1676.0,3768.0,3144.0,4350.0,1194.0,19.0,1750.0,3875.0,3144.0,3983.0
70,LEXINGTON AV/53,40.757698100000006,-73.96907420000001,975.0,1430.0,4719.0,6009.0,6424.0,3576.0,824.0,863.0,3934.0,5310.0,5260.0,3026.0,407.0,8078.0,26319.0,12124.0,29157.0,6094.0,860.0,8695.0,27354.0,13680.0,30281.0,6646.0,864.0,8626.0,27223.0,13975.0,29579.0,6949.0,884.0,8371.0,27210.0,14024.0,28975.0,6985.0,956.0,7084.0,23590.0,15932.0,24791.0
71,63 DR-REGO PARK,40.7301359,-73.86236729999999,175.0,698.0,1540.0,2019.0,1730.0,853.0,157.0,463.0,1493.0,1877.0,1644.0,658.0,128.0,3252.0,5805.0,3530.0,5042.0,1591.0,217.0,3456.0,6329.0,4106.0,5071.0,1692.0,223.0,3391.0,6237.0,3964.0,5347.0,1748.0,209.0,3304.0,6303.0,3997.0,5353.0,1730.0,240.0,3111.0,5960.0,4098.0,5175.0
72,3 AV,40.733135299999994,-73.98675829999998,17.0,17.0,15.0,17.0,39.0,36.0,23.0,28.0,20.0,22.0,26.0,23.0,18.0,829.0,2491.0,1954.0,3803.0,1701.0,176.0,928.0,2529.0,2461.0,4020.0,2069.0,221.0,895.0,2685.0,2290.0,3965.0,2171.0,191.0,928.0,2476.0,2151.0,3967.0,2215.0,269.0,866.0,2317.0,2497.0,3781.0
73,175 ST,40.847916600000005,-73.9394823,443.0,792.0,2133.0,2656.0,2476.0,1632.0,442.0,488.0,1777.0,2687.0,2947.0,1829.0,484.0,2764.0,4824.0,3063.0,4827.0,1678.0,321.0,2839.0,5092.0,3210.0,5093.0,1934.0,308.0,2828.0,5161.0,3438.0,5135.0,1941.0,323.0,2812.0,4814.0,3329.0,5180.0,2027.0,334.0,2631.0,4599.0,3522.0,4995.0
74,53 ST,40.760216299999996,-73.975543,582.0,951.0,1923.0,2253.0,2328.0,1421.0,435.0,650.0,1780.0,2270.0,2131.0,1442.0,302.0,2253.0,3357.0,2700.0,4399.0,1829.0,359.0,2401.0,116962167.0,117518477.0,4414.0,1930.0,397.0,2327.0,3596.0,2962.0,4548.0,2101.0,385.0,2355.0,3505.0,2893.0,4152.0,2071.0,407.0,2333.0,3467.0,2994.0,4397.0
75,110 ST,40.798737599999995,-73.9522934,700.0,948.0,2034.0,2954.0,2915.0,1779.0,606.0,650.0,1918.0,2487.0,2569.0,1495.0,404.0,2176.0,4203.0,3279.0,4442.0,1928.0,393.0,2198.0,4535.0,3642.0,4464.0,2009.0,450.0,2243.0,4490.0,3680.0,5004.0,2194.0,444.0,2240.0,4545.0,3719.0,4777.0,2201.0,508.0,2121.0,4291.0,3837.0,4843.0
76,BEDFORD-NOSTRAN,40.6898534,-73.9516398,442.0,452.0,1314.0,2075.0,2072.0,1154.0,466.0,368.0,1363.0,1977.0,1705.0,937.0,222.0,1575.0,4047.0,1913.0,3122.0,1379.0,256.0,1638.0,4223.0,1985.0,3267.0,1464.0,313.0,1660.0,4263.0,1889.0,3257.0,1657.0,275.0,1598.0,4111.0,1948.0,3263.0,1456.0,316.0,1425.0,3907.0,2346.0,3085.0
77,GRAHAM AV,40.714526299999996,-73.94438180000002,21.0,9.0,1.0,7.0,0.0,0.0,14.0,11.0,0.0,0.0,0.0,2.0,4.0,1400.0,4670.0,2210.0,4124.0,1963.0,35.0,1617.0,4936.0,2334.0,4079.0,1656.0,32.0,1562.0,4995.0,2414.0,4099.0,1620.0,14.0,1561.0,4900.0,2448.0,4093.0,1665.0,45.0,1416.0,4559.0,2822.0,4081.0
78,46 ST BLISS ST,40.7430691,-73.91824030000002,834.0,1421.0,2921.0,3479.0,3637.0,2258.0,701.0,937.0,2597.0,3362.0,3352.0,2066.0,437.0,3023.0,5157.0,3486.0,5769.0,2476.0,494.0,3162.0,5445.0,3763.0,5807.0,2699.0,587.0,3177.0,5760.0,3903.0,6167.0,2845.0,609.0,3140.0,5528.0,3747.0,5924.0,2853.0,619.0,3015.0,5286.0,3965.0,5995.0
79,CHRISTOPHER ST,40.733578400000006,-74.00287279999998,1138.0,382.0,1534.0,2917.0,3450.0,3005.0,1106.0,287.0,1268.0,2958.0,3528.0,2419.0,451.0,911.0,3417.0,2717.0,4914.0,2581.0,467.0,894.0,3660.0,3347.0,5539.0,3066.0,479.0,867.0,3819.0,3363.0,5795.0,3211.0,629.0,821.0,3453.0,3269.0,5581.0,3529.0,648.0,789.0,3306.0,3677.0,5648.0
80,191 ST,40.855738,-73.9306512,799.0,875.0,1632.0,2480.0,2444.0,1702.0,623.0,632.0,1651.0,2608.0,2686.0,1721.0,462.0,2021.0,3454.0,2905.0,4173.0,2006.0,535.0,2127.0,3568.0,3156.0,4250.0,2241.0,544.0,2058.0,3631.0,3213.0,4327.0,2370.0,534.0,2152.0,3400.0,3153.0,4502.0,2433.0,619.0,1557.0,2828.0,2567.0,3109.0
81,ROOSEVELT ISLND,40.7591362,-73.9533215,346.0,322.0,1340.0,2023.0,2097.0,1272.0,299.0,232.0,1414.0,2319.0,2326.0,1273.0,154.0,1156.0,3375.0,2026.0,3320.0,1386.0,124.0,1165.0,3509.0,2387.0,3734.0,1635.0,131.0,1187.0,3583.0,2360.0,3982.0,1763.0,145.0,1162.0,3571.0,2475.0,3853.0,1841.0,163.0,1083.0,3399.0,2517.0,3770.0
82,BROADWAY JCT,40.6789137,-73.9039,1317.0,2265.0,3423.0,3871.0,4020.0,2819.0,1072.0,1345.0,2428.0,2957.0,2939.0,2190.0,582.0,2430.0,2865.0,2787.0,3689.0,1944.0,958.0,2519.0,3412.0,3248.0,3745.0,2103.0,957.0,2572.0,3350.0,3212.0,4019.0,2294.0,1017.0,2541.0,3384.0,3114.0,4128.0,2282.0,1083.0,2507.0,3351.0,3284.0,3969.0
83,HOYT ST,40.688828799999996,-73.98531249999998,160.0,215.0,1036.0,2086.0,2213.0,943.0,141.0,157.0,1270.0,2266.0,1782.0,790.0,70.0,836.0,3110.0,2601.0,3760.0,921.0,93.0,938.0,2946.0,2912.0,4329.0,1078.0,88.0,953.0,3375.0,2872.0,4175.0,1002.0,67.0,905.0,3161.0,3057.0,4354.0,1034.0,99.0,690.0,2585.0,3265.0,3939.0
84,135 ST,40.817894,-73.947647,468.0,891.0,2177.0,2770.0,2344.0,1457.0,468.0,771.0,2388.0,3057.0,2251.0,1278.0,318.0,2424.0,5180.0,3311.0,4159.0,1010.0,4.0,2430.0,5223.0,3205.0,3986.0,1100.0,7.0,2462.0,5413.0,3328.0,4275.0,1223.0,2.0,2417.0,5261.0,3348.0,4270.0,1204.0,1.0,2205.0,4934.0,3548.0,4056.0
85,ELMHURST AV,40.74244789999999,-73.88198440000001,144.0,331.0,841.0,937.0,802.0,272.0,90.0,195.0,645.0,958.0,703.0,327.0,58.0,2917.0,4434.0,2483.0,2600.0,963.0,213.0,3030.0,4754.0,2713.0,2686.0,973.0,217.0,3063.0,4868.0,2630.0,2894.0,1076.0,216.0,3041.0,4795.0,2641.0,2926.0,1017.0,225.0,2890.0,4732.0,2665.0,2859.0
86,RECTOR ST,40.7078954,-74.01363649999998,444.0,428.0,2040.0,3129.0,2919.0,1336.0,304.0,288.0,2005.0,2806.0,2990.0,1467.0,167.0,1625.0,7053.0,4498.0,8595.0,1830.0,219.0,1683.0,7389.0,4864.0,9308.0,1876.0,216.0,1683.0,7340.0,5188.0,8987.0,1961.0,230.0,1609.0,7189.0,5344.0,9017.0,2064.0,294.0,1432.0,6525.0,5434.0,7241.0
87,4AV-9 ST,40.6701803,-73.98929150000002,415.0,510.0,1513.0,2177.0,2158.0,1317.0,313.0,360.0,1304.0,2046.0,1846.0,960.0,166.0,1481.0,3993.0,2275.0,3903.0,1427.0,217.0,1615.0,4404.0,2416.0,4012.0,1586.0,253.0,1606.0,4524.0,2503.0,4135.0,1617.0,245.0,1560.0,4401.0,2564.0,4451.0,1824.0,253.0,1417.0,3888.0,2645.0,3909.0
88,96 ST,40.7858701,-73.95093469999998,171.0,183.0,743.0,1366.0,1405.0,608.0,162.0,187.0,634.0,1378.0,1257.0,595.0,99.0,1399.0,4390.0,2982.0,5396.0,1343.0,112.0,1462.0,4803.0,3566.0,5735.0,1466.0,101.0,1481.0,4985.0,3710.0,6060.0,1594.0,161.0,1498.0,4884.0,3545.0,5812.0,1495.0,128.0,1378.0,4369.0,3831.0,5242.0
89,JAMAICA 179 ST,40.71264420000001,-73.7838184,691.0,2133.0,2509.0,2652.0,2538.0,1521.0,559.0,1294.0,2258.0,2358.0,2136.0,1513.0,497.0,8630.0,6826.0,3876.0,5842.0,2209.0,669.0,9147.0,7105.0,4232.0,6251.0,2278.0,634.0,9121.0,7302.0,4159.0,6543.0,2444.0,691.0,9063.0,7077.0,4261.0,6365.0,2634.0,661.0,8166.0,6497.0,4340.0,6127.0
90,BRIGHTON BEACH,40.5776648,-73.96127690000002,384.0,1010.0,1939.0,2530.0,2404.0,1282.0,289.0,755.0,2129.0,2826.0,3187.0,1445.0,239.0,2666.0,3953.0,3203.0,4921.0,1552.0,229.0,2723.0,4383.0,3947.0,4895.0,1748.0,253.0,2776.0,4894.0,5231.0,6576.0,2210.0,263.0,2837.0,4703.0,4793.0,6229.0,2261.0,311.0,2615.0,4252.0,4334.0,5374.0
91,CARROLL ST,40.679331299999994,-73.9954833,319.0,307.0,1338.0,2050.0,2161.0,1342.0,256.0,214.0,1291.0,1894.0,1776.0,919.0,102.0,1458.0,4811.0,1993.0,3852.0,1247.0,118.0,1536.0,5100.0,2294.0,3942.0,1325.0,154.0,934.0,3059.0,2405.0,4084.0,1644.0,214.0,1520.0,5053.0,2427.0,4093.0,1452.0,176.0,1323.0,4474.0,2612.0,3780.0
92,149/GRAND CONC,40.8183248,-73.9274121,794.0,1117.0,1475.0,1910.0,1846.0,1094.0,490.0,713.0,1402.0,1705.0,1770.0,1003.0,464.0,2208.0,2734.0,3342.0,3762.0,1744.0,437.0,1977.0,4520.0,4085.0,4470.0,2725.0,1328.0,2419.0,4287.0,4271.0,4566.0,2496.0,543.0,2192.0,3983.0,3971.0,4596.0,2687.0,1437.0,2222.0,2953.0,2969.0,4204.0
93,UNION ST,40.6771729,-73.98324670000001,372.0,322.0,1062.0,1714.0,1865.0,1235.0,401.0,233.0,1066.0,1621.0,1512.0,860.0,169.0,1177.0,3360.0,1606.0,3256.0,1268.0,167.0,1207.0,3327.0,1927.0,3636.0,1337.0,164.0,1248.0,3408.0,1956.0,3620.0,1429.0,197.0,1215.0,3441.0,1796.0,3921.0,1420.0,228.0,1043.0,2994.0,1908.0,3228.0
94,111 ST,40.75172999999999,-73.855334,750.0,2021.0,2622.0,2639.0,2818.0,2182.0,590.0,1041.0,2438.0,2645.0,2720.0,1719.0,519.0,4935.0,4412.0,3389.0,4988.0,2176.0,490.0,5102.0,4452.0,3320.0,5207.0,2217.0,694.0,5176.0,4688.0,3542.0,5148.0,2456.0,639.0,5161.0,4509.0,3362.0,5073.0,2378.0,664.0,4892.0,4235.0,3374.0,5166.0
95,MONTROSE AV,40.7077716,-73.93986329999998,0.0,0.0,0.0,0.0,0.0,0.0,0.0,0.0,0.0,0.0,3.0,5.0,1.0,986.0,2838.0,1588.0,2505.0,1102.0,0.0,1090.0,3047.0,1706.0,2511.0,1166.0,0.0,1135.0,2966.0,1698.0,2653.0,1250.0,0.0,1055.0,2873.0,1763.0,2610.0,1203.0,7.0,971.0,2720.0,1940.0,2554.0
96,MORGAN AV,40.70607589999999,-73.93370999999998,,,,,,,,,,,,,,,,,,,,,,,,,,,,,,,,,,,,,,,,,
97,90 ST-ELMHURST,40.748436700000006,-73.87652890000001,782.0,2327.0,3576.0,3894.0,3399.0,2113.0,634.0,1470.0,3418.0,3936.0,3462.0,1966.0,551.0,4739.0,5215.0,4174.0,5354.0,2324.0,561.0,4924.0,5266.0,3742.0,5127.0,2318.0,637.0,5017.0,5217.0,3525.0,5359.0,2672.0,609.0,4915.0,5096.0,3531.0,5360.0,2566.0,668.0,4834.0,4884.0,3546.0,5301.0
98,6 AV,40.7373653,-73.99684529999998,218.0,132.0,258.0,568.0,734.0,452.0,108.0,85.0,147.0,480.0,592.0,402.0,65.0,525.0,1697.0,1214.0,2638.0,980.0,108.0,527.0,1719.0,1507.0,2766.0,1155.0,129.0,587.0,1761.0,1353.0,2813.0,1214.0,120.0,554.0,1772.0,1470.0,2742.0,1275.0,131.0,494.0,1597.0,1685.0,2820.0
99,BOWERY,40.720166799999994,-73.99353470000001,582.0,284.0,1112.0,1606.0,1849.0,1131.0,521.0,257.0,1017.0,1482.0,1664.0,898.0,240.0,330.0,1453.0,1273.0,2058.0,1069.0,233.0,402.0,1455.0,1421.0,2161.0,1251.0,375.0,398.0,1489.0,1412.0,2392.0,1282.0,319.0,358.0,1555.0,1498.0,2371.0,1574.0,436.0,398.0,1403.0,1571.0,2386.0
100,BURNSIDE AV,40.85345299999999,-73.90768400000002,561.0,1140.0,1814.0,2115.0,1822.0,1246.0,449.0,774.0,1434.0,1991.0,1715.0,1243.0,349.0,2429.0,3113.0,3519.0,3232.0,1448.0,428.0,2532.0,3372.0,3753.0,3284.0,1449.0,513.0,2540.0,3452.0,3784.0,3513.0,1684.0,496.0,2476.0,3029.0,2989.0,3591.0,1590.0,498.0,2527.0,3006.0,3107.0,3442.0
101,45 ST,40.6493588,-74.00959069999998,314.0,742.0,1541.0,1784.0,1790.0,1044.0,291.0,477.0,1455.0,1859.0,1670.0,959.0,222.0,1690.0,2434.0,1755.0,2887.0,1089.0,217.0,1739.0,2778.0,2087.0,2854.0,1218.0,233.0,1738.0,2673.0,2087.0,3101.0,1172.0,266.0,1785.0,2687.0,1974.0,2661.0,1170.0,312.0,1679.0,2529.0,2056.0,2895.0
102,170 ST,40.840050399999996,-73.9133477,616.0,1039.0,1745.0,2180.0,2027.0,1310.0,466.0,819.0,1407.0,2135.0,1991.0,1351.0,382.0,2236.0,2755.0,2470.0,3245.0,1563.0,438.0,2377.0,2989.0,2663.0,3640.0,1470.0,558.0,2471.0,3267.0,2741.0,3528.0,1752.0,521.0,2449.0,2937.0,2819.0,3660.0,1756.0,509.0,2217.0,2761.0,2811.0,3728.0
103,169 ST,40.7104152,-73.79374600000001,398.0,891.0,1351.0,1803.0,1984.0,1104.0,347.0,586.0,1262.0,1716.0,1518.0,1110.0,287.0,,,2281.0,3865.0,1496.0,328.0,2233.0,2891.0,2735.0,4320.0,1509.0,337.0,2271.0,3062.0,2655.0,4368.0,1641.0,343.0,2231.0,3031.0,2674.0,4252.0,1661.0,331.0,2080.0,2784.0,2679.0,3927.0
104,74 ST-BROADWAY,40.746941899999996,-73.89146020000001,334.0,337.0,1010.0,1650.0,1756.0,1266.0,315.0,292.0,943.0,1625.0,1821.0,1289.0,206.0,541.0,1217.0,1662.0,2511.0,1185.0,206.0,561.0,1412.0,1964.0,2430.0,1236.0,261.0,540.0,1380.0,1839.0,2726.0,1401.0,205.0,516.0,1373.0,1656.0,2549.0,1314.0,284.0,554.0,1378.0,1794.0,2594.0
105,40 ST LOWERY ST,40.7438729,-73.92423409999998,509.0,802.0,1888.0,2322.0,2467.0,1732.0,492.0,491.0,1690.0,2204.0,2126.0,1563.0,302.0,2152.0,4475.0,2846.0,4787.0,1975.0,305.0,2201.0,4784.0,3035.0,4780.0,2191.0,362.0,2305.0,4734.0,3112.0,4925.0,2370.0,386.0,2141.0,4720.0,3043.0,4995.0,2341.0,474.0,2066.0,4476.0,3163.0,4715.0
106,CASTLE HILL AV,40.83429599999999,-73.85168399999998,548.0,878.0,1217.0,1638.0,1700.0,1102.0,464.0,582.0,1172.0,1479.0,1655.0,1086.0,386.0,2235.0,2279.0,2115.0,3027.0,1332.0,415.0,2325.0,2455.0,2296.0,3484.0,1531.0,408.0,2358.0,2395.0,2276.0,3362.0,1690.0,497.0,2376.0,2370.0,2312.0,3288.0,1561.0,481.0,2158.0,2242.0,2424.0,3134.0
107,HALSEY ST,40.69577750000001,-73.9044092,114.0,55.0,77.0,55.0,21.0,46.0,27.0,23.0,28.0,26.0,16.0,16.0,12.0,2033.0,2805.0,1789.0,2929.0,1190.0,23.0,2151.0,3116.0,1979.0,3020.0,1164.0,13.0,2144.0,3172.0,1998.0,3108.0,1373.0,23.0,2187.0,3050.0,1906.0,3093.0,1464.0,11.0,2050.0,2952.0,2088.0,3056.0
108,CLARK ST,40.6974878,-73.99314090000001,75.0,95.0,888.0,1505.0,1510.0,846.0,151.0,116.0,1083.0,1696.0,1524.0,832.0,73.0,465.0,1904.0,1117.0,1919.0,816.0,58.0,533.0,2174.0,1558.0,2110.0,826.0,85.0,603.0,2256.0,1445.0,2281.0,901.0,81.0,559.0,2237.0,1503.0,2185.0,1272.0,85.0,486.0,2041.0,1612.0,2021.0
109,SUTTER AV-RUTLD,40.664992100000006,-73.92290849999998,457.0,722.0,1185.0,1586.0,1668.0,1111.0,402.0,556.0,1138.0,1483.0,1596.0,1087.0,352.0,2042.0,2443.0,2345.0,3350.0,1373.0,383.0,2169.0,2716.0,2404.0,3702.0,1415.0,380.0,2148.0,2801.0,2595.0,3769.0,1535.0,442.0,2042.0,2215.0,2480.0,3635.0,1572.0,409.0,2052.0,2667.0,2637.0,3591.0
110,EASTN PKWY-MUSM,40.671993799999996,-73.96420649999999,217.0,184.0,827.0,1575.0,1301.0,649.0,249.0,147.0,676.0,1511.0,1271.0,595.0,80.0,566.0,2086.0,1120.0,2149.0,970.0,123.0,610.0,2158.0,1473.0,2394.0,1038.0,143.0,619.0,2275.0,1611.0,2755.0,1227.0,127.0,649.0,2165.0,1605.0,2452.0,1164.0,154.0,567.0,2302.0,1871.0,2112.0
111,BAY RIDGE AV,40.634968,-74.023376,245.0,648.0,1324.0,1451.0,1356.0,802.0,184.0,428.0,1244.0,1406.0,1195.0,731.0,156.0,1724.0,2645.0,1669.0,2419.0,931.0,149.0,1780.0,2805.0,1797.0,2423.0,965.0,180.0,1834.0,2825.0,1752.0,2628.0,1116.0,159.0,1739.0,2795.0,1815.0,2107.0,1103.0,172.0,1668.0,2603.0,1867.0,2478.0
112,OZONE PK LEFFRT,40.685956700000006,-73.8257601,402.0,1168.0,1281.0,1532.0,1566.0,1099.0,340.0,702.0,1157.0,1301.0,1427.0,894.0,310.0,3461.0,2413.0,1908.0,3626.0,1057.0,372.0,3735.0,2438.0,1987.0,3666.0,1239.0,305.0,3760.0,2485.0,2023.0,3751.0,1394.0,400.0,3721.0,2458.0,1787.0,3830.0,1445.0,379.0,3429.0,2273.0,2148.0,3640.0
113,JEFFERSON ST,40.7065868,-73.922872,6.0,7.0,4.0,12.0,5.0,5.0,1.0,1.0,6.0,4.0,3.0,0.0,0.0,1119.0,2322.0,1404.0,2270.0,626.0,2.0,1209.0,2590.0,1610.0,2246.0,746.0,19.0,1241.0,2619.0,1552.0,2495.0,855.0,10.0,1263.0,2597.0,1618.0,2410.0,1134.0,5.0,1205.0,2407.0,1772.0,2404.0
114,MORISN AV/SNDVW,40.8294898,-73.8746754,589.0,1008.0,1232.0,1592.0,1596.0,1046.0,501.0,681.0,1181.0,1487.0,1495.0,1012.0,439.0,2281.0,2138.0,1930.0,2388.0,1288.0,448.0,2424.0,2255.0,2050.0,2543.0,1346.0,520.0,2335.0,2269.0,2167.0,2634.0,1424.0,540.0,2403.0,2226.0,2069.0,2691.0,1444.0,526.0,2236.0,2233.0,2055.0,2549.0
115,207 ST,40.8676635,-73.9212009,366.0,700.0,1169.0,1765.0,1469.0,1009.0,335.0,486.0,1219.0,1788.0,1656.0,1082.0,309.0,1435.0,2070.0,1822.0,2327.0,1179.0,256.0,1469.0,2274.0,1946.0,2133.0,1076.0,258.0,1498.0,2260.0,2070.0,2376.0,1200.0,229.0,1583.0,2167.0,2044.0,2566.0,1484.0,274.0,1404.0,2138.0,2158.0,2327.0
116,EUCLID AV,40.6754013,-73.8719033,303.0,1135.0,1618.0,1673.0,1525.0,966.0,321.0,802.0,1550.0,1702.0,1373.0,839.0,265.0,2838.0,3199.0,2148.0,2302.0,979.0,246.0,2931.0,3359.0,2345.0,2382.0,1067.0,248.0,2968.0,3589.0,2366.0,2508.0,1092.0,264.0,2960.0,3383.0,2344.0,2539.0,1173.0,307.0,2822.0,3312.0,2342.0,2394.0
117,GRAND ARMY PLAZ,40.6752403,-73.97104159999998,149.0,157.0,1029.0,1565.0,1244.0,632.0,131.0,112.0,837.0,1446.0,1301.0,534.0,58.0,732.0,2981.0,1356.0,2174.0,705.0,54.0,786.0,3096.0,1619.0,2308.0,869.0,73.0,788.0,3019.0,1489.0,2458.0,858.0,90.0,788.0,3004.0,1463.0,2359.0,909.0,80.0,657.0,2582.0,1694.0,2094.0
118,PARSONS BLVD,40.707714,-73.8028238,453.0,919.0,1277.0,1582.0,1599.0,924.0,364.0,629.0,1269.0,1402.0,1361.0,884.0,304.0,1993.0,2274.0,1964.0,3102.0,1181.0,346.0,2126.0,2341.0,2060.0,3199.0,1116.0,349.0,2040.0,2438.0,1984.0,3397.0,1208.0,373.0,2101.0,2267.0,2026.0,3238.0,1353.0,427.0,1929.0,2221.0,1902.0,2905.0
119,231 ST,40.87899229999999,-73.904939,186.0,661.0,1184.0,1651.0,1279.0,731.0,165.0,407.0,1158.0,1579.0,1242.0,616.0,114.0,2099.0,2757.0,1745.0,1907.0,752.0,136.0,2210.0,2950.0,1985.0,2029.0,849.0,120.0,2270.0,2947.0,2036.0,2078.0,861.0,117.0,2262.0,2964.0,1984.0,2055.0,923.0,154.0,2119.0,2657.0,2053.0,2055.0
120,SMITH-9 ST,40.6746048,-73.99703970000002,258.0,540.0,1300.0,1667.0,1464.0,781.0,240.0,262.0,858.0,1536.0,1465.0,787.0,168.0,1306.0,2415.0,1858.0,2610.0,840.0,136.0,1415.0,2607.0,1911.0,2802.0,1014.0,167.0,1364.0,2596.0,2229.0,2982.0,1018.0,188.0,1349.0,2551.0,1991.0,2908.0,1012.0,196.0,1339.0,2426.0,2196.0,2659.0
121,4 AV-9 ST,40.6701803,-73.98929150000002,281.0,206.0,564.0,893.0,940.0,681.0,249.0,143.0,401.0,828.0,816.0,568.0,97.0,724.0,1758.0,1118.0,2720.0,875.0,139.0,793.0,1830.0,1261.0,2792.0,983.0,151.0,790.0,1797.0,1314.0,2816.0,1097.0,137.0,777.0,1814.0,1303.0,2853.0,1093.0,157.0,742.0,1659.0,1455.0,2514.0
122,67 AV,40.7263823,-73.8515929,140.0,374.0,905.0,926.0,759.0,420.0,109.0,196.0,804.0,798.0,662.0,291.0,70.0,2169.0,3783.0,1599.0,2856.0,949.0,125.0,2299.0,3960.0,1652.0,3108.0,1006.0,135.0,2270.0,3944.0,1759.0,3039.0,986.0,135.0,2251.0,3962.0,1656.0,2839.0,1087.0,144.0,1956.0,3668.0,1869.0,2663.0
123,ROCKAWAY AV,40.6625632,-73.9089054,395.0,586.0,1020.0,1245.0,1299.0,1008.0,369.0,420.0,951.0,1173.0,1327.0,946.0,306.0,1420.0,1911.0,1725.0,2176.0,984.0,317.0,1493.0,2114.0,1819.0,2504.0,949.0,347.0,1414.0,2160.0,1964.0,2484.0,1119.0,369.0,1410.0,2149.0,1941.0,2649.0,1135.0,314.0,1380.0,2058.0,1961.0,2340.0
124,PELHAM BAY PARK,40.852930799999996,-73.8270555,330.0,657.0,1126.0,1500.0,1406.0,869.0,281.0,483.0,1047.0,1502.0,1555.0,995.0,270.0,2546.0,2304.0,1673.0,2174.0,986.0,251.0,2657.0,2397.0,1879.0,2303.0,1017.0,280.0,2639.0,2424.0,2003.0,2596.0,1217.0,315.0,2621.0,2368.0,1883.0,2554.0,1164.0,274.0,2351.0,2281.0,1935.0,2361.0
125,CLASSON AV,40.688873,-73.96007,291.0,296.0,884.0,1323.0,1450.0,845.0,250.0,190.0,882.0,1395.0,1266.0,849.0,135.0,978.0,2569.0,1444.0,2790.0,1083.0,161.0,1009.0,2606.0,1533.0,2835.0,1309.0,188.0,1039.0,2643.0,1482.0,2802.0,1316.0,197.0,1066.0,2605.0,1659.0,2804.0,1407.0,186.0,927.0,2407.0,1808.0,2615.0
126,NEW LOTS AV,40.6663015,-73.88371579999998,500.0,724.0,966.0,1279.0,1369.0,1005.0,452.0,571.0,943.0,1192.0,1196.0,937.0,382.0,2002.0,2047.0,1859.0,2613.0,1280.0,388.0,2103.0,2301.0,2067.0,2924.0,1377.0,422.0,2090.0,2266.0,1981.0,2941.0,1357.0,448.0,2059.0,2190.0,2090.0,2875.0,1393.0,459.0,1980.0,2072.0,2082.0,2807.0
127,GRANT AV,40.6768777,-73.86534619999998,480.0,835.0,1111.0,1386.0,1304.0,954.0,432.0,578.0,1079.0,1175.0,1131.0,918.0,340.0,1867.0,2149.0,1793.0,2574.0,1113.0,376.0,1959.0,2368.0,1888.0,2522.0,1216.0,389.0,1995.0,2394.0,2055.0,2768.0,1347.0,442.0,1927.0,2283.0,1926.0,2680.0,1415.0,432.0,1807.0,2220.0,1297.0,2723.0
128,STERLING ST,40.6632908,-73.951044,197.0,347.0,961.0,1218.0,1165.0,648.0,195.0,235.0,961.0,1139.0,1072.0,610.0,112.0,1130.0,2410.0,1469.0,2108.0,768.0,121.0,1155.0,2567.0,1553.0,2180.0,865.0,160.0,1217.0,2616.0,940.0,2205.0,967.0,142.0,1155.0,2576.0,1605.0,2166.0,996.0,175.0,1078.0,2334.0,1700.0,2192.0
129,PROSPECT AV,40.66541369999999,-73.99292590000002,283.0,359.0,900.0,1247.0,1207.0,691.0,255.0,204.0,773.0,1016.0,1014.0,525.0,133.0,1173.0,2727.0,1295.0,2434.0,821.0,144.0,1199.0,2845.0,1484.0,2528.0,905.0,179.0,1148.0,2849.0,1484.0,2606.0,1019.0,181.0,1201.0,2751.0,1494.0,2851.0,965.0,205.0,1090.0,2477.0,1572.0,2227.0
130,18 ST,40.74122390000001,-73.9980319,282.0,226.0,902.0,1832.0,1926.0,923.0,271.0,173.0,695.0,1680.0,1643.0,706.0,118.0,624.0,3201.0,2282.0,4690.0,1188.0,144.0,650.0,3309.0,2977.0,4963.0,1251.0,159.0,665.0,3237.0,2686.0,4982.0,1520.0,167.0,667.0,3160.0,2822.0,5074.0,1552.0,212.0,564.0,2591.0,3000.0,4042.0
131,SARATOGA AV,40.669094,-73.91828199999998,404.0,591.0,902.0,1051.0,1198.0,1022.0,342.0,442.0,840.0,1062.0,1079.0,876.0,264.0,1879.0,1958.0,1593.0,2596.0,1074.0,294.0,1957.0,2116.0,1751.0,2900.0,1159.0,309.0,1987.0,2146.0,1748.0,2885.0,1213.0,351.0,1768.0,2040.0,1725.0,2800.0,1364.0,337.0,1922.0,2093.0,1746.0,2585.0
132,WILSON AV,40.6887823,-73.90467240000001,0.0,0.0,0.0,0.0,0.0,0.0,0.0,0.0,0.0,0.0,0.0,0.0,0.0,986.0,1679.0,1304.0,2048.0,989.0,,,1830.0,1361.0,2101.0,1056.0,12.0,1041.0,1822.0,1366.0,2190.0,1074.0,21.0,1110.0,1772.0,1427.0,2136.0,1111.0,10.0,1069.0,1700.0,1515.0,2059.0
133,V.CORTLANDT PK,40.89642429999999,-73.8852842,266.0,700.0,1206.0,1364.0,1183.0,651.0,194.0,453.0,946.0,1468.0,1126.0,706.0,170.0,2466.0,2274.0,1422.0,2081.0,759.0,155.0,2673.0,2295.0,1514.0,2265.0,908.0,175.0,2651.0,2420.0,1638.0,2497.0,979.0,215.0,2468.0,2444.0,1749.0,2425.0,1053.0,233.0,2444.0,2138.0,1641.0,2342.0
134,WESTCHESTER SQ,40.840124700000004,-73.84282579999999,382.0,665.0,1012.0,1429.0,1306.0,793.0,259.0,462.0,812.0,1132.0,1007.0,792.0,192.0,1863.0,2413.0,2281.0,2886.0,999.0,234.0,1930.0,2611.0,2613.0,3022.0,1061.0,260.0,1961.0,2521.0,2466.0,3187.0,1154.0,310.0,1840.0,2447.0,2423.0,3017.0,1169.0,298.0,1762.0,2446.0,2464.0,2825.0
135,FAR ROCKAWAY,40.6077527,-73.7517548,415.0,649.0,790.0,967.0,1030.0,615.0,286.0,461.0,778.0,846.0,875.0,634.0,307.0,1528.0,1458.0,1252.0,1932.0,770.0,330.0,1574.0,1523.0,1383.0,2089.0,834.0,272.0,1584.0,1552.0,1482.0,2140.0,918.0,343.0,1675.0,1402.0,1406.0,2181.0,865.0,366.0,1549.0,1497.0,1598.0,2121.0
136,WOODLAWN,40.88603699999999,-73.878751,364.0,747.0,891.0,1152.0,1134.0,773.0,247.0,361.0,819.0,1089.0,1107.0,711.0,180.0,2253.0,1564.0,1365.0,1825.0,887.0,256.0,2339.0,1739.0,1572.0,1960.0,926.0,276.0,2374.0,1752.0,1401.0,2002.0,947.0,216.0,1994.0,1567.0,1532.0,1804.0,841.0,237.0,2180.0,1477.0,1608.0,1962.0
137,CORTELYOU RD,40.6412697,-73.9639694,239.0,533.0,1078.0,1343.0,1073.0,644.0,163.0,354.0,1131.0,1308.0,1053.0,538.0,158.0,1353.0,2321.0,1260.0,1388.0,598.0,197.0,1451.0,2517.0,1431.0,1431.0,665.0,161.0,1468.0,2524.0,1532.0,1656.0,811.0,149.0,1420.0,989.0,562.0,1599.0,758.0,146.0,1345.0,2360.0,1450.0,1591.0
138,BERGEN ST,40.686083200000006,-73.9909074,177.0,143.0,682.0,945.0,967.0,590.0,170.0,121.0,626.0,1038.0,957.0,485.0,79.0,473.0,1898.0,752.0,1461.0,568.0,36.0,429.0,1873.0,956.0,1646.0,592.0,94.0,501.0,2023.0,899.0,1720.0,712.0,87.0,465.0,1906.0,911.0,1733.0,761.0,146.0,463.0,1768.0,1063.0,1532.0
139,BEDFORD PK BLVD,40.8732636,-73.8871965,226.0,571.0,794.0,934.0,832.0,612.0,200.0,356.0,697.0,992.0,985.0,593.0,168.0,1305.0,1366.0,1137.0,1640.0,775.0,191.0,1373.0,1317.0,1114.0,1740.0,810.0,212.0,1394.0,1373.0,1156.0,1869.0,824.0,233.0,1348.0,1531.0,1300.0,2031.0,894.0,248.0,1304.0,1446.0,1348.0,1745.0
140,HARLEM 148 ST,40.8240504,-73.9369385,236.0,355.0,828.0,1167.0,1234.0,810.0,214.0,247.0,951.0,1155.0,1135.0,766.0,204.0,1182.0,1923.0,1422.0,2129.0,601.0,28.0,1238.0,2221.0,1588.0,2354.0,750.0,14.0,1211.0,2128.0,1601.0,2485.0,821.0,18.0,1248.0,2087.0,1554.0,2504.0,783.0,18.0,1085.0,1955.0,1605.0,2094.0
141,BAY RIDGE-95 ST,40.6167174,-74.0308527,227.0,431.0,983.0,1099.0,994.0,594.0,193.0,299.0,867.0,980.0,893.0,533.0,127.0,1770.0,2361.0,1317.0,2318.0,778.0,148.0,1925.0,2435.0,1419.0,2498.0,852.0,187.0,1840.0,2469.0,1376.0,2346.0,929.0,183.0,1811.0,2467.0,1431.0,1746.0,869.0,204.0,1603.0,2270.0,1480.0,2163.0
142,CLINTON-WASH AV,40.683498900000004,-73.9668944,352.0,327.0,1214.0,1540.0,1453.0,969.0,332.0,234.0,1013.0,1533.0,1320.0,797.0,132.0,1153.0,3652.0,1707.0,2761.0,1037.0,155.0,1238.0,3789.0,1774.0,2879.0,1154.0,187.0,1263.0,3808.0,1893.0,3106.0,1275.0,200.0,1396.0,3844.0,2003.0,2912.0,1269.0,216.0,1279.0,3495.0,2235.0,2850.0
143,KINGSTON-THROOP,40.679826500000004,-73.94112940000001,638.0,542.0,1534.0,1769.0,1788.0,1401.0,580.0,397.0,1296.0,1738.0,1597.0,1183.0,379.0,1263.0,2918.0,1947.0,2696.0,1361.0,336.0,1370.0,3082.0,1952.0,2624.0,1548.0,462.0,1398.0,3087.0,1999.0,2786.0,1735.0,432.0,1377.0,3068.0,2033.0,2773.0,1619.0,488.0,1318.0,2904.0,2395.0,2632.0
144,ST LAWRENCE AV,40.8315326,-73.8672593,462.0,619.0,801.0,1022.0,1065.0,743.0,333.0,425.0,861.0,1056.0,970.0,782.0,295.0,1336.0,1501.0,1213.0,1596.0,924.0,326.0,1464.0,1437.0,1345.0,1861.0,882.0,282.0,1465.0,1480.0,1358.0,1913.0,982.0,448.0,1440.0,1541.0,1363.0,1762.0,958.0,381.0,1407.0,1346.0,1413.0,1721.0
145,176 ST,40.8484597,-73.9117411,296.0,719.0,1064.0,1389.0,1022.0,784.0,192.0,524.0,922.0,1178.0,1044.0,810.0,204.0,1574.0,1899.0,1615.0,1864.0,867.0,209.0,1701.0,2115.0,1751.0,1886.0,824.0,272.0,1649.0,2102.0,1701.0,1914.0,961.0,240.0,1709.0,2098.0,1693.0,1961.0,905.0,264.0,1608.0,2015.0,1837.0,1935.0
146,FULTON ST,40.709893,-74.0079818,282.0,295.0,907.0,1850.0,2034.0,1140.0,299.0,215.0,894.0,1670.0,1877.0,888.0,133.0,704.0,1845.0,1464.0,2562.0,1113.0,125.0,782.0,1872.0,1606.0,2494.0,1137.0,133.0,785.0,1916.0,1596.0,2705.0,1174.0,129.0,711.0,1923.0,1548.0,2621.0,1299.0,160.0,706.0,1817.0,1851.0,2674.0
147,AVENUE J,40.6252684,-73.9607296,165.0,417.0,949.0,1001.0,921.0,573.0,136.0,342.0,1069.0,1203.0,1151.0,630.0,153.0,1326.0,2049.0,1466.0,2044.0,704.0,156.0,1301.0,2234.0,1592.0,2154.0,749.0,156.0,1364.0,2172.0,1584.0,2237.0,861.0,135.0,1334.0,2198.0,1589.0,2174.0,853.0,137.0,1264.0,2066.0,1614.0,1890.0
148,183 ST,40.8583924,-73.90397810000002,302.0,840.0,1007.0,1235.0,1107.0,731.0,300.0,556.0,941.0,1260.0,1090.0,721.0,281.0,1673.0,1712.0,1225.0,1734.0,826.0,229.0,1765.0,1808.0,1339.0,1885.0,816.0,291.0,1786.0,1910.0,1251.0,1870.0,894.0,274.0,1789.0,1818.0,1602.0,1762.0,930.0,324.0,1713.0,1882.0,1547.0,1876.0
149,18 AV,40.6201053,-73.9894661,192.0,641.0,1195.0,1265.0,1137.0,613.0,161.0,450.0,1197.0,1304.0,1176.0,669.0,126.0,2757.0,3288.0,2010.0,2781.0,803.0,167.0,2789.0,3567.0,2314.0,2865.0,835.0,152.0,2920.0,3879.0,2557.0,3748.0,1257.0,151.0,2831.0,3461.0,2209.0,3020.0,1052.0,159.0,2667.0,3264.0,2285.0,2685.0
150,KINGSTON AV,40.669284499999996,-73.9422927,252.0,256.0,682.0,882.0,854.0,706.0,254.0,273.0,974.0,1153.0,1131.0,762.0,158.0,871.0,1950.0,1330.0,1993.0,819.0,235.0,915.0,2057.0,1481.0,2146.0,926.0,201.0,901.0,2150.0,1606.0,2145.0,1057.0,263.0,893.0,2056.0,1600.0,2193.0,973.0,256.0,881.0,2005.0,2020.0,1895.0
151,BEVERLEY ROAD,40.644229100000004,-73.96449799999998,268.0,317.0,714.0,843.0,902.0,633.0,254.0,223.0,633.0,845.0,851.0,634.0,166.0,751.0,1316.0,916.0,1567.0,763.0,164.0,828.0,1466.0,918.0,1610.0,824.0,208.0,838.0,1669.0,1278.0,1606.0,948.0,230.0,884.0,1418.0,1007.0,1637.0,927.0,201.0,784.0,1400.0,1042.0,1647.0
152,71 ST,40.619621200000005,-73.99877699999998,124.0,193.0,466.0,529.0,603.0,383.0,135.0,115.0,428.0,468.0,532.0,355.0,75.0,1771.0,2028.0,897.0,1550.0,548.0,103.0,1834.0,2231.0,1077.0,1503.0,569.0,127.0,1852.0,2228.0,1107.0,1688.0,559.0,123.0,1842.0,2141.0,1021.0,1576.0,638.0,117.0,1769.0,2056.0,1094.0,1579.0
153,ST. GEORGE,40.64400390000001,-74.07332480000001,393.0,465.0,726.0,870.0,1003.0,570.0,280.0,304.0,641.0,725.0,892.0,570.0,160.0,3195.0,2312.0,1416.0,4723.0,760.0,281.0,3334.0,2329.0,1493.0,5183.0,849.0,265.0,3402.0,2574.0,1600.0,5195.0,999.0,316.0,3273.0,2580.0,1555.0,5128.0,974.0,301.0,2905.0,2240.0,1696.0,4266.0
154,MT EDEN AV,40.844528499999996,-73.9146157,405.0,719.0,997.0,1196.0,1156.0,839.0,286.0,446.0,874.0,1166.0,1206.0,827.0,238.0,1801.0,1930.0,1283.0,2134.0,1016.0,317.0,1878.0,2191.0,1784.0,2371.0,951.0,326.0,1832.0,2357.0,1847.0,2494.0,1105.0,357.0,1887.0,2200.0,1842.0,2379.0,959.0,301.0,1711.0,2215.0,1816.0,2371.0
155,MARBLE HILL-225,40.8743487,-73.91043309999998,130.0,433.0,734.0,1011.0,857.0,529.0,88.0,295.0,719.0,1154.0,1073.0,501.0,76.0,1188.0,1488.0,1202.0,1434.0,623.0,101.0,1266.0,1534.0,1334.0,1486.0,593.0,88.0,1240.0,1612.0,1304.0,1607.0,653.0,97.0,1267.0,1614.0,1261.0,1732.0,668.0,127.0,1180.0,1433.0,1406.0,1626.0
156,174-175 STS,40.846524,-73.90972690000001,188.0,470.0,760.0,843.0,663.0,365.0,132.0,297.0,566.0,800.0,595.0,404.0,99.0,30.0,,,,,,,,,,,,,,,,,,,,,,,,,,,
157,33 ST-RAWSON ST,40.744587,-73.93099699999998,151.0,553.0,956.0,1299.0,946.0,432.0,127.0,365.0,636.0,782.0,777.0,348.0,131.0,1841.0,3605.0,3283.0,4736.0,917.0,165.0,1910.0,3692.0,3576.0,4617.0,926.0,181.0,1895.0,3613.0,3406.0,4680.0,907.0,199.0,1975.0,3594.0,3503.0,4808.0,925.0,170.0,1887.0,3346.0,3380.0,3786.0
158,CITY HALL,40.7135245,-74.00671009999998,92.0,119.0,563.0,1010.0,923.0,445.0,81.0,93.0,561.0,1073.0,1064.0,531.0,65.0,553.0,2183.0,1959.0,3347.0,643.0,56.0,569.0,2296.0,2466.0,3506.0,764.0,78.0,643.0,2423.0,2460.0,3877.0,807.0,84.0,558.0,2308.0,2338.0,3695.0,803.0,81.0,495.0,2289.0,2288.0,3088.0
159,182-183 STS,40.8560934,-73.90102949999998,160.0,564.0,783.0,793.0,640.0,437.0,132.0,378.0,703.0,840.0,661.0,435.0,92.0,1289.0,1521.0,1417.0,1424.0,750.0,245.0,1367.0,1137.0,1129.0,1453.0,717.0,281.0,1344.0,1661.0,1500.0,1471.0,807.0,269.0,1369.0,1569.0,1509.0,1530.0,856.0,260.0,1310.0,1550.0,1490.0,1640.0
160,PRESIDENT ST,40.668158500000004,-73.95065859999998,228.0,243.0,590.0,928.0,814.0,563.0,200.0,184.0,526.0,808.0,870.0,529.0,151.0,735.0,1882.0,1239.0,2137.0,861.0,133.0,800.0,1981.0,1418.0,2100.0,892.0,169.0,791.0,1981.0,1237.0,2168.0,917.0,151.0,744.0,1938.0,1433.0,2166.0,942.0,165.0,727.0,1714.0,1392.0,1911.0
161,77 ST,40.7736346,-73.95982939999998,113.0,355.0,795.0,858.0,796.0,373.0,87.0,210.0,732.0,779.0,654.0,330.0,74.0,1512.0,2119.0,1040.0,1508.0,470.0,62.0,1636.0,2250.0,1081.0,1579.0,588.0,94.0,1645.0,2276.0,1172.0,1640.0,572.0,90.0,1608.0,2301.0,1119.0,1399.0,598.0,98.0,1407.0,2113.0,1177.0,1624.0
162,GUN HILL RD,40.87773920000001,-73.86630459999998,91.0,458.0,552.0,655.0,546.0,336.0,93.0,291.0,507.0,620.0,506.0,310.0,115.0,1902.0,1489.0,1009.0,955.0,365.0,108.0,2031.0,1657.0,1048.0,991.0,421.0,116.0,2094.0,1698.0,1133.0,1033.0,412.0,125.0,2027.0,1621.0,1160.0,1059.0,406.0,117.0,1854.0,1554.0,1100.0,1050.0
163,79 ST,40.783934,-73.979917,58.0,354.0,712.0,583.0,509.0,291.0,82.0,186.0,610.0,524.0,499.0,280.0,49.0,1840.0,2424.0,1113.0,1329.0,487.0,85.0,1924.0,2535.0,1131.0,1309.0,526.0,123.0,1957.0,2601.0,1103.0,1408.0,542.0,103.0,1918.0,2431.0,1178.0,1407.0,562.0,95.0,1869.0,2257.0,1123.0,1351.0
164,190 ST,40.858887700000004,-73.93422159999999,94.0,200.0,852.0,1317.0,880.0,387.0,95.0,151.0,802.0,1553.0,947.0,365.0,63.0,867.0,1934.0,1109.0,1255.0,451.0,51.0,932.0,2119.0,1264.0,1365.0,485.0,77.0,933.0,2099.0,1280.0,1452.0,563.0,64.0,891.0,2069.0,1335.0,1384.0,512.0,95.0,800.0,1850.0,1370.0,1314.0
165,20 AV,40.617271,-73.9847709,107.0,395.0,753.0,660.0,766.0,368.0,63.0,228.0,639.0,789.0,699.0,361.0,62.0,1509.0,1618.0,922.0,1240.0,445.0,48.0,1543.0,1729.0,996.0,1172.0,467.0,59.0,1577.0,1680.0,1026.0,1467.0,472.0,68.0,1543.0,1669.0,1029.0,1231.0,477.0,72.0,1451.0,1651.0,958.0,1312.0
166,25 ST,40.6604039,-73.99810550000001,242.0,299.0,738.0,880.0,848.0,524.0,187.0,206.0,671.0,821.0,806.0,462.0,128.0,913.0,1648.0,1000.0,1735.0,614.0,139.0,858.0,1630.0,1041.0,1819.0,669.0,151.0,878.0,1731.0,1143.0,1868.0,668.0,186.0,900.0,1661.0,1061.0,1773.0,780.0,170.0,842.0,1677.0,1271.0,1703.0
167,BRIARWOOD,40.7093666,-73.81988539999998,144.0,239.0,398.0,508.0,449.0,272.0,80.0,126.0,393.0,470.0,415.0,263.0,71.0,1390.0,1716.0,918.0,1584.0,563.0,122.0,1509.0,1853.0,1008.0,1656.0,604.0,131.0,1434.0,1870.0,990.0,1573.0,660.0,131.0,1416.0,1830.0,1079.0,1565.0,705.0,128.0,1352.0,1700.0,1081.0,1503.0
168,AQUEDUCT RACETR,40.6721498,-73.8356843,227.0,165.0,193.0,590.0,977.0,591.0,211.0,162.0,185.0,615.0,978.0,572.0,139.0,210.0,252.0,521.0,700.0,426.0,109.0,177.0,258.0,578.0,647.0,420.0,125.0,203.0,244.0,553.0,865.0,500.0,115.0,178.0,240.0,595.0,850.0,502.0,144.0,187.0,283.0,602.0,
169,PENNSYLVANIA AV,40.6646911,-73.8941747,215.0,440.0,667.0,765.0,876.0,601.0,161.0,342.0,629.0,734.0,764.0,569.0,151.0,1132.0,1353.0,1088.0,1421.0,571.0,157.0,1157.0,1483.0,1241.0,1393.0,567.0,149.0,1161.0,1534.0,1287.0,1591.0,642.0,160.0,1282.0,1476.0,1316.0,1550.0,632.0,181.0,1152.0,1433.0,1313.0,1460.0
170,AVENUE M,40.6180725,-73.9593745,78.0,310.0,764.0,765.0,617.0,348.0,73.0,274.0,,,891.0,454.0,56.0,1152.0,1961.0,1136.0,1840.0,491.0,54.0,1198.0,2126.0,1381.0,1875.0,512.0,67.0,1182.0,2119.0,1397.0,1939.0,593.0,73.0,1179.0,2048.0,1374.0,1887.0,603.0,87.0,1065.0,1981.0,1533.0,1523.0
171,OCEAN PKWY,40.5762935,-73.9684997,122.0,244.0,635.0,750.0,692.0,336.0,89.0,191.0,671.0,921.0,947.0,381.0,72.0,799.0,1121.0,868.0,1084.0,405.0,91.0,760.0,1131.0,969.0,1119.0,396.0,89.0,778.0,1295.0,1124.0,1387.0,477.0,87.0,772.0,1207.0,1068.0,1353.0,476.0,92.0,708.0,1131.0,1053.0,1306.0
172,AVENUE H,40.6297445,-73.96166170000001,166.0,249.0,528.0,647.0,592.0,431.0,132.0,167.0,552.0,634.0,711.0,412.0,97.0,641.0,1233.0,823.0,1291.0,544.0,113.0,664.0,1300.0,946.0,1355.0,598.0,149.0,663.0,1303.0,994.0,1485.0,605.0,148.0,651.0,1338.0,848.0,1376.0,661.0,160.0,626.0,1218.0,926.0,1178.0
173,JUNIUS ST,40.67504,-73.904496,164.0,302.0,489.0,569.0,642.0,457.0,201.0,241.0,,,562.0,458.0,122.0,588.0,815.0,838.0,1164.0,417.0,130.0,615.0,967.0,883.0,1209.0,,,616.0,1012.0,912.0,1348.0,533.0,167.0,684.0,921.0,890.0,1320.0,536.0,168.0,616.0,922.0,972.0,1202.0
174,NECK RD,40.595153100000005,-73.9550266,74.0,434.0,853.0,653.0,641.0,326.0,63.0,265.0,805.0,637.0,627.0,288.0,62.0,1246.0,1569.0,678.0,1123.0,352.0,58.0,1293.0,1746.0,792.0,1284.0,370.0,63.0,1309.0,1646.0,750.0,1267.0,425.0,47.0,1314.0,1821.0,817.0,1275.0,450.0,71.0,1195.0,1526.0,762.0,1120.0
175,VAN SICLEN AV,40.67274219999999,-73.8903155,274.0,315.0,474.0,690.0,652.0,518.0,252.0,261.0,,610.0,,547.0,209.0,999.0,1085.0,991.0,1477.0,622.0,198.0,1016.0,1204.0,999.0,1585.0,737.0,200.0,1023.0,1241.0,1053.0,1623.0,753.0,237.0,1050.0,1208.0,1102.0,1518.0,721.0,240.0,940.0,1125.0,1142.0,1444.0
176,138/GRAND CONC,40.8132249,-73.9298111,233.0,461.0,602.0,628.0,591.0,318.0,163.0,322.0,422.0,526.0,593.0,322.0,166.0,1005.0,1325.0,1131.0,1387.0,522.0,230.0,1103.0,1417.0,1301.0,1408.0,479.0,236.0,1130.0,1379.0,1350.0,1612.0,553.0,226.0,1097.0,1497.0,1266.0,1480.0,554.0,289.0,1087.0,1236.0,1272.0,1359.0
177,BEVERLY RD,40.8322067,-73.3848891,82.0,324.0,564.0,715.0,564.0,311.0,89.0,248.0,521.0,618.0,506.0,273.0,71.0,1188.0,1317.0,776.0,741.0,314.0,82.0,1249.0,1454.0,802.0,789.0,346.0,98.0,1194.0,1522.0,805.0,837.0,387.0,84.0,1211.0,1431.0,844.0,877.0,354.0,87.0,1078.0,1392.0,867.0,783.0
178,75 AV,40.718331,-73.837324,60.0,58.0,277.0,332.0,292.0,173.0,44.0,41.0,164.0,263.0,263.0,118.0,33.0,705.0,1513.0,659.0,800.0,307.0,33.0,741.0,1551.0,684.0,1017.0,295.0,45.0,775.0,1621.0,708.0,893.0,290.0,47.0,719.0,1553.0,750.0,876.0,335.0,45.0,641.0,1484.0,682.0,813.0
179,BUSHWICK AV,40.7002958,-73.94116439999998,24.0,6.0,4.0,5.0,5.0,14.0,20.0,9.0,3.0,0.0,5.0,25.0,24.0,439.0,703.0,541.0,780.0,447.0,37.0,438.0,826.0,713.0,818.0,419.0,7.0,431.0,840.0,626.0,878.0,432.0,13.0,478.0,889.0,657.0,911.0,409.0,4.0,452.0,793.0,665.0,842.0
180,BEACH 67 ST,40.5909714,-73.79631690000001,107.0,205.0,268.0,375.0,313.0,228.0,107.0,146.0,251.0,332.0,316.0,212.0,93.0,475.0,393.0,411.0,475.0,265.0,116.0,461.0,426.0,460.0,478.0,225.0,111.0,469.0,461.0,518.0,609.0,292.0,113.0,464.0,434.0,506.0,620.0,290.0,117.0,425.0,460.0,432.0,561.0
181,WHITLOCK AV,40.82674420000001,-73.88634559999998,206.0,288.0,360.0,506.0,480.0,319.0,145.0,229.0,339.0,470.0,487.0,376.0,114.0,609.0,662.0,669.0,902.0,458.0,147.0,665.0,808.0,714.0,1046.0,473.0,168.0,647.0,729.0,688.0,1003.0,518.0,211.0,704.0,758.0,696.0,986.0,526.0,178.0,632.0,723.0,688.0,918.0
182,W 8 ST-AQUARIUM,40.57612779999999,-73.97596539999998,223.0,139.0,472.0,1145.0,849.0,303.0,29.0,97.0,866.0,1934.0,1820.0,500.0,55.0,491.0,1247.0,1197.0,1021.0,199.0,17.0,533.0,1356.0,1912.0,1288.0,284.0,45.0,519.0,1731.0,2977.0,2399.0,659.0,60.0,529.0,1551.0,2463.0,2018.0,642.0,49.0,481.0,1429.0,2309.0,2023.0
183,PARK PLACE,40.7132422,-74.0092559,47.0,85.0,218.0,497.0,530.0,260.0,42.0,53.0,278.0,594.0,610.0,223.0,14.0,465.0,1853.0,1017.0,2102.0,295.0,26.0,502.0,1882.0,1270.0,2190.0,424.0,43.0,475.0,1832.0,1247.0,2202.0,392.0,41.0,473.0,1834.0,1281.0,2154.0,430.0,34.0,422.0,,,1662.0
184,215 ST,40.8695946,-73.9153019,97.0,147.0,453.0,549.0,502.0,348.0,99.0,110.0,392.0,562.0,611.0,268.0,62.0,292.0,750.0,697.0,784.0,290.0,76.0,301.0,793.0,698.0,834.0,343.0,59.0,310.0,816.0,713.0,937.0,439.0,66.0,280.0,719.0,744.0,802.0,361.0,74.0,303.0,712.0,710.0,725.0
185,HOWARD BCH JFK,40.660476,-73.83030099999998,,,,,,,,,,,,,,,,,,,,,,,,,,,,,,,,,,,,,,,,,
186,BEACH 25 ST,40.59946790000001,-73.7618536,194.0,217.0,278.0,314.0,333.0,289.0,156.0,185.0,295.0,309.0,303.0,290.0,171.0,689.0,480.0,479.0,730.0,377.0,120.0,655.0,526.0,473.0,747.0,419.0,159.0,670.0,510.0,513.0,807.0,469.0,196.0,696.0,454.0,455.0,790.0,453.0,189.0,625.0,473.0,471.0,760.0
187,BEACH 60 ST,40.59244,-73.78928300000003,187.0,229.0,272.0,333.0,357.0,257.0,147.0,195.0,253.0,287.0,287.0,233.0,149.0,534.0,534.0,484.0,532.0,318.0,141.0,566.0,589.0,539.0,618.0,297.0,143.0,548.0,560.0,603.0,662.0,331.0,140.0,553.0,526.0,567.0,634.0,341.0,181.0,514.0,523.0,564.0,627.0
188,ATLANTIC AV,40.675554,-73.90305759999998,57.0,77.0,134.0,195.0,140.0,92.0,33.0,53.0,109.0,136.0,129.0,72.0,23.0,434.0,532.0,382.0,611.0,169.0,22.0,470.0,575.0,432.0,664.0,204.0,28.0,467.0,582.0,441.0,708.0,201.0,27.0,467.0,552.0,449.0,634.0,197.0,37.0,404.0,562.0,561.0,671.0
189,BEACH 36 ST,40.595532,-73.7681238,103.0,113.0,136.0,146.0,166.0,168.0,84.0,92.0,140.0,197.0,176.0,142.0,71.0,315.0,227.0,252.0,343.0,185.0,60.0,292.0,276.0,227.0,383.0,179.0,63.0,283.0,295.0,251.0,423.0,225.0,79.0,291.0,220.0,263.0,398.0,181.0,90.0,259.0,271.0,293.0,356.0
190,55 ST,40.6315514,-73.9956328,31.0,83.0,169.0,169.0,170.0,101.0,22.0,62.0,225.0,326.0,251.0,120.0,25.0,362.0,714.0,647.0,963.0,236.0,28.0,344.0,802.0,682.0,900.0,221.0,28.0,362.0,777.0,619.0,977.0,263.0,32.0,376.0,742.0,663.0,862.0,255.0,37.0,417.0,629.0,688.0,660.0
191,104 ST,40.695145600000004,-73.8443046,71.0,215.0,231.0,223.0,230.0,131.0,31.0,118.0,228.0,196.0,186.0,132.0,53.0,1278.0,965.0,547.0,654.0,217.0,53.0,1389.0,1027.0,555.0,691.0,256.0,62.0,1360.0,966.0,596.0,703.0,269.0,61.0,1362.0,1069.0,608.0,679.0,274.0,64.0,1233.0,941.0,575.0,680.0
192,BEACH 44 ST,40.592920899999996,-73.77594839999998,68.0,100.0,123.0,160.0,163.0,114.0,56.0,77.0,127.0,141.0,136.0,140.0,64.0,240.0,190.0,209.0,256.0,180.0,61.0,235.0,221.0,225.0,305.0,144.0,77.0,260.0,228.0,242.0,288.0,172.0,87.0,266.0,222.0,221.0,314.0,159.0,73.0,243.0,233.0,219.0,252.0
193,WORLD TRADE CTR,40.712645200000004,-74.00989799999998,812.0,895.0,3283.0,6193.0,6076.0,3124.0,846.0,491.0,3187.0,5336.0,5533.0,2736.0,379.0,2838.0,9387.0,6130.0,12981.0,2597.0,253.0,2830.0,9682.0,6981.0,13661.0,2870.0,319.0,2735.0,9534.0,7233.0,13720.0,3011.0,304.0,2884.0,9140.0,6763.0,14438.0,3341.0,346.0,2479.0,,,12235.0
194,NASSAU AV,40.7238944,-73.9506777,599.0,512.0,1691.0,3409.0,3526.0,1899.0,659.0,353.0,1476.0,2870.0,2657.0,1541.0,226.0,1583.0,3917.0,1910.0,3879.0,1381.0,156.0,1661.0,4099.0,,,1480.0,217.0,1635.0,4098.0,2194.0,4268.0,1682.0,238.0,1603.0,4025.0,2154.0,4161.0,1601.0,247.0,1490.0,3619.0,2519.0,3995.0
195,39 AV,40.752689700000005,-73.9328056,,,,,,,,,,,,,,,,,,,,,,,,,,,,,,,,,,,,,,,,,
196,36 AV,40.7668516,-73.921313,786.0,35.0,50.0,17.0,11.0,8.0,0.0,15.0,29.0,19.0,10.0,406.0,304.0,2157.0,4950.0,2890.0,4737.0,,175.0,,5237.0,3290.0,6007.0,2769.0,509.0,2279.0,5327.0,3279.0,6254.0,2993.0,485.0,2252.0,5201.0,3369.0,6073.0,2751.0,613.0,1964.0,4902.0,3466.0,5985.0
197,BROADWAY,40.7623472,-73.9256595,,,,,,,,,,,,,,,,,,,,,,,,,,,,,,,,,,,,,,,,,
198,COURT SQ-23 ST,40.748050799999994,-73.94704779999998,113.0,266.0,750.0,855.0,818.0,461.0,74.0,138.0,705.0,818.0,725.0,348.0,67.0,1034.0,1949.0,1333.0,2197.0,618.0,142.0,1061.0,2073.0,1409.0,2300.0,680.0,107.0,1128.0,2075.0,1397.0,2276.0,691.0,131.0,1075.0,2049.0,1452.0,2266.0,716.0,129.0,971.0,1900.0,1570.0,2077.0
199,ASTORIA DITMARS,40.7750119,-73.91211,890.0,1.0,0.0,3.0,5.0,1.0,0.0,0.0,0.0,1.0,0.0,439.0,368.0,3304.0,6528.0,3422.0,6093.0,2833.0,501.0,3069.0,7054.0,3766.0,7013.0,3079.0,601.0,3457.0,7206.0,3802.0,6955.0,3458.0,566.0,3432.0,7096.0,3785.0,6703.0,3264.0,758.0,3131.0,6508.0,4018.0,6483.0
200,CYPRESS HILLS,40.68994860000001,-73.87257310000003,37.0,5.0,3.0,3.0,8.0,1.0,3.0,2.0,2.0,3.0,8.0,26.0,43.0,452.0,431.0,321.0,551.0,197.0,52.0,493.0,491.0,413.0,523.0,183.0,45.0,504.0,518.0,362.0,594.0,238.0,58.0,496.0,462.0,367.0,559.0,174.0,52.0,479.0,482.0,367.0,517.0
201,30 AV,40.7668516,-73.921313,1252.0,18.0,61.0,21.0,8.0,12.0,4.0,39.0,52.0,35.0,25.0,534.0,400.0,3192.0,7991.0,4099.0,7343.0,3760.0,608.0,3599.0,8201.0,4553.0,9211.0,4165.0,720.0,3504.0,8439.0,4735.0,10002.0,4853.0,749.0,3343.0,8473.0,4681.0,8881.0,4174.0,940.0,3005.0,7660.0,5504.0,8489.0
202,121 ST,40.7006094,-73.8281286,59.0,6.0,15.0,9.0,1.0,1.0,1.0,0.0,0.0,0.0,0.0,23.0,26.0,322.0,367.0,296.0,379.0,151.0,52.0,417.0,378.0,329.0,416.0,133.0,41.0,390.0,401.0,299.0,413.0,170.0,76.0,410.0,408.0,323.0,465.0,194.0,78.0,380.0,360.0,316.0,377.0
203,75 ST-ELDERTS,40.69143649999999,-73.8665512,156.0,0.0,0.0,0.0,0.0,0.0,0.0,1.0,0.0,0.0,0.0,133.0,138.0,1245.0,1216.0,940.0,1208.0,461.0,131.0,1314.0,1318.0,1011.0,1217.0,539.0,163.0,1315.0,1337.0,1060.0,1345.0,550.0,136.0,1369.0,1258.0,928.0,1308.0,568.0,147.0,1253.0,1083.0,957.0,1249.0
204,AVENUE X,40.589682200000006,-73.9742509,109.0,289.0,407.0,449.0,,,89.0,173.0,432.0,454.0,451.0,302.0,70.0,878.0,988.0,692.0,1134.0,410.0,72.0,955.0,1061.0,706.0,1258.0,426.0,81.0,912.0,1100.0,786.0,1178.0,435.0,80.0,916.0,1070.0,796.0,1175.0,478.0,101.0,904.0,986.0,761.0,1084.0
205,AVENUE P,40.6087814,-73.97290840000001,59.0,204.0,343.0,306.0,283.0,144.0,65.0,162.0,358.0,350.0,287.0,142.0,31.0,596.0,736.0,359.0,615.0,187.0,34.0,635.0,797.0,469.0,616.0,214.0,29.0,643.0,808.0,443.0,670.0,229.0,47.0,653.0,834.0,451.0,627.0,216.0,46.0,641.0,720.0,446.0,529.0
206,85 ST-FOREST PK,40.6924861,-73.8590708,160.0,0.0,0.0,0.0,0.0,0.0,2.0,0.0,0.0,0.0,3.0,90.0,108.0,1347.0,1167.0,956.0,1295.0,509.0,153.0,1388.0,1310.0,953.0,1398.0,508.0,162.0,1423.0,1215.0,996.0,1403.0,592.0,165.0,1364.0,1265.0,997.0,1287.0,596.0,135.0,1280.0,1235.0,1098.0,1243.0
207,WOODHAVEN BLVD,40.6939097,-73.85139269999998,188.0,14.0,12.0,18.0,12.0,4.0,0.0,9.0,1.0,8.0,6.0,153.0,134.0,1498.0,1521.0,1247.0,1780.0,692.0,121.0,1166.0,1659.0,1282.0,1802.0,648.0,146.0,1573.0,1679.0,1283.0,1912.0,738.0,147.0,1554.0,1623.0,1220.0,1809.0,723.0,154.0,1514.0,1571.0,1277.0,1830.0
208,METROPOLITAN AV,40.712132700000005,-73.889276,143.0,299.0,572.0,1074.0,1019.0,448.0,111.0,156.0,629.0,995.0,934.0,447.0,113.0,1278.0,1259.0,1144.0,2059.0,546.0,90.0,1307.0,1530.0,1307.0,2093.0,569.0,98.0,1315.0,1453.0,1204.0,2128.0,644.0,89.0,1298.0,1367.0,1238.0,2134.0,634.0,103.0,1220.0,1336.0,1305.0,1929.0
209,GREENPOINT AV,40.7301618,-73.9540458,484.0,484.0,1509.0,2273.0,2281.0,1472.0,370.0,254.0,1222.0,1829.0,1967.0,1081.0,191.0,1786.0,4483.0,2478.0,4860.0,1547.0,193.0,1856.0,4645.0,2758.0,5151.0,1682.0,217.0,1881.0,4534.0,2672.0,5045.0,1852.0,269.0,1835.0,4489.0,2657.0,5051.0,1882.0,255.0,1710.0,4147.0,3220.0,4909.0
