,StationName,Latitude,Longitude,2018-05-05 00:00:00,2018-05-05 04:00:00,2018-05-05 08:00:00,2018-05-05 12:00:00,2018-05-05 16:00:00,2018-05-05 20:00:00,2018-05-06 00:00:00,2018-05-06 04:00:00,2018-05-06 08:00:00,2018-05-06 12:00:00,2018-05-06 16:00:00,2018-05-06 20:00:00,2018-05-07 00:00:00,2018-05-07 04:00:00,2018-05-07 08:00:00,2018-05-07 12:00:00,2018-05-07 16:00:00,2018-05-07 20:00:00,2018-05-08 00:00:00,2018-05-08 04:00:00,2018-05-08 08:00:00,2018-05-08 12:00:00,2018-05-08 16:00:00,2018-05-08 20:00:00,2018-05-09 00:00:00,2018-05-09 04:00:00,2018-05-09 08:00:00,2018-05-09 12:00:00,2018-05-09 16:00:00,2018-05-09 20:00:00,2018-05-10 00:00:00,2018-05-10 04:00:00,2018-05-10 08:00:00,2018-05-10 12:00:00,2018-05-10 16:00:00,2018-05-10 20:00:00,2018-05-11 00:00:00,2018-05-11 04:00:00,2018-05-11 08:00:00,2018-05-11 12:00:00,2018-05-11 16:00:00
0,34 ST-HERALD SQ,40.748897899999996,-73.98878859999998,5767.0,5694.0,25951.0,40775.0,45120.0,24865.0,5201.0,3992.0,19640.0,32735.0,35871.0,16647.0,2063.0,16746.0,61164.0,44103.0,85991.0,25399.0,2490.0,18012.0,63370.0,45440.0,88741.0,29343.0,3047.0,17996.0,62213.0,47120.0,89639.0,31133.0,3207.0,17740.0,62423.0,48197.0,88780.0,30883.0,4575.0,17043.0,59114.0,51903.0,88854.0
1,TIMES SQ-42 ST,40.7545563,-73.98667370000001,8078.0,4970.0,18794.0,29648.0,37407.0,28532.0,7386.0,3392.0,14477.0,25198.0,28355.0,18017.0,3155.0,13729.0,48666.0,32670.0,64415.0,23314.0,3626.0,14616.0,51196.0,34659.0,68367.0,28664.0,4208.0,14269.0,51585.0,37735.0,70202.0,29012.0,4469.0,14874.0,50841.0,36357.0,68977.0,29594.0,4761.0,13461.0,47613.0,40153.0,66859.0
2,34 ST-PENN STA,40.751056,-73.99031020000001,3976.0,5978.0,21639.0,30810.0,32421.0,18371.0,3479.0,3853.0,17640.0,24454.0,29017.0,13583.0,1922.0,25598.0,59545.0,37613.0,76772.0,19140.0,2039.0,25822.0,60659.0,38443.0,78738.0,21209.0,2221.0,25674.0,59936.0,39693.0,80070.0,23406.0,2554.0,25937.0,59604.0,41476.0,79246.0,24409.0,2929.0,23494.0,53184.0,45057.0,75430.0
3,59 ST COLUMBUS,40.7684839,-73.98180699999999,2877.0,3440.0,16522.0,27896.0,29013.0,14740.0,3133.0,2413.0,13191.0,21224.0,20560.0,8911.0,1300.0,11203.0,34468.0,31174.0,46639.0,16319.0,1689.0,11707.0,35457.0,32471.0,49331.0,19137.0,1899.0,11574.0,35180.0,33486.0,49642.0,18811.0,2041.0,11397.0,35951.0,33036.0,48225.0,18594.0,2520.0,10700.0,32710.0,34245.0,44738.0
4,86 ST,40.7795016,-73.95557240000001,1601.0,3592.0,14099.0,19682.0,20407.0,9010.0,1523.0,2456.0,10668.0,15835.0,14830.0,5553.0,776.0,13602.0,30211.0,25389.0,39246.0,11190.0,1038.0,14472.0,30487.0,26143.0,40512.0,12436.0,1036.0,14219.0,32146.0,27295.0,39982.0,12136.0,884.0,13555.0,32203.0,27858.0,39559.0,12074.0,1223.0,13065.0,31083.0,29420.0,37872.0
5,GRD CNTRL-42 ST,40.75216470000001,-73.97715339999998,2748.0,3491.0,14768.0,20332.0,21085.0,11899.0,2760.0,2198.0,11496.0,15371.0,16371.0,7051.0,1063.0,15433.0,42385.0,24796.0,48395.0,11746.0,1613.0,16558.0,42834.0,26587.0,50827.0,13548.0,1747.0,16195.0,43026.0,27252.0,51264.0,14205.0,1894.0,15779.0,43300.0,28256.0,51664.0,14728.0,2310.0,14258.0,39286.0,29384.0,48051.0
6,59 ST,40.6415685,-74.0176783,2289.0,4302.0,14119.0,20002.0,19336.0,8996.0,1962.0,2803.0,10371.0,15270.0,14596.0,6073.0,1059.0,13080.0,32780.0,24993.0,41381.0,11385.0,1328.0,15129.0,34553.0,13370.0,21236.0,12811.0,1593.0,14695.0,34336.0,27229.0,44329.0,12979.0,1516.0,14107.0,34332.0,27522.0,43500.0,12886.0,1737.0,13595.0,32913.0,29130.0,41243.0
7,FLUSHING-MAIN,40.75955820000001,-73.82992209999998,2470.0,6481.0,16885.0,18581.0,19718.0,12428.0,2293.0,3849.0,12918.0,14904.0,15310.0,8932.0,1376.0,17552.0,24978.0,18902.0,29630.0,13458.0,1620.0,17885.0,25003.0,19099.0,31525.0,13703.0,1668.0,18085.0,25012.0,18945.0,31343.0,13875.0,1844.0,17946.0,24901.0,17310.0,30226.0,13723.0,1880.0,17491.0,24206.0,19762.0,30894.0
8,ATL AV-BARCLAY,40.6837598,-73.97875739999998,2209.0,2191.0,8972.0,15399.0,16065.0,8803.0,2285.0,1633.0,6963.0,12546.0,12277.0,5390.0,891.0,9275.0,20458.0,16362.0,27453.0,8053.0,990.0,9466.0,20769.0,16373.0,28192.0,9054.0,1144.0,9371.0,21078.0,17480.0,27975.0,9435.0,1287.0,9217.0,20605.0,16747.0,28103.0,9397.0,1436.0,8529.0,19717.0,19003.0,31328.0
9,23 ST,40.7413626,-73.9891335,2196.0,2147.0,11342.0,18234.0,19575.0,10222.0,2507.0,1487.0,8044.0,13705.0,13767.0,6591.0,776.0,7801.0,34958.0,26016.0,48164.0,14070.0,1058.0,8678.0,36314.0,26567.0,50774.0,15743.0,1022.0,8752.0,36459.0,28418.0,50242.0,15996.0,1110.0,8628.0,36338.0,28418.0,49282.0,16474.0,1220.0,8020.0,33704.0,29268.0,46781.0
10,42 ST-PORT AUTH,40.7578346,-73.99146259999998,2066.0,5138.0,15824.0,17073.0,18599.0,12164.0,2070.0,2701.0,12125.0,14084.0,16135.0,9516.0,870.0,19984.0,32039.0,17187.0,34824.0,11485.0,1098.0,20162.0,31370.0,17277.0,36216.0,12310.0,1117.0,20162.0,30323.0,17781.0,36009.0,12920.0,1137.0,19862.0,31285.0,17739.0,35702.0,14147.0,1432.0,17983.0,29430.0,19505.0,35028.0
11,14 ST,40.73747540000001,-73.9970975,2595.0,1394.0,6324.0,11676.0,12476.0,7708.0,2231.0,1109.0,5226.0,9418.0,9219.0,4340.0,678.0,4690.0,18426.0,13374.0,21799.0,8285.0,1023.0,5560.0,18991.0,16243.0,27167.0,9593.0,1139.0,5269.0,19007.0,16465.0,26782.0,10226.0,1119.0,5298.0,18924.0,16552.0,27339.0,10337.0,1370.0,5077.0,16035.0,17897.0,23553.0
12,JKSN HT-ROOSVLT,40.746739,-73.89099859999999,4898.0,6130.0,14736.0,17544.0,18336.0,11873.0,4437.0,4118.0,10729.0,14119.0,14463.0,9436.0,2177.0,13586.0,21545.0,18430.0,25153.0,11223.0,2290.0,13131.0,21536.0,18169.0,25000.0,11791.0,2259.0,13126.0,21090.0,18259.0,24582.0,11928.0,2483.0,12868.0,21550.0,18602.0,25090.0,11596.0,2690.0,13224.0,21103.0,19128.0,25700.0
13,BEDFORD AV,40.717354,-73.956972,4030.0,1523.0,9854.0,22576.0,21482.0,12803.0,4478.0,1188.0,6688.0,13390.0,14034.0,6617.0,931.0,4628.0,13777.0,9966.0,20053.0,9104.0,839.0,4847.0,14648.0,9954.0,20515.0,10434.0,1121.0,5084.0,14799.0,10632.0,20563.0,11309.0,1342.0,4731.0,14661.0,10799.0,20731.0,11134.0,1859.0,4538.0,14218.0,12297.0,22613.0
14,47-50 STS ROCK,40.75885,-73.98118610000002,1753.0,2005.0,6433.0,9552.0,11466.0,7678.0,1556.0,1387.0,4904.0,7450.0,8265.0,3835.0,694.0,9554.0,40034.0,19712.0,43464.0,8295.0,1119.0,10193.0,40171.0,20141.0,44932.0,10068.0,1379.0,10265.0,40452.0,20737.0,45046.0,10033.0,1365.0,10445.0,40512.0,22425.0,44964.0,10518.0,1558.0,9732.0,37656.0,23042.0,41253.0
15,34 ST-HUDSON YD,40.7549713,-74.0010084,304.0,1148.0,3051.0,4099.0,3704.0,1383.0,325.0,607.0,2392.0,3119.0,2941.0,940.0,135.0,3345.0,6449.0,5456.0,6933.0,1382.0,156.0,3657.0,7012.0,6138.0,7007.0,1575.0,222.0,3447.0,6651.0,6135.0,6554.0,1648.0,229.0,3377.0,5848.0,4380.0,6283.0,1681.0,228.0,3147.0,5498.0,5743.0,6774.0
16,CHAMBERS ST,40.7155134,-74.00922270000001,1333.0,1803.0,9656.0,14215.0,12107.0,5814.0,1162.0,1161.0,5881.0,9536.0,8580.0,3614.0,561.0,9703.0,33703.0,27941.0,41032.0,9998.0,894.0,10352.0,34888.0,28244.0,42558.0,10462.0,865.0,10496.0,33116.0,28144.0,42183.0,10368.0,1014.0,10253.0,32903.0,28400.0,41755.0,10961.0,1120.0,9271.0,30347.0,29607.0,38438.0
17,125 ST,40.8043863,-73.9374292,2628.0,3203.0,11102.0,15738.0,16878.0,10332.0,2970.0,2455.0,10641.0,13734.0,12875.0,6930.0,1303.0,7615.0,16449.0,14046.0,20240.0,7982.0,1316.0,8045.0,16859.0,14383.0,21898.0,9121.0,1407.0,8136.0,17039.0,14843.0,21891.0,10053.0,1527.0,7868.0,17012.0,15370.0,21617.0,6824.0,1725.0,6116.0,16627.0,15962.0,22151.0
18,57 ST-7 AV,40.765564000000005,-73.9803309,1640.0,1958.0,7738.0,11795.0,13181.0,8273.0,1768.0,1438.0,6189.0,9972.0,9633.0,4643.0,595.0,3851.0,14694.0,10675.0,19251.0,6525.0,838.0,4779.0,15916.0,11943.0,21856.0,9232.0,998.0,4652.0,16213.0,12543.0,22418.0,8948.0,994.0,4680.0,16395.0,35014208.0,21898.0,9071.0,1076.0,4324.0,14907.0,12780.0,20598.0
19,GRAND ST,40.7182003,-73.9935756,1750.0,2203.0,9076.0,12197.0,12820.0,6795.0,1850.0,1359.0,7418.0,10608.0,10174.0,4601.0,657.0,5655.0,14727.0,12761.0,16899.0,5959.0,738.0,5680.0,15164.0,12807.0,17842.0,7013.0,813.0,5891.0,14652.0,12942.0,16847.0,7020.0,745.0,5791.0,14803.0,12533.0,17337.0,7145.0,1093.0,5802.0,14562.0,13920.0,19283.0
20,145 ST,40.8240532,-73.94476230000001,2673.0,2816.0,9085.0,10591.0,10670.0,7139.0,2542.0,2100.0,7224.0,8602.0,7866.0,5491.0,1464.0,8896.0,16967.0,13452.0,19400.0,9362.0,1909.0,9249.0,17410.0,13615.0,19929.0,10522.0,1939.0,9375.0,17827.0,14389.0,19772.0,10389.0,1999.0,9098.0,17661.0,14104.0,19721.0,10167.0,2145.0,8832.0,16426.0,14107.0,18642.0
21,42 ST-BRYANT PK,40.75483679999999,-73.9841215,1809.0,1365.0,5650.0,8497.0,9761.0,5852.0,1615.0,997.0,3883.0,6075.0,6909.0,3448.0,655.0,5581.0,23696.0,14212.0,31551.0,7145.0,1076.0,6077.0,24560.0,15077.0,33178.0,8842.0,1111.0,6190.0,24840.0,15832.0,34048.0,8978.0,1119.0,6042.0,24570.0,16012.0,32652.0,8763.0,1461.0,5742.0,23487.0,17867.0,31658.0
22,2 AV,40.723412700000004,-73.9902885,1697.0,854.0,3558.0,5654.0,7048.0,5323.0,1940.0,723.0,2763.0,4422.0,5095.0,2855.0,432.0,2687.0,7270.0,5897.0,10011.0,4614.0,568.0,2859.0,7344.0,6216.0,10253.0,5080.0,625.0,2881.0,7427.0,6320.0,10531.0,5476.0,860.0,2820.0,7549.0,6799.0,11219.0,5780.0,823.0,2716.0,7423.0,7085.0,12075.0
23,50 ST,40.7620363,-73.98632909999998,3374.0,2080.0,8510.0,11910.0,14101.0,11030.0,3295.0,1811.0,7735.0,10864.0,11848.0,6760.0,1095.0,7251.0,22853.0,15272.0,28546.0,9697.0,1384.0,7652.0,22587.0,16066.0,30345.0,11926.0,1580.0,7844.0,23047.0,17337.0,31523.0,12002.0,1717.0,7731.0,9241.0,8414.0,31175.0,13185.0,1810.0,7264.0,21774.0,17767.0,29853.0
24,CHURCH AV,40.6495233,-73.96328390000001,2273.0,4071.0,9194.0,10095.0,10041.0,6169.0,2086.0,2818.0,6922.0,8128.0,8305.0,4852.0,1315.0,8768.0,9539.0,7186.0,14671.0,6345.0,1142.0,8893.0,12913.0,9503.0,15036.0,6599.0,1311.0,8989.0,13106.0,10078.0,14702.0,6735.0,1464.0,8777.0,12895.0,9590.0,14393.0,6440.0,1483.0,8516.0,12861.0,10574.0,14378.0
25,PRINCE ST,40.7242353,-73.99780600000001,409.0,279.0,1757.0,4419.0,5520.0,2069.0,409.0,143.0,1222.0,3478.0,3896.0,1178.0,80.0,899.0,5996.0,6203.0,10026.0,2873.0,229.0,1047.0,6309.0,6603.0,10598.0,3227.0,287.0,973.0,6214.0,6751.0,10582.0,3357.0,276.0,1011.0,6283.0,7121.0,11077.0,3650.0,391.0,962.0,5957.0,7926.0,12094.0
26,SPRING ST,40.7257799,-74.00395209999998,939.0,672.0,4168.0,9514.0,10522.0,5043.0,1347.0,489.0,3830.0,7653.0,8036.0,2920.0,322.0,1835.0,7980.0,8336.0,14515.0,3810.0,340.0,2004.0,8076.0,8663.0,14701.0,4396.0,373.0,1897.0,8105.0,8880.0,14987.0,4595.0,365.0,1964.0,8321.0,9213.0,15749.0,5213.0,467.0,1846.0,8153.0,10258.0,15172.0
27,LEXINGTON AV/63,40.764629,-73.96611299999998,896.0,1322.0,5356.0,7077.0,6723.0,3147.0,895.0,923.0,3942.0,5635.0,5003.0,2096.0,353.0,5713.0,14249.0,9443.0,15020.0,4519.0,435.0,4718.0,13138.0,10023.0,15449.0,4943.0,489.0,4856.0,12526.0,9905.0,16026.0,5133.0,486.0,5010.0,13194.0,10280.0,15780.0,5093.0,582.0,4691.0,12442.0,10503.0,14381.0
28,NOSTRAND AV,40.6697362,-73.95050890000002,1326.0,1899.0,6437.0,7778.0,7485.0,4995.0,1447.0,1345.0,4783.0,6294.0,5664.0,3394.0,659.0,5148.0,10408.0,7029.0,10897.0,4999.0,865.0,5444.0,10663.0,7064.0,10883.0,5373.0,916.0,5281.0,10824.0,7277.0,10819.0,5521.0,959.0,5381.0,10799.0,7126.0,10922.0,5402.0,946.0,4993.0,10454.0,7946.0,7825.0
29,JAY ST-METROTEC,40.6922507,-73.9872792,1661.0,1407.0,6890.0,11173.0,9911.0,5283.0,1307.0,1011.0,5423.0,8397.0,7141.0,3219.0,541.0,4799.0,19466.0,17493.0,25017.0,6648.0,685.0,5628.0,18780.0,17627.0,25526.0,7305.0,769.0,5464.0,18633.0,17994.0,25513.0,7504.0,706.0,5423.0,18674.0,17237.0,25465.0,7111.0,756.0,4924.0,17253.0,17581.0,22209.0
30,1 AV,40.7312776,-73.9823439,2865.0,1598.0,6582.0,10568.0,11785.0,9283.0,3110.0,1161.0,4861.0,7820.0,8435.0,5058.0,709.0,4863.0,10632.0,8642.0,13040.0,6293.0,821.0,5306.0,10864.0,8966.0,13686.0,7566.0,958.0,5236.0,10794.0,9113.0,13667.0,7625.0,1081.0,5058.0,10874.0,9630.0,13926.0,8208.0,1276.0,4727.0,10589.0,9632.0,14711.0
31,STEINWAY ST,40.756691700000005,-73.92064090000001,636.0,1053.0,4042.0,5037.0,4638.0,2725.0,688.0,690.0,2845.0,3794.0,3423.0,1676.0,254.0,3448.0,7214.0,5367.0,7789.0,3430.0,388.0,3578.0,6999.0,5310.0,7997.0,3408.0,548.0,3576.0,7060.0,5548.0,8090.0,3585.0,447.0,3456.0,6984.0,5202.0,7891.0,3252.0,588.0,3343.0,6782.0,5365.0,8252.0
32,JUNCTION BLVD,40.749203,-73.8693365,1502.0,4025.0,6057.0,6786.0,7088.0,4027.0,1433.0,2078.0,4558.0,5774.0,5513.0,3114.0,845.0,9049.0,8508.0,9691.0,11576.0,4562.0,1000.0,8634.0,8654.0,9388.0,12046.0,4689.0,1016.0,8864.0,8428.0,9734.0,11533.0,4866.0,1071.0,8732.0,8676.0,8627.0,12550.0,4587.0,1207.0,8647.0,8308.0,9946.0,12507.0
33,DEKALB AV,40.68982020000001,-73.9811611,1207.0,2234.0,7142.0,8950.0,7837.0,4462.0,1065.0,1391.0,5328.0,7493.0,6336.0,2730.0,510.0,7101.0,14388.0,10180.0,13120.0,4557.0,655.0,7216.0,14841.0,10234.0,13724.0,5026.0,679.0,7362.0,15061.0,10012.0,13340.0,5297.0,780.0,7367.0,14966.0,10075.0,13124.0,5090.0,833.0,6799.0,14170.0,10729.0,12991.0
34,BOROUGH HALL,40.6931492,-73.9900883,998.0,998.0,5289.0,8810.0,8408.0,4318.0,886.0,629.0,3724.0,6304.0,5422.0,2447.0,380.0,4841.0,18502.0,14849.0,20836.0,4984.0,412.0,5149.0,18631.0,15639.0,20684.0,5334.0,476.0,4916.0,19055.0,15444.0,20659.0,5576.0,463.0,4836.0,18208.0,14989.0,20225.0,5369.0,622.0,4460.0,17204.0,15396.0,18166.0
35,CROWN HTS-UTICA,40.6689469,-73.93183379999998,1484.0,2491.0,5342.0,6275.0,6021.0,4022.0,1344.0,1667.0,3857.0,4797.0,4472.0,3062.0,739.0,8682.0,11349.0,8244.0,12506.0,5204.0,1915.0,9163.0,11510.0,8053.0,12669.0,5627.0,1820.0,9281.0,11466.0,8497.0,12679.0,5737.0,2086.0,9120.0,11590.0,8456.0,12613.0,5517.0,1920.0,8925.0,11022.0,9125.0,11783.0
36,8 ST-NYU,40.7306065,-73.99244159999998,875.0,316.0,1660.0,3188.0,4187.0,2742.0,762.0,212.0,1248.0,2458.0,2749.0,1673.0,205.0,1311.0,6767.0,5022.0,9662.0,4003.0,456.0,1435.0,6870.0,5559.0,10388.0,4511.0,590.0,1470.0,6860.0,5412.0,9650.0,4555.0,517.0,1458.0,6709.0,5711.0,10500.0,4840.0,669.0,1182.0,6385.0,6152.0,10549.0
37,CANAL ST,40.722713899999995,-74.00630600000001,746.0,937.0,3768.0,6812.0,7274.0,3374.0,1002.0,622.0,3194.0,5409.0,5234.0,2060.0,226.0,2885.0,9913.0,7225.0,14289.0,3342.0,407.0,3007.0,10165.0,8819.0,14846.0,3982.0,427.0,3119.0,9980.0,8095.0,15008.0,4224.0,598.0,3010.0,10129.0,8344.0,15213.0,4302.0,695.0,2878.0,9724.0,8927.0,14847.0
38,QUEENSBORO PLZ,40.7505127,-73.9398439,638.0,1004.0,3393.0,3764.0,3613.0,1921.0,579.0,677.0,2809.0,2946.0,2409.0,1213.0,301.0,2241.0,5727.0,4211.0,5982.0,1775.0,376.0,2187.0,5410.0,4250.0,6079.0,1930.0,352.0,2147.0,5407.0,4442.0,5935.0,2079.0,427.0,2078.0,5398.0,4667.0,6053.0,2018.0,414.0,2086.0,5050.0,4462.0,5636.0
39,MYRTLE-WYCKOFF,40.699686,-73.9117713,1632.0,2696.0,6157.0,6836.0,6623.0,4267.0,1587.0,1585.0,4669.0,5557.0,5272.0,3132.0,789.0,6374.0,8870.0,6127.0,8559.0,4261.0,959.0,6555.0,9076.0,6061.0,8877.0,4317.0,971.0,6507.0,9256.0,6341.0,8673.0,4580.0,1093.0,6437.0,9209.0,5912.0,8965.0,4589.0,1219.0,6229.0,8924.0,6741.0,8702.0
40,51 ST,40.757135,-73.97191190000001,838.0,1177.0,4270.0,5577.0,5914.0,3056.0,734.0,866.0,3608.0,4580.0,4424.0,2005.0,303.0,3492.0,13719.0,7911.0,14240.0,3406.0,472.0,3848.0,14477.0,8689.0,15137.0,4072.0,557.0,3834.0,14394.0,8830.0,15125.0,4202.0,596.0,3636.0,14558.0,9609.0,15528.0,4289.0,695.0,3123.0,14001.0,9303.0,14400.0
41,COURT SQ,40.7467885,-73.944548,771.0,1105.0,3032.0,4181.0,4180.0,3244.0,950.0,599.0,2213.0,3265.0,3006.0,1597.0,325.0,4074.0,10877.0,6664.0,12777.0,3880.0,773.0,4571.0,10629.0,6938.0,12947.0,4164.0,788.0,4555.0,10704.0,7086.0,12768.0,4330.0,786.0,4786.0,11809.0,7767.0,13324.0,4447.0,860.0,4481.0,9806.0,6552.0,10539.0
42,JAMAICA CENTER,40.702144700000005,-73.8008771,1933.0,4279.0,7069.0,8252.0,8106.0,5020.0,2017.0,2976.0,5072.0,5762.0,6491.0,3996.0,1333.0,15308.0,15672.0,13625.0,20260.0,7484.0,1771.0,15911.0,15867.0,13576.0,20873.0,7845.0,1860.0,16066.0,15925.0,13856.0,20115.0,8076.0,1720.0,15857.0,15562.0,13017.0,20655.0,7519.0,1888.0,15139.0,14743.0,13493.0,18822.0
43,49 ST,40.7598372,-73.98418249999999,1014.0,852.0,2430.0,3872.0,5759.0,3906.0,874.0,557.0,2128.0,3854.0,3868.0,2434.0,365.0,2636.0,10469.0,7585.0,15914.0,6050.0,762.0,3640.0,11550.0,8256.0,16774.0,7927.0,920.0,3678.0,12194.0,9122.0,16920.0,7658.0,966.0,3749.0,11817.0,9080.0,17285.0,8283.0,1128.0,3317.0,11415.0,9345.0,17188.0
44,BOWLING GREEN,40.7048108,-74.0144596,956.0,1504.0,5607.0,7865.0,7945.0,3170.0,860.0,879.0,3621.0,5118.0,4763.0,1983.0,414.0,5975.0,18745.0,11803.0,20812.0,3613.0,630.0,6185.0,18971.0,12313.0,21547.0,3979.0,634.0,6306.0,18979.0,12276.0,21373.0,4228.0,770.0,6247.0,17745.0,12161.0,20939.0,4222.0,835.0,5601.0,16651.0,13074.0,16517.0
45,BLEECKER ST,40.7259346,-73.9946724,1036.0,645.0,2510.0,4386.0,5356.0,3075.0,1352.0,444.0,1850.0,3901.0,2040.0,1116.0,387.0,1371.0,4997.0,3902.0,7107.0,3083.0,464.0,1412.0,5219.0,4183.0,7379.0,3308.0,545.0,1475.0,5132.0,4286.0,7559.0,3491.0,538.0,1396.0,5003.0,4451.0,7690.0,3689.0,682.0,1394.0,4863.0,4638.0,7653.0
46,VERNON-JACKSON,40.7426713,-73.9537248,712.0,688.0,2776.0,4411.0,4871.0,2927.0,647.0,499.0,2521.0,3804.0,3236.0,1732.0,230.0,3334.0,8445.0,4296.0,7638.0,2885.0,322.0,3800.0,8659.0,4601.0,8451.0,3215.0,373.0,3640.0,8851.0,4621.0,8171.0,3510.0,392.0,3552.0,8662.0,3315.0,7931.0,3315.0,436.0,3300.0,8249.0,4924.0,8256.0
47,28 ST,40.7470686,-73.99350919999998,452.0,406.0,1727.0,2575.0,2950.0,1558.0,485.0,255.0,1264.0,1884.0,1930.0,976.0,161.0,1340.0,7053.0,5464.0,9195.0,2886.0,393.0,1552.0,7831.0,5940.0,9720.0,3349.0,403.0,1665.0,7744.0,5940.0,9877.0,3424.0,479.0,1613.0,7885.0,6315.0,10087.0,3681.0,518.0,1520.0,7423.0,7010.0,9700.0
48,SUTPHIN-ARCHER,40.700572799999996,-73.8077071,1531.0,3278.0,5835.0,6805.0,7497.0,4239.0,1530.0,2154.0,4408.0,5575.0,6281.0,3870.0,1068.0,8490.0,9121.0,8910.0,12747.0,4854.0,1187.0,8916.0,9421.0,8420.0,12686.0,5105.0,1319.0,8628.0,9290.0,8535.0,12650.0,5304.0,1194.0,8578.0,9270.0,8498.0,12895.0,5208.0,1423.0,8409.0,9278.0,9632.0,12949.0
49,FORDHAM RD,40.8614886,-73.8905408,938.0,2785.0,5473.0,7005.0,6230.0,3386.0,1083.0,1842.0,3587.0,4766.0,4330.0,2412.0,695.0,6000.0,6962.0,6540.0,8004.0,2942.0,735.0,6109.0,6979.0,6689.0,8193.0,3210.0,758.0,6128.0,6943.0,6913.0,8241.0,3177.0,746.0,6166.0,6981.0,6661.0,8015.0,3123.0,795.0,6084.0,6915.0,6722.0,8266.0
50,HIGH ST,40.6993673,-73.99126559999998,630.0,583.0,4275.0,7121.0,7399.0,3812.0,644.0,401.0,3334.0,5464.0,4829.0,2220.0,186.0,1719.0,6885.0,4762.0,7672.0,3042.0,280.0,1992.0,6815.0,4801.0,8057.0,3387.0,273.0,1856.0,6532.0,4736.0,8021.0,3593.0,300.0,1805.0,6624.0,4713.0,7271.0,3198.0,294.0,1676.0,6589.0,5866.0,8192.0
51,BROOKLYN BRIDGE,40.6993673,-73.99126559999998,452.0,656.0,3075.0,5053.0,4476.0,2117.0,394.0,490.0,2057.0,3316.0,3162.0,1399.0,222.0,3471.0,12055.0,9555.0,13057.0,3271.0,337.0,3737.0,11542.0,9916.0,13428.0,3429.0,409.0,3770.0,11693.0,9622.0,3078.0,483.0,452.0,3687.0,11640.0,9797.0,12641.0,3310.0,467.0,3314.0,11234.0,10169.0,12734.0
52,103 ST-CORONA,40.7498268,-73.862746,1485.0,4063.0,5567.0,5712.0,6313.0,3949.0,1441.0,2048.0,4431.0,4957.0,4717.0,2992.0,961.0,8458.0,6396.0,4815.0,8509.0,4009.0,1050.0,8619.0,6584.0,4588.0,9037.0,4252.0,1192.0,8692.0,6631.0,4532.0,8818.0,4097.0,1245.0,8716.0,6615.0,4529.0,8289.0,4235.0,1307.0,8634.0,6444.0,4697.0,8733.0
53,GRAND-NEWTOWN,40.736835,-73.87758840000001,415.0,1977.0,4427.0,3871.0,3592.0,2003.0,480.0,1050.0,3175.0,3101.0,2752.0,1519.0,237.0,6092.0,8310.0,5211.0,7474.0,2778.0,443.0,6378.0,8233.0,5440.0,7283.0,3045.0,463.0,6398.0,8245.0,5252.0,7253.0,2996.0,566.0,6270.0,8401.0,5225.0,6863.0,2909.0,484.0,6246.0,8129.0,5259.0,6853.0
54,181 ST,40.84913,-73.93372889999998,1083.0,13.0,3.0,2.0,0.0,0.0,0.0,1.0,0.0,0.0,1.0,375.0,448.0,3192.0,5135.0,5479.0,6837.0,3056.0,691.0,3262.0,5031.0,5354.0,6773.0,3360.0,746.0,3280.0,5138.0,5450.0,6923.0,3360.0,727.0,3248.0,5183.0,5224.0,6863.0,3123.0,752.0,3181.0,4910.0,5433.0,6988.0
55,167 ST,40.835598,-73.9213791,1387.0,2767.0,4886.0,5452.0,5553.0,3231.0,1213.0,1881.0,3386.0,4099.0,4011.0,2541.0,777.0,6290.0,6333.0,5622.0,8416.0,3396.0,1174.0,6544.0,7433.0,6623.0,8743.0,3827.0,1189.0,5852.0,7494.0,6820.0,8437.0,3995.0,1264.0,6558.0,7484.0,6596.0,8548.0,3533.0,1252.0,6515.0,7196.0,6685.0,8437.0
56,82 ST-JACKSON H,40.7477145,-73.8839373,1251.0,1827.0,5148.0,7456.0,7341.0,4193.0,1246.0,1161.0,3473.0,5604.0,5423.0,2954.0,707.0,4572.0,6345.0,6250.0,10272.0,4029.0,703.0,4255.0,6327.0,6251.0,10686.0,4150.0,803.0,4246.0,6462.0,5987.0,10728.0,4206.0,859.0,4074.0,6448.0,5578.0,9969.0,4202.0,903.0,4161.0,6080.0,5751.0,10486.0
57,KINGS HWY,40.60867440000001,-73.9578059,728.0,1595.0,4504.0,5004.0,4904.0,2560.0,698.0,1119.0,3764.0,4170.0,4090.0,2043.0,352.0,6515.0,9594.0,7555.0,11998.0,3815.0,473.0,6590.0,9781.0,7434.0,12229.0,4095.0,452.0,6798.0,9708.0,7622.0,12079.0,4254.0,526.0,6728.0,9693.0,7456.0,11873.0,3990.0,513.0,6340.0,9337.0,8033.0,10440.0
58,3 AV-149 ST,40.816129,-73.917811,857.0,667.0,11.0,4.0,5.0,4.0,1.0,5.0,10.0,9.0,414.0,1571.0,560.0,5347.0,8251.0,7875.0,8406.0,2539.0,538.0,5583.0,8210.0,7583.0,8616.0,2590.0,600.0,5781.0,7571.0,7726.0,8408.0,2662.0,524.0,5707.0,8545.0,9456.0,8368.0,2538.0,575.0,5589.0,8641.0,10188.0,8207.0
59,EAST BROADWAY,40.714402899999996,-73.98991880000001,540.0,770.0,2850.0,3483.0,3491.0,1960.0,473.0,460.0,2496.0,3035.0,3032.0,1582.0,232.0,2336.0,5531.0,4636.0,6185.0,1995.0,307.0,2498.0,5529.0,4720.0,6351.0,2334.0,291.0,2494.0,5760.0,4998.0,6750.0,2381.0,316.0,2577.0,5749.0,5099.0,6546.0,2472.0,385.0,2405.0,5534.0,5350.0,6970.0
60,72 ST,40.778453000000006,-73.98196999999998,101.0,142.0,1345.0,2870.0,3238.0,864.0,80.0,100.0,953.0,2326.0,2076.0,377.0,28.0,10.0,,,,,,,,,,,,,,,,,,,,,,,,,,,
61,WALL ST,40.706396500000004,-74.0094441,86.0,145.0,83.0,85.0,143.0,85.0,39.0,141.0,126.0,140.0,106.0,56.0,53.0,4651.0,16781.0,6658.0,18390.0,1893.0,14.0,4858.0,18275.0,7416.0,18929.0,2066.0,32.0,4051.0,14250.0,7740.0,18663.0,2039.0,26.0,4947.0,16915.0,7727.0,18703.0,2035.0,6.0,4141.0,14928.0,8655.0,17203.0
62,21 ST-QNSBRIDGE,40.75417770000001,-73.94247419999998,531.0,1107.0,2976.0,2841.0,2778.0,1911.0,590.0,760.0,2201.0,2122.0,2236.0,1416.0,267.0,2881.0,5047.0,3367.0,5120.0,1856.0,285.0,2824.0,4984.0,3516.0,5022.0,1990.0,360.0,2859.0,4935.0,3624.0,5141.0,2095.0,362.0,2761.0,5090.0,3569.0,5061.0,1993.0,378.0,2646.0,4860.0,3863.0,4913.0
63,HOYT-SCHER,40.688828799999996,-73.98531249999998,531.0,470.0,2614.0,,4511.0,,565.0,372.0,2380.0,3984.0,3638.0,1523.0,219.0,1465.0,5295.0,4531.0,6512.0,2182.0,222.0,1514.0,5207.0,4587.0,6340.0,2272.0,260.0,1583.0,5784.0,5232.0,6458.0,2346.0,244.0,1570.0,5145.0,4608.0,6338.0,2447.0,298.0,1447.0,5045.0,4996.0,6533.0
64,FRANKLIN AV,40.7190056,-74.0066801,679.0,763.0,2788.0,3602.0,3393.0,2311.0,746.0,541.0,2019.0,2719.0,2335.0,1405.0,259.0,2797.0,6590.0,3549.0,5807.0,2715.0,280.0,2908.0,6559.0,3805.0,5988.0,2904.0,325.0,2919.0,6880.0,3900.0,5947.0,2939.0,416.0,2886.0,6771.0,3802.0,5790.0,3018.0,356.0,2785.0,6456.0,4190.0,5456.0
65,168 ST,40.841041,-73.939971,1114.0,2736.0,6130.0,7229.0,6619.0,3768.0,1124.0,1805.0,4587.0,5589.0,5060.0,2852.0,651.0,6240.0,12190.0,9482.0,13059.0,3998.0,766.0,6487.0,12399.0,9352.0,13650.0,4328.0,751.0,6543.0,12877.0,10024.0,13306.0,4350.0,851.0,6383.0,12833.0,9997.0,13853.0,4333.0,972.0,6218.0,12037.0,9875.0,13222.0
66,NEVINS ST,40.6882963,-73.98052059999999,563.0,727.0,2615.0,4308.0,3941.0,2008.0,511.0,568.0,1707.0,3110.0,2692.0,1352.0,293.0,2345.0,5405.0,4791.0,6809.0,1824.0,258.0,2386.0,5497.0,4821.0,7018.0,2321.0,258.0,2405.0,5530.0,,7089.0,,335.0,2412.0,5482.0,4974.0,6989.0,2209.0,267.0,2261.0,5229.0,5310.0,6349.0
67,5 AVE,40.760216299999996,-73.975543,365.0,415.0,1854.0,3016.0,3230.0,1429.0,266.0,226.0,1227.0,2106.0,2308.0,836.0,96.0,1576.0,6504.0,4159.0,9290.0,2230.0,214.0,1711.0,6575.0,4213.0,9280.0,2377.0,255.0,1673.0,6507.0,4397.0,9413.0,2538.0,271.0,1683.0,6512.0,4268.0,9075.0,2527.0,335.0,1624.0,5995.0,4703.0,8588.0
68,PROSPECT PARK,40.66087879999999,-73.9621109,888.0,779.0,3398.0,5415.0,4977.0,2485.0,766.0,618.0,2597.0,4749.0,3680.0,1611.0,432.0,2515.0,5054.0,3665.0,6052.0,2659.0,492.0,2577.0,5410.0,4184.0,6443.0,2948.0,513.0,2617.0,5509.0,4111.0,6074.0,3182.0,555.0,2485.0,5331.0,3779.0,5787.0,2814.0,552.0,2427.0,5840.0,4596.0,6132.0
69,CENTRAL PK N110,40.798737599999995,-73.9522934,571.0,800.0,2423.0,3070.0,2906.0,1707.0,577.0,553.0,2114.0,2599.0,2206.0,1306.0,311.0,2447.0,4730.0,3732.0,4893.0,2004.0,370.0,2674.0,4854.0,3582.0,5189.0,2169.0,459.0,2704.0,4883.0,3814.0,5122.0,2196.0,418.0,2684.0,4858.0,3774.0,4913.0,2060.0,406.0,2645.0,4713.0,3926.0,5093.0
70,LEXINGTON AV/53,40.757698100000006,-73.96907420000001,1370.0,1685.0,5960.0,7752.0,8241.0,4707.0,1257.0,1004.0,4466.0,5984.0,5888.0,3082.0,426.0,8692.0,28421.0,13665.0,30160.0,6236.0,810.0,9137.0,28280.0,14461.0,31036.0,7003.0,918.0,9453.0,28787.0,14683.0,31426.0,7595.0,918.0,9072.0,28508.0,15795.0,31268.0,7695.0,1017.0,8468.0,26215.0,16134.0,28905.0
71,63 DR-REGO PARK,40.7301359,-73.86236729999999,382.0,1000.0,3078.0,4019.0,3726.0,1785.0,395.0,595.0,2297.0,3219.0,2996.0,1198.0,197.0,4024.0,6499.0,4167.0,5778.0,1812.0,173.0,4140.0,6804.0,4182.0,5623.0,1826.0,177.0,4133.0,6825.0,4321.0,5662.0,1854.0,190.0,4024.0,6675.0,4318.0,5607.0,1847.0,223.0,3961.0,5934.0,4170.0,5752.0
72,3 AV,40.733135299999994,-73.98675829999998,996.0,397.0,1846.0,3552.0,3937.0,3047.0,1193.0,308.0,1405.0,2611.0,3032.0,1763.0,282.0,1137.0,3030.0,2533.0,4374.0,2177.0,286.0,1218.0,3111.0,2727.0,4514.0,2443.0,282.0,1212.0,3050.0,2594.0,4416.0,2692.0,317.0,1140.0,3134.0,2725.0,4435.0,2689.0,422.0,1096.0,2986.0,2742.0,4830.0
73,175 ST,40.847916600000005,-73.9394823,401.0,1249.0,3187.0,4012.0,3786.0,2110.0,715.0,819.0,2608.0,3066.0,3132.0,1595.0,252.0,3708.0,5609.0,3546.0,5557.0,1994.0,283.0,3686.0,5885.0,3639.0,5785.0,2129.0,344.0,3616.0,5716.0,3732.0,5668.0,2209.0,420.0,3658.0,5874.0,3857.0,5684.0,2162.0,438.0,3486.0,5511.0,4266.0,5847.0
74,53 ST,40.760216299999996,-73.975543,564.0,932.0,1958.0,2174.0,2066.0,1300.0,563.0,579.0,1501.0,1793.0,1778.0,1129.0,336.0,2592.0,3282.0,2859.0,3930.0,1655.0,417.0,2818.0,3240.0,2789.0,3950.0,1677.0,430.0,2806.0,3375.0,2769.0,4033.0,1800.0,392.0,2725.0,3294.0,2686.0,3889.0,1753.0,402.0,2708.0,3332.0,2851.0,3863.0
75,110 ST,40.798737599999995,-73.9522934,750.0,1102.0,3222.0,4137.0,4070.0,2072.0,700.0,730.0,2286.0,2716.0,2728.0,1587.0,338.0,3054.0,5202.0,4482.0,5526.0,2079.0,448.0,3293.0,5260.0,4510.0,5988.0,2507.0,461.0,3334.0,5288.0,4577.0,5636.0,2463.0,515.0,3207.0,5414.0,4537.0,5671.0,2508.0,516.0,3135.0,5341.0,4856.0,5897.0
76,BEDFORD-NOSTRAN,40.6898534,-73.9516398,525.0,549.0,2140.0,2687.0,2675.0,1705.0,519.0,402.0,1729.0,2362.0,1909.0,1048.0,214.0,1949.0,4468.0,2289.0,3534.0,1840.0,405.0,2027.0,4495.0,2182.0,3507.0,2136.0,438.0,2076.0,4582.0,2370.0,3599.0,1995.0,256.0,1975.0,4586.0,2236.0,3594.0,2072.0,486.0,1942.0,4334.0,2486.0,3503.0
77,GRAHAM AV,40.714526299999996,-73.94438180000002,739.0,580.0,2453.0,3273.0,3630.0,2797.0,738.0,361.0,1976.0,2820.0,2803.0,1503.0,223.0,1940.0,5583.0,2750.0,4873.0,2813.0,321.0,2129.0,5673.0,2861.0,4614.0,2725.0,325.0,2006.0,5708.0,3007.0,4721.0,2972.0,345.0,2039.0,5458.0,2328.0,4893.0,2904.0,436.0,1902.0,5382.0,3045.0,4495.0
78,46 ST BLISS ST,40.7430691,-73.91824030000002,884.0,1536.0,3544.0,4248.0,4284.0,2609.0,726.0,909.0,2630.0,3192.0,3076.0,2050.0,432.0,3818.0,5412.0,3763.0,6304.0,2808.0,543.0,3959.0,5559.0,3603.0,6287.0,3002.0,616.0,4064.0,5489.0,3890.0,6696.0,3071.0,581.0,3885.0,5621.0,3645.0,6284.0,3015.0,632.0,3901.0,5424.0,3762.0,6587.0
79,CHRISTOPHER ST,40.733578400000006,-74.00287279999998,1163.0,392.0,2116.0,3754.0,4578.0,3606.0,1178.0,311.0,1591.0,3173.0,3238.0,2023.0,335.0,989.0,3882.0,3493.0,5431.0,2987.0,396.0,1083.0,3850.0,3458.0,5867.0,3479.0,480.0,1111.0,4160.0,3900.0,6204.0,3650.0,540.0,1115.0,4025.0,3774.0,6207.0,4128.0,597.0,1025.0,3757.0,4203.0,6363.0
80,191 ST,40.855738,-73.9306512,776.0,10.0,7.0,3.0,0.0,0.0,0.0,0.0,0.0,0.0,0.0,353.0,326.0,2868.0,3806.0,3484.0,5021.0,2472.0,491.0,2941.0,3881.0,3676.0,5178.0,2733.0,548.0,2914.0,3882.0,3522.0,5072.0,2689.0,514.0,2837.0,3941.0,3568.0,5090.0,2527.0,529.0,2783.0,3759.0,3448.0,4902.0
81,ROOSEVELT ISLND,40.7591362,-73.9533215,405.0,389.0,2225.0,3283.0,3293.0,1656.0,361.0,247.0,1701.0,2603.0,2494.0,1242.0,130.0,1465.0,3673.0,2833.0,4295.0,1835.0,135.0,1560.0,3970.0,2889.0,4471.0,1895.0,127.0,1539.0,3783.0,2688.0,4476.0,1898.0,131.0,1499.0,3959.0,2841.0,4313.0,1967.0,145.0,1514.0,3750.0,3194.0,4372.0
82,BROADWAY JCT,40.6789137,-73.9039,854.0,1381.0,2515.0,2995.0,2975.0,2139.0,799.0,999.0,1821.0,2362.0,2205.0,1566.0,457.0,3001.0,3847.0,3681.0,4516.0,1966.0,538.0,3065.0,3802.0,3448.0,4591.0,2098.0,553.0,3082.0,3850.0,3600.0,4657.0,2177.0,632.0,3118.0,3792.0,3468.0,4578.0,2177.0,575.0,3037.0,3924.0,3932.0,4553.0
83,HOYT ST,40.688828799999996,-73.98531249999998,13.0,6.0,4.0,1.0,10.0,2.0,2.0,0.0,1.0,0.0,2.0,2.0,2.0,1013.0,3422.0,3137.0,4589.0,793.0,5.0,1080.0,3523.0,3337.0,4511.0,890.0,34.0,1016.0,3597.0,3466.0,4579.0,843.0,30.0,1081.0,3646.0,3447.0,4650.0,835.0,22.0,1010.0,3358.0,3640.0,4638.0
84,135 ST,40.817894,-73.947647,561.0,978.0,2714.0,3061.0,2672.0,1528.0,466.0,649.0,2522.0,2630.0,1998.0,1160.0,258.0,2851.0,5055.0,3840.0,4776.0,1797.0,383.0,3074.0,5344.0,3842.0,4866.0,2022.0,372.0,3054.0,5451.0,3909.0,4938.0,2271.0,408.0,2955.0,5510.0,3906.0,4906.0,1962.0,377.0,2886.0,5293.0,4101.0,4729.0
85,ELMHURST AV,40.74244789999999,-73.88198440000001,154.0,1235.0,2960.0,2222.0,1744.0,808.0,155.0,750.0,2309.0,2048.0,1400.0,599.0,99.0,3867.0,5091.0,2824.0,2983.0,1061.0,159.0,3893.0,5180.0,2779.0,3026.0,1112.0,198.0,3936.0,5209.0,2827.0,3006.0,1155.0,245.0,3859.0,5272.0,2818.0,2971.0,1132.0,243.0,3873.0,5086.0,2781.0,3162.0
86,RECTOR ST,40.7078954,-74.01363649999998,571.0,519.0,2986.0,4132.0,4052.0,1829.0,369.0,392.0,2298.0,3052.0,2748.0,1122.0,164.0,1805.0,7954.0,5232.0,9256.0,2023.0,267.0,2087.0,8185.0,5474.0,9722.0,2211.0,301.0,2031.0,8137.0,5503.0,9654.0,2390.0,291.0,2043.0,8195.0,5886.0,9688.0,2511.0,338.0,1871.0,7838.0,6311.0,10037.0
87,4AV-9 ST,40.6701803,-73.98929150000002,318.0,506.0,2222.0,2943.0,2762.0,1599.0,397.0,350.0,1643.0,2403.0,1975.0,917.0,165.0,2152.0,4600.0,2894.0,4605.0,1531.0,192.0,2190.0,5039.0,2905.0,4728.0,1639.0,217.0,2185.0,4867.0,2979.0,4546.0,1702.0,233.0,2102.0,4989.0,3084.0,4722.0,1751.0,248.0,2029.0,4724.0,3094.0,4425.0
88,96 ST,40.7858701,-73.95093469999998,68.0,280.0,1469.0,2237.0,1980.0,806.0,109.0,207.0,1270.0,2182.0,1520.0,512.0,72.0,1831.0,4618.0,3594.0,6109.0,1379.0,78.0,1943.0,4718.0,3685.0,6181.0,1587.0,86.0,885.0,2357.0,3686.0,6401.0,1672.0,84.0,1837.0,4707.0,3547.0,6170.0,726.0,74.0,1835.0,4526.0,4001.0,5863.0
89,JAMAICA 179 ST,40.71264420000001,-73.7838184,646.0,,,3069.0,3082.0,1632.0,618.0,1379.0,2257.0,2253.0,2092.0,1381.0,465.0,10365.0,7585.0,4541.0,6598.0,2320.0,629.0,10948.0,7751.0,4614.0,6888.0,2449.0,640.0,10913.0,7831.0,4593.0,7156.0,2460.0,671.0,10549.0,7659.0,4559.0,6718.0,2382.0,719.0,10045.0,6978.0,4572.0,6535.0
90,BRIGHTON BEACH,40.5776648,-73.96127690000002,369.0,1035.0,2722.0,3434.0,3121.0,1406.0,341.0,730.0,2018.0,2637.0,2301.0,1201.0,174.0,3375.0,5211.0,5575.0,6146.0,2143.0,215.0,3429.0,5358.0,5816.0,6115.0,2195.0,226.0,3476.0,5262.0,5729.0,6223.0,2273.0,232.0,3483.0,5154.0,5532.0,5991.0,2105.0,231.0,3322.0,4587.0,4999.0,5419.0
91,CARROLL ST,40.679331299999994,-73.9954833,286.0,383.0,2131.0,2821.0,3109.0,1533.0,374.0,257.0,1709.0,2481.0,2075.0,880.0,110.0,2171.0,6067.0,2961.0,4726.0,1355.0,99.0,2289.0,5901.0,3114.0,5000.0,1379.0,151.0,2201.0,5908.0,3216.0,4824.0,1606.0,150.0,2204.0,5978.0,3209.0,4926.0,1483.0,141.0,1965.0,5541.0,3470.0,4992.0
92,149/GRAND CONC,40.8183248,-73.9274121,962.0,3168.0,6498.0,7443.0,6386.0,4939.0,1197.0,907.0,2048.0,2952.0,3909.0,1888.0,514.0,3130.0,5679.0,6277.0,6408.0,2760.0,581.0,3121.0,5757.0,6133.0,6477.0,2900.0,621.0,3128.0,5844.0,6423.0,6415.0,2898.0,615.0,2971.0,5479.0,5986.0,6445.0,2693.0,676.0,2952.0,5026.0,5977.0,5801.0
93,UNION ST,40.6771729,-73.98324670000001,458.0,361.0,1407.0,2199.0,2295.0,1480.0,458.0,217.0,1131.0,1740.0,1750.0,832.0,135.0,1444.0,3561.0,1924.0,3711.0,1423.0,210.0,1589.0,3520.0,1986.0,3684.0,1600.0,185.0,1462.0,3672.0,1999.0,3712.0,1697.0,208.0,1439.0,3665.0,2056.0,3662.0,1747.0,241.0,1300.0,3353.0,2241.0,3645.0
94,111 ST,40.75172999999999,-73.855334,682.0,2539.0,3624.0,3430.0,3887.0,2983.0,655.0,1227.0,2950.0,2891.0,2821.0,1664.0,491.0,5916.0,4828.0,3793.0,5214.0,2108.0,425.0,6074.0,4286.0,3304.0,5444.0,2083.0,488.0,5927.0,4751.0,3768.0,5218.0,2115.0,516.0,5890.0,4890.0,3541.0,5410.0,2166.0,528.0,5706.0,4582.0,3780.0,5216.0
95,MONTROSE AV,40.7077716,-73.93986329999998,558.0,626.0,1993.0,2674.0,2632.0,1882.0,689.0,398.0,1459.0,2100.0,1932.0,1112.0,240.0,1313.0,3288.0,2046.0,2821.0,1566.0,255.0,1445.0,3230.0,2037.0,2907.0,1669.0,316.0,1378.0,3276.0,2175.0,2921.0,1717.0,353.0,1379.0,3264.0,2084.0,2949.0,1669.0,332.0,1363.0,3264.0,2498.0,3020.0
96,MORGAN AV,40.70607589999999,-73.93370999999998,622.0,589.0,1819.0,2985.0,2902.0,2029.0,687.0,377.0,1368.0,2409.0,2257.0,1284.0,208.0,1378.0,3197.0,2088.0,3235.0,1484.0,239.0,1543.0,3332.0,2222.0,3311.0,1545.0,306.0,1531.0,3332.0,2374.0,3318.0,1699.0,318.0,1492.0,3378.0,2335.0,3441.0,1570.0,352.0,1503.0,3221.0,2539.0,3484.0
97,90 ST-ELMHURST,40.748436700000006,-73.87652890000001,846.0,2677.0,4582.0,4572.0,4161.0,2345.0,755.0,1502.0,3551.0,3840.0,3337.0,1769.0,514.0,6126.0,5826.0,4507.0,5730.0,2535.0,570.0,6118.0,5819.0,4471.0,5776.0,2718.0,655.0,6236.0,5858.0,4410.0,5920.0,2621.0,599.0,5987.0,5771.0,4100.0,5620.0,2654.0,631.0,6034.0,5543.0,4511.0,5836.0
98,6 AV,40.7373653,-73.99684529999998,412.0,217.0,1189.0,2213.0,2468.0,1473.0,399.0,182.0,844.0,1536.0,1659.0,805.0,112.0,634.0,2010.0,1416.0,2843.0,1202.0,138.0,664.0,2057.0,1568.0,3184.0,1342.0,147.0,649.0,2050.0,1604.0,3068.0,1454.0,172.0,665.0,2091.0,1662.0,3140.0,1516.0,227.0,640.0,1977.0,1807.0,3127.0
99,BOWERY,40.720166799999994,-73.99353470000001,555.0,266.0,931.0,1216.0,1945.0,1302.0,600.0,219.0,966.0,1510.0,1563.0,792.0,156.0,342.0,1417.0,1475.0,2099.0,1093.0,228.0,366.0,1438.0,1463.0,2369.0,1291.0,273.0,386.0,1368.0,1392.0,2263.0,1112.0,198.0,390.0,1424.0,1431.0,2391.0,1408.0,326.0,418.0,1423.0,1563.0,2497.0
100,BURNSIDE AV,40.85345299999999,-73.90768400000002,632.0,1253.0,2694.0,2893.0,2406.0,1422.0,569.0,813.0,1440.0,1820.0,1797.0,1144.0,326.0,2890.0,3562.0,3968.0,4291.0,1899.0,421.0,2956.0,3764.0,4008.0,4220.0,1873.0,439.0,3014.0,3710.0,3946.0,4026.0,2030.0,459.0,2976.0,3737.0,3809.0,4206.0,1743.0,464.0,2930.0,3536.0,3707.0,3724.0
101,45 ST,40.6493588,-74.00959069999998,427.0,739.0,1743.0,2006.0,1714.0,969.0,380.0,446.0,1313.0,1488.0,1420.0,717.0,201.0,2290.0,2761.0,2005.0,3140.0,1078.0,265.0,2390.0,2956.0,2037.0,3199.0,1184.0,256.0,2332.0,2917.0,2102.0,3068.0,1250.0,223.0,2308.0,2943.0,1923.0,2957.0,1163.0,302.0,2201.0,2819.0,2127.0,3073.0
102,170 ST,40.840050399999996,-73.9133477,830.0,1138.0,2214.0,2669.0,3142.0,1938.0,662.0,738.0,1410.0,2018.0,1956.0,1002.0,356.0,2930.0,3504.0,3389.0,4775.0,2014.0,544.0,3014.0,3488.0,3139.0,4269.0,1823.0,578.0,3086.0,3273.0,3392.0,4325.0,2189.0,554.0,3013.0,3166.0,2527.0,4158.0,1928.0,528.0,2839.0,3491.0,3268.0,4017.0
103,169 ST,40.7104152,-73.79374600000001,399.0,972.0,1733.0,1992.0,2197.0,1100.0,451.0,597.0,1294.0,1508.0,1551.0,893.0,260.0,2719.0,3335.0,3321.0,4694.0,1644.0,332.0,2855.0,3574.0,3364.0,4921.0,1710.0,323.0,2907.0,3381.0,3215.0,5169.0,1770.0,350.0,2869.0,3257.0,3361.0,4747.0,1647.0,368.0,2708.0,3080.0,3289.0,4536.0
104,74 ST-BROADWAY,40.746941899999996,-73.89146020000001,360.0,344.0,1332.0,1833.0,1972.0,1271.0,309.0,252.0,909.0,1530.0,1820.0,1017.0,193.0,642.0,1445.0,1865.0,2646.0,1287.0,207.0,704.0,1383.0,1818.0,2556.0,1289.0,203.0,688.0,1338.0,1732.0,2524.0,1217.0,207.0,692.0,1326.0,1728.0,2595.0,1174.0,219.0,693.0,1381.0,1853.0,2606.0
105,40 ST LOWERY ST,40.7438729,-73.92423409999998,593.0,861.0,2558.0,3046.0,3197.0,2048.0,576.0,546.0,2033.0,2524.0,2271.0,1483.0,238.0,2942.0,4799.0,3294.0,5455.0,2238.0,302.0,3105.0,4685.0,3147.0,5541.0,2573.0,341.0,3099.0,4779.0,3410.0,5701.0,2488.0,334.0,3071.0,4833.0,2977.0,5615.0,2510.0,397.0,3028.0,4591.0,3440.0,5451.0
106,CASTLE HILL AV,40.83429599999999,-73.85168399999998,525.0,919.0,1645.0,2076.0,1996.0,1312.0,592.0,620.0,1131.0,1549.0,1544.0,1030.0,355.0,2827.0,2674.0,2445.0,3830.0,1613.0,411.0,3043.0,2726.0,2484.0,3889.0,1729.0,472.0,3046.0,2658.0,2700.0,3849.0,1671.0,439.0,3016.0,2783.0,2427.0,3858.0,1719.0,531.0,2788.0,2685.0,2564.0,3849.0
107,HALSEY ST,40.69577750000001,-73.9044092,880.0,1004.0,2312.0,2468.0,2436.0,1946.0,812.0,618.0,1762.0,2125.0,2108.0,1423.0,370.0,2984.0,3575.0,2336.0,3778.0,1826.0,430.0,3064.0,3645.0,2231.0,3826.0,1846.0,419.0,3090.0,3737.0,2377.0,3663.0,1905.0,605.0,3044.0,3748.0,2322.0,3695.0,1951.0,571.0,2914.0,3479.0,2485.0,3571.0
108,CLARK ST,40.6974878,-73.99314090000001,0.0,0.0,0.0,1.0,0.0,0.0,0.0,0.0,0.0,0.0,1.0,0.0,0.0,736.0,2605.0,1862.0,2828.0,574.0,0.0,679.0,2590.0,1814.0,2874.0,621.0,6.0,761.0,2406.0,1859.0,2544.0,657.0,0.0,741.0,2658.0,1716.0,2617.0,686.0,1.0,664.0,2565.0,2052.0,2762.0
109,SUTTER AV-RUTLD,40.664992100000006,-73.92290849999998,479.0,759.0,1553.0,2013.0,2058.0,1379.0,407.0,566.0,1154.0,1399.0,1463.0,1000.0,300.0,2789.0,3019.0,2837.0,4237.0,1552.0,4.0,2714.0,2931.0,2787.0,4205.0,1703.0,1.0,2724.0,3005.0,2807.0,4150.0,1768.0,3.0,2669.0,2951.0,2717.0,4307.0,1616.0,4.0,2550.0,2937.0,3184.0,3976.0
110,EASTN PKWY-MUSM,40.671993799999996,-73.96420649999999,271.0,246.0,2075.0,4893.0,4854.0,2387.0,321.0,154.0,1407.0,3172.0,2356.0,584.0,102.0,782.0,2399.0,1699.0,2868.0,1068.0,94.0,847.0,2880.0,2359.0,3313.0,1251.0,111.0,763.0,2691.0,1179453.0,3834.0,1190.0,118.0,806.0,45.0,31.0,3979.0,1767.0,106.0,763.0,3526.0,3899.0,3744.0
111,BAY RIDGE AV,40.634968,-74.023376,215.0,609.0,1800.0,1995.0,1674.0,961.0,246.0,440.0,1284.0,1502.0,1242.0,784.0,120.0,2275.0,3413.0,2160.0,2968.0,962.0,145.0,2353.0,3350.0,2254.0,2902.0,1060.0,182.0,2373.0,3314.0,2174.0,2877.0,,,2343.0,3495.0,2207.0,2854.0,1129.0,185.0,2179.0,3316.0,2260.0,2860.0
112,OZONE PK LEFFRT,40.685956700000006,-73.8257601,389.0,1180.0,1528.0,1874.0,1773.0,984.0,382.0,717.0,1058.0,1224.0,1433.0,819.0,242.0,4159.0,2707.0,2051.0,4266.0,1313.0,381.0,4319.0,2718.0,2143.0,4209.0,1393.0,391.0,4254.0,2709.0,2072.0,4172.0,1381.0,336.0,4208.0,2795.0,2033.0,4067.0,1527.0,390.0,3971.0,2652.0,2283.0,3947.0
113,JEFFERSON ST,40.7065868,-73.922872,849.0,601.0,1689.0,2464.0,2374.0,1704.0,983.0,384.0,1283.0,1838.0,1806.0,1037.0,227.0,1614.0,2862.0,1794.0,2450.0,943.0,197.0,1580.0,2916.0,1900.0,2599.0,980.0,224.0,1569.0,2985.0,1733.0,2827.0,1338.0,314.0,1553.0,2935.0,1837.0,2173.0,1429.0,427.0,1517.0,3017.0,2088.0,2914.0
114,MORISN AV/SNDVW,40.8294898,-73.8746754,545.0,1132.0,1705.0,1789.0,1720.0,1221.0,513.0,765.0,1176.0,1488.0,1312.0,875.0,407.0,2917.0,2644.0,2203.0,2934.0,1546.0,411.0,2999.0,2363.0,2100.0,2943.0,1518.0,481.0,2989.0,2513.0,2188.0,2837.0,1497.0,535.0,2779.0,2340.0,2277.0,2876.0,1423.0,572.0,2943.0,1822.0,1695.0,2955.0
115,207 ST,40.8676635,-73.9212009,351.0,11.0,39.0,53.0,69.0,7.0,4.0,19.0,46.0,65.0,61.0,152.0,164.0,1661.0,2357.0,2113.0,2480.0,1059.0,178.0,1803.0,2321.0,2218.0,2520.0,1135.0,205.0,1787.0,2410.0,2188.0,2499.0,1169.0,194.0,1799.0,2421.0,2119.0,2559.0,1062.0,220.0,1734.0,2360.0,2024.0,2651.0
116,EUCLID AV,40.6754013,-73.8719033,413.0,1295.0,2371.0,2173.0,1865.0,1107.0,315.0,801.0,1629.0,1736.0,1406.0,900.0,245.0,3743.0,3873.0,2710.0,3192.0,1146.0,315.0,4008.0,4013.0,2789.0,3323.0,1288.0,268.0,3908.0,3874.0,2916.0,3207.0,1277.0,303.0,3790.0,3878.0,2818.0,3199.0,1209.0,284.0,3610.0,3614.0,2909.0,3165.0
117,GRAND ARMY PLAZ,40.6752403,-73.97104159999998,157.0,187.0,1322.0,2203.0,2048.0,823.0,200.0,121.0,980.0,1501.0,1263.0,465.0,72.0,1136.0,3610.0,1853.0,2976.0,772.0,54.0,1234.0,3641.0,1993.0,3133.0,800.0,67.0,1266.0,3609.0,2004.0,2982.0,967.0,75.0,1255.0,3674.0,2048.0,3002.0,931.0,84.0,1085.0,3378.0,2154.0,2825.0
118,PARSONS BLVD,40.707714,-73.8028238,541.0,980.0,1583.0,1770.0,1840.0,1142.0,561.0,594.0,1126.0,1279.0,1320.0,871.0,374.0,2512.0,2831.0,2672.0,3452.0,1255.0,412.0,2726.0,2955.0,2574.0,3491.0,1302.0,408.0,2785.0,2957.0,2632.0,3392.0,1277.0,382.0,2682.0,2981.0,2606.0,3453.0,1312.0,448.0,2510.0,2668.0,2684.0,3294.0
119,231 ST,40.87899229999999,-73.904939,193.0,2.0,7.0,0.0,0.0,0.0,0.0,0.0,2.0,2.0,0.0,131.0,92.0,2832.0,3210.0,2191.0,2568.0,913.0,124.0,2853.0,3329.0,2266.0,2680.0,1051.0,134.0,2900.0,3353.0,2510.0,2588.0,1018.0,125.0,2853.0,3301.0,2385.0,2646.0,976.0,148.0,2676.0,3158.0,2463.0,2791.0
120,SMITH-9 ST,40.6746048,-73.99703970000002,257.0,595.0,2267.0,3388.0,2559.0,971.0,316.0,245.0,944.0,1576.0,1281.0,684.0,136.0,1643.0,2668.0,2212.0,3157.0,958.0,153.0,1683.0,2750.0,2150.0,3324.0,950.0,181.0,1651.0,2712.0,2360.0,3196.0,1063.0,176.0,1670.0,2682.0,2107.0,3131.0,1024.0,170.0,1610.0,2725.0,2385.0,3207.0
121,4 AV-9 ST,40.6701803,-73.98929150000002,292.0,262.0,957.0,1439.0,1576.0,925.0,370.0,170.0,709.0,1065.0,1119.0,655.0,106.0,879.0,1898.0,1372.0,3028.0,935.0,108.0,920.0,1827.0,1410.0,3141.0,1147.0,171.0,962.0,1957.0,1529.0,3168.0,1191.0,158.0,918.0,1941.0,1474.0,3165.0,1214.0,173.0,913.0,1862.0,1641.0,2941.0
122,67 AV,40.7263823,-73.8515929,173.0,516.0,1611.0,1565.0,1401.0,744.0,232.0,316.0,1183.0,1172.0,1025.0,560.0,120.0,2786.0,4177.0,2180.0,3627.0,1046.0,108.0,2958.0,4299.0,2288.0,3640.0,1113.0,139.0,2976.0,4290.0,2178.0,3417.0,1106.0,175.0,2878.0,4379.0,2285.0,3500.0,1210.0,162.0,2612.0,4182.0,2201.0,3081.0
123,ROCKAWAY AV,40.6625632,-73.9089054,345.0,572.0,1094.0,1529.0,1395.0,925.0,335.0,363.0,760.0,1067.0,1006.0,763.0,250.0,1836.0,2265.0,2158.0,2865.0,1080.0,7.0,1902.0,2187.0,2179.0,3656.0,1160.0,23.0,1907.0,2313.0,2223.0,2948.0,1171.0,13.0,1844.0,2357.0,2185.0,2836.0,1037.0,40.0,1801.0,2205.0,2345.0,2735.0
124,PELHAM BAY PARK,40.852930799999996,-73.8270555,296.0,772.0,1423.0,1836.0,1799.0,1042.0,302.0,495.0,1055.0,1478.0,1339.0,729.0,180.0,3349.0,2596.0,1992.0,2524.0,1076.0,242.0,3415.0,2664.0,2071.0,2580.0,1059.0,280.0,3425.0,2625.0,2105.0,2667.0,1071.0,269.0,3341.0,2654.0,2034.0,2646.0,1097.0,288.0,3131.0,2485.0,2314.0,2695.0
125,CLASSON AV,40.688873,-73.96007,362.0,334.0,1364.0,1959.0,2024.0,1368.0,438.0,214.0,1051.0,1591.0,1526.0,958.0,160.0,1336.0,2886.0,1707.0,3162.0,1274.0,146.0,1374.0,2934.0,1727.0,3275.0,1263.0,181.0,1375.0,2867.0,1773.0,3196.0,1286.0,162.0,1371.0,2951.0,1799.0,3472.0,1378.0,147.0,1311.0,2810.0,1922.0,3042.0
126,NEW LOTS AV,40.6663015,-73.88371579999998,476.0,677.0,1211.0,1492.0,1607.0,1134.0,492.0,514.0,897.0,1230.0,1120.0,908.0,344.0,2545.0,2359.0,2242.0,3377.0,1403.0,35.0,2575.0,2472.0,2286.0,3477.0,1540.0,45.0,2502.0,2429.0,2398.0,3440.0,1544.0,51.0,2547.0,2438.0,2223.0,3551.0,1403.0,69.0,2409.0,2389.0,2513.0,3222.0
127,GRANT AV,40.6768777,-73.86534619999998,417.0,955.0,1475.0,1710.0,1664.0,1113.0,444.0,610.0,1041.0,1249.0,1192.0,906.0,294.0,2463.0,2492.0,1950.0,2901.0,1244.0,421.0,2519.0,2509.0,1915.0,2982.0,1326.0,373.0,2463.0,2465.0,1698.0,2851.0,1382.0,410.0,2480.0,2553.0,1957.0,2880.0,1352.0,384.0,2417.0,2466.0,2176.0,2765.0
128,STERLING ST,40.6632908,-73.951044,214.0,386.0,1154.0,1397.0,1215.0,813.0,188.0,287.0,855.0,1065.0,998.0,565.0,121.0,1447.0,2627.0,1752.0,2443.0,838.0,124.0,1540.0,2623.0,1667.0,2397.0,930.0,126.0,1516.0,2719.0,1836.0,2379.0,957.0,138.0,1551.0,2642.0,1815.0,2567.0,977.0,112.0,1424.0,2564.0,1929.0,2370.0
129,PROSPECT AV,40.66541369999999,-73.99292590000002,257.0,375.0,1212.0,1408.0,1335.0,854.0,303.0,224.0,896.0,1252.0,977.0,498.0,121.0,1630.0,2898.0,1561.0,2703.0,861.0,167.0,1653.0,3141.0,1725.0,2778.0,971.0,177.0,1619.0,3074.0,1648.0,2906.0,1101.0,196.0,1565.0,3096.0,1703.0,2605.0,1033.0,221.0,1512.0,2961.0,1843.0,2601.0
130,18 ST,40.74122390000001,-73.9980319,306.0,197.0,1353.0,2302.0,2181.0,1055.0,220.0,123.0,904.0,1904.0,1490.0,560.0,96.0,780.0,3738.0,3099.0,5236.0,1236.0,157.0,834.0,3575.0,3463.0,5391.0,1526.0,150.0,816.0,3916.0,3669.0,5889.0,1685.0,169.0,847.0,3776.0,3557.0,5553.0,1944.0,222.0,747.0,3337.0,3589.0,5081.0
131,SARATOGA AV,40.669094,-73.91828199999998,352.0,629.0,1143.0,1305.0,1401.0,982.0,309.0,452.0,834.0,976.0,1072.0,790.0,229.0,2370.0,2355.0,1934.0,3202.0,1357.0,5.0,2384.0,2252.0,2054.0,3340.0,1410.0,6.0,1662.0,2316.0,2003.0,3275.0,1349.0,4.0,2061.0,2265.0,1921.0,3317.0,1345.0,9.0,2293.0,2213.0,2097.0,3028.0
132,WILSON AV,40.6887823,-73.90467240000001,527.0,512.0,1371.0,1627.0,1720.0,1306.0,591.0,359.0,1015.0,1372.0,1427.0,1008.0,242.0,1383.0,2112.0,1631.0,2543.0,1391.0,344.0,1488.0,2101.0,1669.0,2377.0,1455.0,349.0,1499.0,2066.0,1661.0,2444.0,1514.0,405.0,1455.0,2115.0,1522.0,2530.0,1369.0,324.0,1377.0,2004.0,1720.0,2417.0
133,V.CORTLANDT PK,40.89642429999999,-73.8852842,296.0,25.0,4.0,1.0,1.0,2.0,2.0,0.0,4.0,6.0,5.0,123.0,157.0,2766.0,2457.0,1754.0,2553.0,878.0,172.0,2840.0,2629.0,1762.0,2710.0,983.0,162.0,2842.0,2729.0,1940.0,2724.0,1004.0,186.0,2830.0,2585.0,1834.0,2604.0,1000.0,196.0,2752.0,2503.0,1944.0,2826.0
134,WESTCHESTER SQ,40.840124700000004,-73.84282579999999,307.0,704.0,1435.0,1795.0,1532.0,792.0,313.0,491.0,910.0,1243.0,1001.0,594.0,189.0,2252.0,2839.0,2454.0,3322.0,1147.0,258.0,2343.0,2863.0,2605.0,3518.0,1244.0,270.0,2301.0,2911.0,2689.0,3314.0,1223.0,266.0,2467.0,2714.0,2677.0,3153.0,1186.0,283.0,2298.0,2654.0,2622.0,3274.0
135,FAR ROCKAWAY,40.6077527,-73.7517548,398.0,865.0,1282.0,1545.0,1491.0,1042.0,406.0,599.0,876.0,1084.0,1132.0,706.0,311.0,2277.0,1876.0,1793.0,2973.0,1071.0,318.0,2347.0,1831.0,1845.0,2958.0,1063.0,292.0,2325.0,1837.0,1748.0,3018.0,1158.0,335.0,2292.0,1822.0,1847.0,2957.0,1081.0,314.0,2309.0,1754.0,1999.0,2820.0
136,WOODLAWN,40.88603699999999,-73.878751,311.0,794.0,1329.0,1543.0,1784.0,1054.0,258.0,407.0,998.0,1209.0,1275.0,669.0,170.0,2631.0,1896.0,1507.0,1925.0,814.0,216.0,2694.0,2081.0,1633.0,2147.0,932.0,251.0,2640.0,2118.0,1645.0,2206.0,958.0,254.0,2563.0,2149.0,1511.0,2090.0,856.0,278.0,2523.0,1806.0,1713.0,2242.0
137,CORTELYOU RD,40.6412697,-73.9639694,175.0,587.0,1660.0,1651.0,1363.0,764.0,153.0,432.0,1370.0,1462.0,1054.0,563.0,113.0,1957.0,2756.0,1708.0,1771.0,691.0,125.0,2021.0,2807.0,1676.0,1754.0,695.0,121.0,2023.0,2810.0,1778.0,1815.0,764.0,128.0,1975.0,2868.0,1682.0,1737.0,772.0,142.0,1844.0,2693.0,1729.0,1736.0
138,BERGEN ST,40.686083200000006,-73.9909074,162.0,150.0,807.0,1108.0,1166.0,714.0,163.0,104.0,652.0,1015.0,862.0,419.0,50.0,658.0,2207.0,1024.0,1988.0,576.0,58.0,718.0,2263.0,1126.0,2029.0,654.0,51.0,699.0,2273.0,1055.0,1988.0,699.0,42.0,695.0,2278.0,1097.0,1970.0,650.0,54.0,640.0,2136.0,1318.0,2002.0
139,BEDFORD PK BLVD,40.8732636,-73.8871965,285.0,621.0,1285.0,1710.0,1636.0,830.0,346.0,389.0,912.0,1281.0,1148.0,508.0,172.0,1872.0,1902.0,2717.0,2482.0,1182.0,224.0,1917.0,2014.0,2489.0,2934.0,1102.0,233.0,1917.0,1976.0,2725.0,2799.0,1191.0,234.0,1800.0,2019.0,2516.0,2634.0,1156.0,281.0,1867.0,1843.0,2671.0,2225.0
140,HARLEM 148 ST,40.8240504,-73.9369385,261.0,339.0,924.0,1088.0,1043.0,729.0,218.0,231.0,678.0,888.0,847.0,544.0,115.0,1332.0,1801.0,1507.0,2113.0,833.0,36.0,1410.0,1861.0,1493.0,2266.0,954.0,137.0,1368.0,1827.0,1552.0,2043.0,935.0,107.0,1334.0,1904.0,1516.0,2066.0,947.0,159.0,1312.0,1870.0,1571.0,2010.0
141,BAY RIDGE-95 ST,40.6167174,-74.0308527,255.0,437.0,1352.0,1281.0,1254.0,708.0,216.0,332.0,997.0,1110.0,919.0,487.0,168.0,2161.0,2584.0,1598.0,2649.0,859.0,163.0,2321.0,2615.0,1686.0,2615.0,999.0,161.0,2309.0,2721.0,1650.0,2750.0,999.0,179.0,2233.0,2644.0,1663.0,2432.0,1015.0,185.0,1977.0,2536.0,1682.0,2443.0
142,CLINTON-WASH AV,40.683498900000004,-73.9668944,375.0,323.0,1718.0,2171.0,2283.0,1451.0,473.0,219.0,1291.0,1840.0,1648.0,855.0,158.0,1732.0,3969.0,1908.0,3439.0,1237.0,208.0,1810.0,530.0,831.0,3402.0,1470.0,197.0,1749.0,4209.0,2060.0,3564.0,1576.0,249.0,1603.0,3472.0,1848.0,3617.0,1594.0,227.0,1606.0,3890.0,2257.0,3264.0
143,KINGSTON-THROOP,40.679826500000004,-73.94112940000001,674.0,565.0,1867.0,2169.0,2150.0,1560.0,711.0,459.0,1405.0,1864.0,1654.0,1072.0,400.0,1692.0,3349.0,2124.0,3246.0,1583.0,421.0,1694.0,3371.0,2058.0,3232.0,1828.0,420.0,1684.0,3380.0,2248.0,3047.0,1883.0,516.0,1615.0,3526.0,2241.0,3264.0,1739.0,512.0,1655.0,3278.0,2510.0,2862.0
144,ST LAWRENCE AV,40.8315326,-73.8672593,385.0,722.0,1071.0,1258.0,1261.0,808.0,383.0,480.0,810.0,1015.0,1003.0,596.0,275.0,1818.0,1566.0,1567.0,1912.0,1062.0,302.0,1826.0,1520.0,1503.0,2045.0,1047.0,344.0,1828.0,1581.0,1667.0,1961.0,996.0,357.0,1842.0,1583.0,1533.0,1926.0,986.0,420.0,1780.0,1586.0,1566.0,2012.0
145,176 ST,40.8484597,-73.9117411,338.0,821.0,1316.0,1458.0,1232.0,842.0,278.0,528.0,853.0,1164.0,1016.0,728.0,215.0,1908.0,2090.0,1814.0,2132.0,936.0,257.0,2092.0,2177.0,1657.0,2141.0,1005.0,248.0,2029.0,2216.0,1964.0,2275.0,1030.0,263.0,1957.0,2150.0,1857.0,2218.0,971.0,258.0,1965.0,2244.0,1977.0,2145.0
146,FULTON ST,40.709893,-74.0079818,257.0,353.0,1366.0,2340.0,2508.0,1358.0,350.0,235.0,1023.0,1910.0,1837.0,750.0,97.0,1136.0,2038.0,2836.0,3212.0,1050.0,80.0,1167.0,2264.0,2652.0,3489.0,1163.0,106.0,1177.0,2159.0,2754.0,3447.0,1278.0,97.0,1158.0,2386.0,2767.0,3503.0,1020.0,101.0,1127.0,2058.0,2910.0,3503.0
147,AVENUE J,40.6252684,-73.9607296,154.0,463.0,1211.0,1340.0,1218.0,648.0,148.0,424.0,1257.0,1447.0,1202.0,589.0,104.0,1699.0,2732.0,2018.0,2523.0,916.0,97.0,1770.0,2719.0,2148.0,2612.0,949.0,115.0,1750.0,2715.0,2168.0,2549.0,1003.0,114.0,1742.0,2737.0,2038.0,2572.0,971.0,133.0,1723.0,2557.0,2299.0,2105.0
148,183 ST,40.8583924,-73.90397810000002,311.0,970.0,1446.0,1571.0,1278.0,836.0,271.0,589.0,963.0,1192.0,1040.0,702.0,228.0,2113.0,2107.0,1887.0,2036.0,934.0,260.0,2179.0,2106.0,1894.0,2137.0,984.0,258.0,2139.0,2078.0,1979.0,2189.0,1032.0,292.0,2091.0,2241.0,1892.0,2230.0,960.0,306.0,2103.0,2087.0,1913.0,2035.0
149,18 AV,40.6201053,-73.9894661,94.0,632.0,1523.0,1296.0,1095.0,455.0,105.0,427.0,1204.0,1064.0,850.0,371.0,60.0,3388.0,3783.0,2413.0,3213.0,1015.0,396.0,3562.0,3885.0,2593.0,3093.0,1187.0,300.0,3569.0,3988.0,2551.0,3198.0,1151.0,378.0,3586.0,3752.0,2463.0,3109.0,1067.0,308.0,3011.0,3280.0,2794.0,3015.0
150,KINGSTON AV,40.669284499999996,-73.9422927,259.0,289.0,1030.0,1218.0,1166.0,890.0,337.0,299.0,1055.0,1378.0,1270.0,751.0,170.0,1203.0,2214.0,1693.0,2417.0,1064.0,177.0,1201.0,2238.0,1537.0,2378.0,1092.0,209.0,1217.0,2299.0,1719.0,2328.0,1107.0,217.0,1233.0,2360.0,1691.0,2347.0,1094.0,223.0,1194.0,2202.0,2336.0,2157.0
151,BEVERLEY ROAD,40.644229100000004,-73.96449799999998,308.0,449.0,1478.0,1208.0,1329.0,1520.0,278.0,264.0,807.0,980.0,1137.0,703.0,126.0,1092.0,1548.0,1047.0,1904.0,865.0,190.0,1166.0,1680.0,1067.0,1918.0,926.0,206.0,1174.0,1505.0,849.0,1792.0,1074.0,201.0,1081.0,1618.0,1183.0,1880.0,950.0,253.0,1135.0,1546.0,1129.0,1707.0
152,71 ST,40.619621200000005,-73.99877699999998,158.0,721.0,1562.0,1142.0,979.0,560.0,141.0,427.0,1340.0,954.0,729.0,431.0,89.0,2220.0,2369.0,1134.0,1654.0,617.0,100.0,2236.0,2471.0,1143.0,1660.0,586.0,108.0,2231.0,2518.0,1169.0,1767.0,641.0,123.0,2190.0,2492.0,1087.0,1718.0,600.0,111.0,2105.0,2306.0,1172.0,1692.0
153,ST. GEORGE,40.64400390000001,-74.07332480000001,415.0,500.0,961.0,1129.0,1256.0,830.0,439.0,477.0,817776.0,958.0,954.0,480.0,162.0,3954.0,2820.0,1924.0,5376.0,914.0,217.0,4078.0,2707.0,1967.0,5513.0,1099.0,266.0,3991.0,2794.0,1954.0,5392.0,1131.0,242.0,3853.0,2762.0,1774.0,5306.0,1134.0,270.0,3623.0,2488.0,1927.0,4863.0
154,MT EDEN AV,40.844528499999996,-73.9146157,400.0,757.0,1186.0,1312.0,1229.0,915.0,285.0,420.0,776.0,985.0,1001.0,733.0,210.0,1885.0,1990.0,1808.0,2158.0,957.0,234.0,1869.0,1935.0,1591.0,2364.0,1054.0,289.0,1863.0,2145.0,1869.0,2438.0,1045.0,305.0,1878.0,2082.0,1780.0,2344.0,1003.0,289.0,1829.0,1960.0,1797.0,2243.0
155,MARBLE HILL-225,40.8743487,-73.91043309999998,123.0,14.0,10.0,8.0,37.0,8.0,2.0,23.0,18.0,25.0,27.0,63.0,63.0,1581.0,1636.0,1462.0,1785.0,645.0,99.0,1657.0,1711.0,1435.0,1800.0,695.0,83.0,1623.0,1723.0,1669.0,1642.0,636.0,88.0,1583.0,1789.0,1744.0,1848.0,647.0,106.0,1566.0,1657.0,1584.0,1831.0
156,174-175 STS,40.846524,-73.90972690000001,141.0,646.0,1181.0,1210.0,916.0,541.0,151.0,422.0,810.0,944.0,748.0,427.0,106.0,1497.0,1914.0,1453.0,1749.0,523.0,190.0,1568.0,2054.0,1557.0,1884.0,577.0,183.0,1551.0,2115.0,1540.0,1965.0,560.0,187.0,1552.0,1954.0,1534.0,1856.0,567.0,173.0,1549.0,1962.0,1626.0,1735.0
157,33 ST-RAWSON ST,40.744587,-73.93099699999998,178.0,667.0,1830.0,1919.0,1527.0,513.0,133.0,363.0,941.0,1022.0,929.0,411.0,157.0,2571.0,5963.0,5560.0,7169.0,1845.0,190.0,2876.0,5894.0,5760.0,7459.0,1964.0,182.0,2880.0,5406.0,5698.0,7226.0,1998.0,179.0,2789.0,5577.0,5382.0,7190.0,1989.0,200.0,2615.0,4355.0,4514.0,5111.0
158,CITY HALL,40.7135245,-74.00671009999998,118.0,163.0,858.0,1488.0,1459.0,589.0,112.0,80.0,722.0,1171.0,1027.0,379.0,37.0,786.0,2745.0,2708.0,4103.0,872.0,36.0,853.0,2917.0,2780.0,4434.0,835.0,38.0,881.0,2990.0,2830.0,4053.0,800.0,43.0,840.0,2654.0,2716.0,3961.0,952.0,45.0,809.0,2717.0,2806.0,4061.0
159,182-183 STS,40.8560934,-73.90102949999998,136.0,656.0,1017.0,1111.0,879.0,477.0,124.0,454.0,748.0,857.0,629.0,381.0,125.0,1643.0,1634.0,1381.0,1317.0,581.0,214.0,1665.0,1673.0,1382.0,1331.0,663.0,196.0,1710.0,1674.0,1322.0,1470.0,691.0,173.0,1707.0,1678.0,1296.0,1416.0,665.0,211.0,1590.0,1642.0,1481.0,1350.0
160,PRESIDENT ST,40.668158500000004,-73.95065859999998,243.0,263.0,888.0,1148.0,862.0,658.0,193.0,216.0,613.0,773.0,754.0,573.0,132.0,1261.0,2363.0,1784.0,2798.0,845.0,80.0,1372.0,2307.0,1843.0,2701.0,919.0,128.0,1357.0,2369.0,1970.0,2788.0,870.0,111.0,1319.0,2429.0,1895.0,2686.0,1068.0,91.0,1324.0,2164.0,1975.0,2442.0
161,77 ST,40.7736346,-73.95982939999998,156.0,363.0,1035.0,1125.0,857.0,515.0,137.0,236.0,873.0,970.0,638.0,356.0,55.0,1917.0,2412.0,1198.0,1820.0,569.0,73.0,2016.0,2456.0,1261.0,1900.0,646.0,83.0,1957.0,2387.0,1297.0,1910.0,630.0,96.0,1891.0,2490.0,1363.0,1785.0,624.0,104.0,1740.0,2364.0,1286.0,1768.0
162,GUN HILL RD,40.87773920000001,-73.86630459999998,112.0,453.0,580.0,541.0,452.0,293.0,101.0,268.0,358.0,383.0,328.0,216.0,102.0,2445.0,1766.0,1180.0,1104.0,422.0,101.0,2605.0,1821.0,1232.0,1207.0,459.0,114.0,2598.0,1779.0,1220.0,1072.0,477.0,150.0,2494.0,1838.0,1207.0,1147.0,429.0,126.0,2403.0,1664.0,1278.0,1171.0
163,79 ST,40.783934,-73.979917,124.0,771.0,1687.0,1074.0,889.0,416.0,122.0,447.0,1416.0,963.0,654.0,415.0,63.0,2347.0,2844.0,1360.0,1425.0,520.0,109.0,2426.0,2891.0,1416.0,1462.0,505.0,94.0,2439.0,2951.0,1340.0,1372.0,504.0,113.0,2396.0,2858.0,1323.0,1448.0,488.0,88.0,2362.0,2716.0,1448.0,1504.0
164,190 ST,40.858887700000004,-73.93422159999999,121.0,408.0,1651.0,2331.0,1785.0,814.0,232.0,311.0,1288.0,1834.0,1261.0,491.0,83.0,1213.0,2173.0,1368.0,1499.0,473.0,62.0,1364.0,2113.0,1340.0,1677.0,582.0,89.0,1393.0,2213.0,1460.0,1596.0,625.0,97.0,1346.0,2272.0,1541.0,1596.0,616.0,80.0,1324.0,2305.0,1769.0,1713.0
165,20 AV,40.617271,-73.9847709,64.0,589.0,1205.0,1095.0,860.0,420.0,60.0,369.0,1041.0,855.0,747.0,362.0,52.0,1824.0,1909.0,1023.0,,468.0,63.0,1761.0,,1092.0,1473.0,575.0,62.0,1828.0,1871.0,1101.0,1417.0,512.0,86.0,1844.0,1902.0,1106.0,1400.0,506.0,64.0,1796.0,1757.0,1113.0,1456.0
166,25 ST,40.6604039,-73.99810550000001,233.0,314.0,985.0,1213.0,1080.0,655.0,237.0,240.0,729.0,863.0,865.0,417.0,106.0,1191.0,1835.0,1341.0,2082.0,694.0,156.0,1190.0,1987.0,1227.0,1937.0,746.0,164.0,1148.0,2012.0,1321.0,1997.0,801.0,179.0,1169.0,1913.0,1308.0,1887.0,844.0,191.0,1109.0,1966.0,1435.0,1888.0
167,BRIARWOOD,40.7093666,-73.81988539999998,76.0,315.0,761.0,714.0,641.0,335.0,106.0,225.0,600.0,603.0,414.0,234.0,72.0,1873.0,1964.0,1496.0,1807.0,604.0,90.0,1913.0,2104.0,1538.0,1895.0,669.0,115.0,1898.0,2032.0,1525.0,1856.0,762.0,117.0,1706.0,2052.0,1138.0,1827.0,671.0,105.0,1829.0,1904.0,1534.0,1815.0
168,AQUEDUCT RACETR,40.6721498,-73.8356843,237.0,180.0,223.0,675.0,1146.0,767.0,237.0,189.0,170.0,503.0,878.0,418.0,164.0,244.0,213.0,485.0,544.0,351.0,104.0,227.0,239.0,524.0,591.0,385.0,105.0,208.0,258.0,523.0,635.0,412.0,108.0,209.0,260.0,521.0,749.0,425.0,128.0,237.0,232.0,586.0,817.0
169,PENNSYLVANIA AV,40.6646911,-73.8941747,180.0,356.0,810.0,828.0,776.0,528.0,153.0,248.0,493.0,623.0,581.0,369.0,112.0,1525.0,1593.0,1352.0,,,17.0,1525.0,1742.0,1344.0,1774.0,664.0,17.0,1564.0,1616.0,1439.0,1740.0,620.0,8.0,1511.0,1669.0,1466.0,1736.0,538.0,18.0,1492.0,1627.0,1589.0,1644.0
170,AVENUE M,40.6180725,-73.9593745,108.0,392.0,1069.0,1084.0,839.0,385.0,89.0,277.0,1136.0,1226.0,924.0,382.0,81.0,1922.0,2840.0,2170.0,2440.0,582.0,64.0,1723.0,3048.0,2124.0,2591.0,599.0,164.0,1988.0,3073.0,2479.0,2429.0,604.0,52.0,1601.0,3059.0,2156.0,2358.0,588.0,67.0,1775.0,2701.0,2479.0,1854.0
171,OCEAN PKWY,40.5762935,-73.9684997,122.0,296.0,876.0,1185.0,943.0,405.0,120.0,199.0,662.0,819.0,690.0,285.0,66.0,946.0,1231.0,1329.0,1392.0,461.0,58.0,964.0,1250.0,1329.0,1166.0,424.0,63.0,877.0,1207.0,1380.0,1310.0,461.0,97.0,908.0,1250.0,1231.0,1215.0,436.0,63.0,876.0,1220.0,1364.0,1214.0
172,AVENUE H,40.6297445,-73.96166170000001,198.0,266.0,806.0,949.0,896.0,585.0,163.0,201.0,662.0,721.0,669.0,453.0,74.0,908.0,2023.0,1749.0,2007.0,837.0,142.0,934.0,2057.0,1697.0,2061.0,846.0,111.0,909.0,1809.0,1538.0,1907.0,892.0,143.0,887.0,2000.0,1691.0,1884.0,876.0,134.0,838.0,1588.0,1427.0,1464.0
173,JUNIUS ST,40.67504,-73.904496,125.0,242.0,543.0,749.0,693.0,440.0,129.0,149.0,362.0,499.0,548.0,341.0,74.0,846.0,979.0,916.0,1416.0,433.0,8.0,850.0,942.0,970.0,1438.0,475.0,4.0,813.0,1016.0,996.0,1486.0,496.0,1.0,854.0,999.0,864.0,1518.0,486.0,24.0,812.0,1042.0,1114.0,1433.0
174,NECK RD,40.595153100000005,-73.9550266,88.0,421.0,965.0,695.0,636.0,377.0,76.0,309.0,758.0,674.0,584.0,244.0,60.0,1595.0,1802.0,756.0,1301.0,379.0,37.0,1633.0,1939.0,803.0,1397.0,409.0,52.0,1607.0,1784.0,826.0,1299.0,518.0,61.0,1560.0,1882.0,835.0,1390.0,438.0,57.0,1490.0,1861.0,820.0,1316.0
175,VAN SICLEN AV,40.67274219999999,-73.8903155,241.0,330.0,591.0,799.0,664.0,560.0,184.0,224.0,474.0,597.0,617.0,438.0,147.0,1211.0,1152.0,1039.0,1851.0,718.0,18.0,1239.0,1337.0,1141.0,1862.0,711.0,16.0,1277.0,1323.0,1165.0,1869.0,771.0,11.0,1251.0,1331.0,1087.0,1864.0,749.0,26.0,1218.0,1253.0,1196.0,1675.0
176,138/GRAND CONC,40.8132249,-73.9298111,299.0,544.0,965.0,1133.0,1126.0,614.0,199.0,309.0,617.0,761.0,796.0,520.0,178.0,1197.0,1447.0,1449.0,1575.0,431.0,134.0,1256.0,1400.0,1423.0,1667.0,544.0,132.0,1200.0,1496.0,1465.0,1638.0,560.0,155.0,1170.0,1488.0,1488.0,1648.0,503.0,133.0,1196.0,1414.0,1523.0,1553.0
177,BEVERLY RD,40.8322067,-73.3848891,109.0,411.0,776.0,734.0,599.0,344.0,90.0,300.0,540.0,613.0,445.0,280.0,70.0,1578.0,1606.0,884.0,883.0,376.0,73.0,1588.0,1621.0,890.0,899.0,441.0,91.0,1589.0,1628.0,856.0,897.0,395.0,80.0,1525.0,1623.0,905.0,909.0,359.0,78.0,1492.0,1592.0,953.0,867.0
178,75 AV,40.718331,-73.837324,51.0,88.0,505.0,513.0,439.0,198.0,42.0,76.0,427.0,453.0,270.0,141.0,28.0,867.0,1556.0,702.0,966.0,308.0,28.0,927.0,1673.0,788.0,1032.0,347.0,41.0,945.0,1678.0,758.0,,,47.0,910.0,1705.0,724.0,957.0,344.0,34.0,850.0,1522.0,797.0,922.0
179,BUSHWICK AV,40.7002958,-73.94116439999998,205.0,223.0,676.0,806.0,757.0,581.0,224.0,169.0,490.0,664.0,625.0,440.0,135.0,657.0,934.0,634.0,953.0,555.0,116.0,692.0,943.0,664.0,984.0,582.0,85.0,669.0,957.0,683.0,982.0,607.0,164.0,670.0,960.0,700.0,1062.0,562.0,145.0,644.0,921.0,758.0,926.0
180,BEACH 67 ST,40.5909714,-73.79631690000001,178.0,493.0,763.0,930.0,888.0,493.0,185.0,277.0,438.0,555.0,514.0,373.0,121.0,1219.0,911.0,943.0,1224.0,513.0,141.0,1261.0,888.0,903.0,1164.0,518.0,147.0,1304.0,892.0,934.0,1237.0,525.0,191.0,1235.0,816.0,912.0,1114.0,518.0,167.0,1225.0,939.0,1064.0,1250.0
181,WHITLOCK AV,40.82674420000001,-73.88634559999998,134.0,343.0,660.0,836.0,786.0,500.0,189.0,271.0,460.0,584.0,538.0,306.0,69.0,806.0,837.0,741.0,978.0,465.0,121.0,859.0,842.0,807.0,1254.0,492.0,111.0,900.0,801.0,770.0,1109.0,484.0,146.0,876.0,856.0,870.0,1088.0,451.0,131.0,830.0,819.0,862.0,1022.0
182,W 8 ST-AQUARIUM,40.57612779999999,-73.97596539999998,60.0,131.0,565.0,1174.0,848.0,199.0,48.0,81.0,431.0,562.0,439.0,124.0,25.0,621.0,1038.0,1120.0,937.0,238.0,24.0,629.0,1085.0,1098.0,960.0,216.0,28.0,605.0,1112.0,1184.0,941.0,245.0,25.0,646.0,954.0,973.0,945.0,213.0,26.0,549.0,1083.0,1265.0,998.0
183,PARK PLACE,40.7132422,-74.0092559,6.0,5.0,12.0,8.0,0.0,0.0,0.0,2.0,10.0,8.0,3.0,6.0,0.0,480.0,1910.0,100341457.0,2480.0,292.0,10.0,518.0,1995.0,1405.0,2540.0,327.0,2.0,508.0,2016.0,1497.0,2538.0,322.0,5.0,480.0,1992.0,1440.0,2391.0,304.0,16.0,449.0,1657.0,1485.0,2237.0
184,215 ST,40.8695946,-73.9153019,70.0,2.0,4.0,2.0,3.0,0.0,0.0,0.0,3.0,8.0,1.0,35.0,30.0,372.0,655.0,706.0,839.0,267.0,40.0,411.0,766.0,887.0,1043.0,400.0,73.0,525.0,917.0,1048.0,1034.0,443.0,74.0,470.0,896.0,959.0,970.0,430.0,96.0,462.0,811.0,904.0,907.0
185,HOWARD BCH JFK,40.660476,-73.83030099999998,,,,,,,,,,,,,,,,,,,,,,,,,,,,,,,,,,,,,,,,,
186,BEACH 25 ST,40.59946790000001,-73.7618536,174.0,305.0,423.0,509.0,491.0,434.0,203.0,200.0,331.0,365.0,422.0,307.0,148.0,1131.0,716.0,803.0,1291.0,553.0,163.0,1152.0,750.0,795.0,1188.0,571.0,155.0,1173.0,729.0,836.0,1118.0,553.0,188.0,1139.0,747.0,739.0,1175.0,551.0,166.0,1030.0,709.0,790.0,1089.0
187,BEACH 60 ST,40.59244,-73.78928300000003,182.0,329.0,513.0,657.0,572.0,422.0,172.0,233.0,348.0,452.0,484.0,277.0,142.0,1070.0,772.0,755.0,1022.0,426.0,160.0,1078.0,791.0,758.0,1002.0,455.0,145.0,1125.0,759.0,771.0,983.0,457.0,160.0,1035.0,787.0,736.0,979.0,464.0,139.0,988.0,724.0,786.0,1007.0
188,ATLANTIC AV,40.675554,-73.90305759999998,54.0,180.0,403.0,462.0,360.0,246.0,64.0,113.0,246.0,301.0,272.0,202.0,51.0,708.0,655.0,497.0,736.0,211.0,58.0,739.0,645.0,513.0,816.0,205.0,48.0,710.0,661.0,500.0,799.0,279.0,54.0,738.0,674.0,500.0,782.0,198.0,49.0,665.0,664.0,595.0,762.0
189,BEACH 36 ST,40.595532,-73.7681238,105.0,159.0,206.0,251.0,265.0,200.0,84.0,135.0,190.0,218.0,245.0,155.0,68.0,501.0,341.0,365.0,594.0,260.0,84.0,499.0,354.0,370.0,564.0,273.0,102.0,511.0,363.0,363.0,556.0,285.0,80.0,515.0,355.0,333.0,570.0,291.0,75.0,478.0,337.0,441.0,569.0
190,55 ST,40.6315514,-73.9956328,119.0,113.0,296.0,229.0,283.0,165.0,38.0,102.0,381.0,429.0,471.0,166.0,32.0,433.0,899.0,704.0,1033.0,260.0,36.0,434.0,929.0,740.0,957.0,241.0,46.0,444.0,906.0,700.0,1026.0,255.0,52.0,449.0,902.0,728.0,1017.0,298.0,39.0,458.0,871.0,799.0,847.0
191,104 ST,40.695145600000004,-73.8443046,117.0,533.0,787.0,757.0,640.0,389.0,130.0,296.0,537.0,560.0,447.0,311.0,93.0,1991.0,1319.0,956.0,1259.0,453.0,112.0,2055.0,1341.0,1022.0,1360.0,474.0,114.0,2000.0,1377.0,1109.0,1311.0,522.0,131.0,1970.0,1410.0,1075.0,1406.0,555.0,117.0,1903.0,1356.0,1021.0,1288.0
192,BEACH 44 ST,40.592920899999996,-73.77594839999998,85.0,137.0,180.0,258.0,265.0,172.0,86.0,87.0,138.0,185.0,172.0,149.0,58.0,364.0,289.0,315.0,471.0,217.0,60.0,403.0,307.0,318.0,461.0,219.0,63.0,424.0,289.0,278.0,416.0,223.0,69.0,388.0,294.0,301.0,416.0,241.0,62.0,387.0,265.0,285.0,420.0
193,WORLD TRADE CTR,40.712645200000004,-74.00989799999998,563.0,673.0,3609.0,5841.0,5832.0,2701.0,495.0,379.0,2434.0,4225.0,4366.0,1595.0,180.0,2793.0,8394.0,6584.0,12602.0,2510.0,297.0,2622.0,8027.0,6093.0,12923.0,2799.0,296.0,2942.0,8525.0,6038.0,12579.0,2721.0,394.0,2869.0,8668.0,6931.0,13143.0,2990.0,391.0,2689.0,7858.0,7321.0,12400.0
194,NASSAU AV,40.7238944,-73.9506777,422.0,451.0,1816.0,2807.0,3106.0,1875.0,548.0,231.0,1265.0,2064.0,1900.0,865.0,136.0,1860.0,3989.0,2216.0,4200.0,912.0,5.0,1902.0,4188.0,2235.0,4392.0,950.0,2.0,1842.0,4230.0,2364.0,4387.0,982.0,9.0,1780.0,4257.0,2345.0,4546.0,1050.0,0.0,1760.0,4037.0,2633.0,4484.0
195,39 AV,40.752689700000005,-73.9328056,305.0,292.0,907.0,1016.0,1248.0,1006.0,297.0,208.0,590.0,672.0,917.0,663.0,125.0,1046.0,3180.0,1790.0,2652.0,850.0,118.0,1178.0,2655.0,1538.0,2374.0,714.0,156.0,1145.0,2550.0,1481.0,2308.0,675.0,140.0,1189.0,2690.0,1575.0,2247.0,708.0,128.0,1108.0,2638.0,1652.0,2307.0
196,36 AV,40.7668516,-73.921313,,,,,,,,,,,,,,,,,,,,,,,,,,,,,,,,,,,,,,,,,
197,BROADWAY,40.7623472,-73.9256595,866.0,768.0,2816.0,3407.0,3548.0,2575.0,892.0,516.0,1997.0,2637.0,2703.0,1761.0,373.0,3892.0,6352.0,2682.0,7010.0,3198.0,484.0,4465.0,9024.0,4616.0,7488.0,3636.0,527.0,4493.0,9170.0,4871.0,7157.0,3706.0,570.0,4316.0,9352.0,4949.0,7253.0,3651.0,603.0,4053.0,8967.0,5051.0,7350.0
198,COURT SQ-23 ST,40.748050799999994,-73.94704779999998,166.0,352.0,1075.0,1085.0,1144.0,709.0,216.0,219.0,847.0,945.0,840.0,384.0,91.0,1263.0,2438.0,1828.0,2537.0,738.0,135.0,1323.0,2516.0,1718.0,2685.0,762.0,120.0,1419.0,2459.0,1903.0,2589.0,721.0,112.0,1400.0,2508.0,2127.0,2604.0,810.0,112.0,1356.0,2255.0,1900.0,2417.0
199,ASTORIA DITMARS,40.7750119,-73.91211,1044.0,1146.0,3678.0,4461.0,4416.0,3105.0,948.0,791.0,2779.0,3577.0,3238.0,2217.0,435.0,4159.0,7565.0,4431.0,7743.0,3205.0,555.0,4474.0,7749.0,4379.0,6934.0,3752.0,737.0,4334.0,8083.0,3918.0,6723.0,3829.0,634.0,4312.0,8049.0,4169.0,6694.0,3857.0,662.0,3992.0,7277.0,3734.0,6454.0
200,CYPRESS HILLS,40.68994860000001,-73.87257310000003,45.0,170.0,274.0,288.0,317.0,127.0,56.0,116.0,183.0,263.0,231.0,125.0,38.0,674.0,558.0,463.0,599.0,206.0,48.0,685.0,572.0,526.0,618.0,225.0,47.0,704.0,629.0,495.0,648.0,220.0,52.0,673.0,598.0,485.0,569.0,226.0,47.0,648.0,552.0,496.0,618.0
201,30 AV,40.7668516,-73.921313,,,,,,,,,,,,,,,,,,,,,,,,,,,,,,,,,,,,,,,,,
202,121 ST,40.7006094,-73.8281286,82.0,136.0,202.0,225.0,253.0,160.0,58.0,87.0,144.0,156.0,210.0,110.0,40.0,461.0,396.0,291.0,439.0,196.0,55.0,476.0,394.0,321.0,449.0,170.0,58.0,447.0,370.0,337.0,477.0,151.0,56.0,492.0,353.0,315.0,443.0,178.0,68.0,468.0,445.0,337.0,441.0
203,75 ST-ELDERTS,40.69143649999999,-73.8665512,265.0,567.0,942.0,905.0,856.0,496.0,206.0,326.0,600.0,597.0,638.0,390.0,138.0,1745.0,1420.0,1073.0,1781.0,707.0,183.0,1779.0,1440.0,1314.0,1598.0,642.0,169.0,1731.0,1545.0,1224.0,1653.0,686.0,157.0,1709.0,1395.0,1100.0,1653.0,633.0,131.0,1744.0,1352.0,1252.0,1398.0
204,AVENUE X,40.589682200000006,-73.9742509,0.0,0.0,0.0,0.0,0.0,0.0,0.0,0.0,0.0,0.0,0.0,0.0,6.0,1156.0,1181.0,862.0,1284.0,326.0,0.0,1205.0,1200.0,920.0,1386.0,306.0,0.0,1275.0,1199.0,949.0,1342.0,335.0,1.0,1212.0,1206.0,874.0,1313.0,311.0,0.0,1106.0,1077.0,930.0,1203.0
205,AVENUE P,40.6087814,-73.97290840000001,0.0,0.0,1.0,0.0,0.0,0.0,0.0,0.0,0.0,0.0,0.0,0.0,0.0,433.0,530.0,279.0,309.0,58.0,0.0,390.0,559.0,296.0,321.0,49.0,0.0,401.0,517.0,280.0,308.0,48.0,0.0,397.0,537.0,252.0,317.0,51.0,0.0,349.0,503.0,289.0,347.0
206,85 ST-FOREST PK,40.6924861,-73.8590708,157.0,516.0,897.0,865.0,745.0,429.0,132.0,323.0,607.0,655.0,590.0,370.0,118.0,1702.0,1394.0,1037.0,1527.0,562.0,150.0,1755.0,1399.0,1158.0,1544.0,635.0,145.0,1814.0,1407.0,1139.0,1608.0,665.0,187.0,1782.0,1477.0,1166.0,1634.0,679.0,170.0,1709.0,1393.0,1122.0,1443.0
207,WOODHAVEN BLVD,40.6939097,-73.85139269999998,177.0,568.0,883.0,1034.0,1075.0,540.0,188.0,360.0,675.0,723.0,787.0,399.0,119.0,1795.0,1630.0,1273.0,1837.0,599.0,141.0,1906.0,1640.0,1308.0,1782.0,666.0,129.0,1956.0,1722.0,1366.0,1782.0,649.0,124.0,1914.0,1597.0,1280.0,1701.0,654.0,128.0,1858.0,1583.0,1359.0,1775.0
208,METROPOLITAN AV,40.712132700000005,-73.889276,112.0,257.0,704.0,1294.0,1245.0,516.0,131.0,163.0,537.0,872.0,786.0,319.0,69.0,1551.0,1287.0,1262.0,2248.0,572.0,78.0,1642.0,1318.0,1383.0,2158.0,616.0,97.0,1565.0,1433.0,1402.0,2334.0,599.0,118.0,1493.0,1363.0,1189.0,2187.0,560.0,78.0,1496.0,1344.0,1396.0,2152.0
209,GREENPOINT AV,40.7301618,-73.9540458,465.0,596.0,2179.0,3647.0,3779.0,2072.0,564.0,325.0,1887.0,3182.0,2571.0,1076.0,184.0,2135.0,4533.0,2913.0,5101.0,1098.0,1.0,2104.0,4634.0,2836.0,5290.0,1137.0,1.0,2134.0,4590.0,2916.0,5195.0,1192.0,0.0,2090.0,4642.0,2905.0,5375.0,1243.0,0.0,1977.0,4406.0,3328.0,5441.0
