,StationName,Latitude,Longitude,2018-11-24 03:00:00,2018-11-24 07:00:00,2018-11-24 11:00:00,2018-11-24 15:00:00,2018-11-24 19:00:00,2018-11-24 23:00:00,2018-11-25 03:00:00,2018-11-25 07:00:00,2018-11-25 11:00:00,2018-11-25 15:00:00,2018-11-25 19:00:00,2018-11-25 23:00:00,2018-11-26 03:00:00,2018-11-26 07:00:00,2018-11-26 11:00:00,2018-11-26 15:00:00,2018-11-26 19:00:00,2018-11-26 23:00:00,2018-11-27 03:00:00,2018-11-27 07:00:00,2018-11-27 11:00:00,2018-11-27 15:00:00,2018-11-27 19:00:00,2018-11-27 23:00:00,2018-11-28 03:00:00,2018-11-28 07:00:00,2018-11-28 11:00:00,2018-11-28 15:00:00,2018-11-28 19:00:00,2018-11-28 23:00:00,2018-11-29 03:00:00,2018-11-29 07:00:00,2018-11-29 11:00:00,2018-11-29 15:00:00,2018-11-29 19:00:00,2018-11-29 23:00:00,2018-11-30 03:00:00,2018-11-30 07:00:00,2018-11-30 11:00:00,2018-11-30 15:00:00,2018-11-30 19:00:00
0,34 ST-HERALD SQ,40.748897899999996,-73.98878859999998,2981.0,17219.0,38195.0,50248.0,29089.0,7248.0,2418.0,14050.0,32115.0,42728.0,22447.0,4173.0,7289.0,64018.0,41623.0,85786.0,34211.0,4535.0,7753.0,67001.0,43014.0,89240.0,39833.0,6560.0,7468.0,67439.0,43133.0,90436.0,36561.0,6793.0,6043.0,67428.0,44640.0,91996.0,44428.0,7829.0,7169.0,62976.0,49105.0,93474.0,43818.0
1,TIMES SQ-42 ST,40.7545563,-73.98667370000001,2940.0,15121.0,31795.0,42960.0,26899.0,7933.0,2150.0,11710.0,25865.0,34401.0,20920.0,5895.0,6526.0,48001.0,27819.0,58714.0,24759.0,5415.0,6477.0,51510.0,30112.0,66225.0,33081.0,7066.0,6375.0,50852.0,32835.0,68652.0,35705.0,8306.0,6561.0,51944.0,32368.0,69655.0,36928.0,8997.0,6367.0,48611.0,35961.0,69037.0,37147.0
2,34 ST-PENN STA,40.751056,-73.99031020000001,3351.0,16715.0,32556.0,39831.0,25707.0,8007.0,2635.0,15335.0,29508.0,36506.0,20281.0,4127.0,12012.0,72940.0,34727.0,90148.0,30693.0,4414.0,12570.0,75762.0,35729.0,87967.0,34420.0,6946.0,12205.0,75651.0,36648.0,87053.0,35209.0,5354.0,9194.0,75396.0,36844.0,87043.0,35990.0,7311.0,11574.0,66914.0,41792.0,87334.0,35373.0
3,59 ST COLUMBUS,40.7684839,-73.98180699999999,1516.0,8755.0,16817.0,20309.0,10699.0,3495.0,1206.0,7567.0,15987.0,19196.0,9246.0,2342.0,4229.0,34594.0,25771.0,44863.0,21114.0,3072.0,4670.0,37088.0,27956.0,47389.0,22802.0,3896.0,4825.0,37684.0,28463.0,48764.0,24608.0,3830.0,4637.0,37693.0,29153.0,50011.0,25606.0,4394.0,4407.0,34569.0,31083.0,45494.0,21487.0
4,86 ST,40.7795016,-73.95557240000001,1451.0,9386.0,17038.0,19910.0,9259.0,2150.0,1109.0,7242.0,14800.0,15274.0,6864.0,1507.0,5167.0,33839.0,21971.0,38678.0,13984.0,1732.0,5309.0,35860.0,22998.0,41980.0,17110.0,2041.0,5255.0,36385.0,22423.0,41586.0,17352.0,2210.0,5294.0,36084.0,22868.0,41412.0,17961.0,2425.0,5063.0,34994.0,26118.0,42248.0,16849.0
5,GRD CNTRL-42 ST,40.75216470000001,-73.97715339999998,1280.0,8345.0,17122.0,19497.0,9901.0,2433.0,775.0,6251.0,14213.0,16630.0,7875.0,1400.0,6434.0,47197.0,22185.0,54782.0,17039.0,2181.0,6436.0,49564.0,23295.0,57483.0,18994.0,2533.0,6599.0,52443.0,23997.0,59408.0,21184.0,2905.0,6608.0,52954.0,25069.0,58095.0,21224.0,3323.0,6097.0,45379.0,27137.0,56186.0,20369.0
6,59 ST,40.6415685,-74.0176783,1230.0,10475.0,16455.0,8796.0,8809.0,2659.0,1334.0,8376.0,14901.0,16551.0,8239.0,2056.0,5860.0,36837.0,22208.0,41253.0,15091.0,2874.0,6185.0,39409.0,24273.0,45689.0,17143.0,3064.0,6280.0,39562.0,24672.0,46601.0,17518.0,3157.0,6182.0,39825.0,25075.0,45511.0,19076.0,3814.0,5889.0,37425.0,26067.0,46546.0,16550.0
7,FLUSHING-MAIN,40.75955820000001,-73.82992209999998,2791.0,13088.0,15299.0,16746.0,11119.0,3162.0,1937.0,10453.0,14189.0,15380.0,9453.0,2422.0,8181.0,29668.0,15683.0,23901.0,17384.0,2872.0,8298.0,30295.0,16338.0,23169.0,16453.0,2935.0,8585.0,30042.0,15905.0,30316.0,16354.0,3292.0,8572.0,30312.0,16521.0,27674.0,19048.0,3200.0,7863.0,29195.0,17618.0,26146.0,18289.0
8,ATL AV-BARCLAY,40.6837598,-73.97875739999998,1153.0,6472.0,14815.0,19454.0,11858.0,2380.0,946.0,5423.0,14340.0,19475.0,12245.0,1518.0,2808.0,23969.0,13612.0,30365.0,14490.0,1762.0,3072.0,24563.0,13852.0,28897.0,13000.0,1854.0,3106.0,24766.0,13846.0,31011.0,17854.0,2105.0,3129.0,24669.0,13641.0,29183.0,13293.0,2174.0,2977.0,23222.0,17793.0,31420.0,18464.0
9,23 ST,40.7413626,-73.9891335,802.0,5273.0,11368.0,14429.0,7594.0,2643.0,645.0,4158.0,9952.0,11901.0,6211.0,1480.0,1944.0,21988.0,14399.0,33071.0,14480.0,1946.0,2151.0,18239.0,11892.0,35527.0,16356.0,2288.0,2122.0,24478.0,16513.0,35572.0,16955.0,2446.0,2128.0,24325.0,18987.0,38451.0,19673.0,3150.0,2271.0,27514.0,22555.0,43082.0,18580.0
10,42 ST-PORT AUTH,40.7578346,-73.99146259999998,1897.0,11572.0,14912.0,16636.0,13099.0,3419.0,1284.0,9660.0,14070.0,16580.0,11965.0,2202.0,9400.0,39476.0,16231.0,43104.0,17157.0,2247.0,9618.0,40100.0,15798.0,35940.0,17011.0,2425.0,9480.0,40539.0,16326.0,35687.0,17530.0,2524.0,9270.0,39791.0,16236.0,36073.0,17776.0,2808.0,9076.0,36744.0,17373.0,36703.0,18014.0
11,14 ST,40.73747540000001,-73.9970975,352.0,2119.0,9173.0,11712.0,6521.0,2206.0,761.0,3248.0,8759.0,10966.0,5721.0,1352.0,1922.0,20348.0,13782.0,26201.0,12976.0,1935.0,2147.0,22335.0,15500.0,30405.0,16051.0,2456.0,2164.0,22369.0,15367.0,30052.0,16012.0,2760.0,2070.0,21232.0,15378.0,29317.0,16525.0,3225.0,2005.0,19375.0,16126.0,28455.0,15327.0
12,JKSN HT-ROOSVLT,40.746739,-73.89099859999999,3068.0,11242.0,13997.0,16706.0,9956.0,4236.0,2422.0,9110.0,12841.0,14491.0,9490.0,3413.0,6419.0,23956.0,14869.0,24008.0,12392.0,3988.0,6699.0,24978.0,14931.0,27910.0,16119.0,4312.0,6480.0,24620.0,14835.0,24544.0,13557.0,5089.0,6543.0,24686.0,14949.0,25530.0,14628.0,5012.0,6435.0,24495.0,16205.0,25630.0,14728.0
13,BEDFORD AV,40.717354,-73.956972,527.0,3456.0,9374.0,11553.0,6282.0,1951.0,465.0,3141.0,9192.0,11065.0,5762.0,1201.0,1537.0,13846.0,7322.0,14944.0,9611.0,298.0,1583.0,15065.0,8107.0,17209.0,11531.0,303.0,1531.0,15347.0,8430.0,17117.0,11551.0,395.0,1538.0,15619.0,8724.0,17814.0,12322.0,529.0,1404.0,14680.0,10149.0,18202.0,13619.0
14,47-50 STS ROCK,40.75885,-73.98118610000002,1130.0,5666.0,11020.0,16181.0,8696.0,2416.0,796.0,4548.0,9268.0,13307.0,6821.0,1511.0,3930.0,42511.0,18671.0,48297.0,14745.0,2240.0,4289.0,45004.0,19942.0,47576.0,17382.0,2492.0,4369.0,46271.0,21030.0,52808.0,30028.0,3954.0,4350.0,45773.0,22063.0,53958.0,24627.0,3459.0,4392.0,43752.0,25452.0,54893.0,20470.0
15,34 ST-HUDSON YD,40.7549713,-74.0010084,7.0,22.0,12.0,9.0,8.0,7.0,11.0,17.0,23.0,17.0,22.0,21.0,2486.0,6560.0,4217.0,8295.0,1769.0,170.0,1908.0,7213.0,4488.0,7222.0,1694.0,417.0,2588.0,6869.0,4284.0,8359.0,2246.0,551.0,2703.0,6040.0,3832.0,7720.0,2248.0,629.0,2511.0,5697.0,4518.0,8099.0,2465.0
16,CHAMBERS ST,40.7155134,-74.00922270000001,690.0,4849.0,9142.0,9805.0,4824.0,1517.0,566.0,3454.0,7730.0,8598.0,4027.0,939.0,3137.0,32673.0,20664.0,40538.0,13070.0,1537.0,3475.0,34508.0,23427.0,39209.0,13411.0,1836.0,3166.0,34576.0,23876.0,41649.0,15261.0,1985.0,3506.0,34661.0,24017.0,44780.0,15624.0,2307.0,3109.0,31336.0,25073.0,40802.0,12487.0
17,125 ST,40.8043863,-73.9374292,1442.0,6028.0,10115.0,11697.0,7120.0,2539.0,1175.0,5802.0,10376.0,11343.0,6624.0,1853.0,3194.0,18152.0,11842.0,19248.0,9013.0,2047.0,3313.0,19090.0,12565.0,21315.0,10774.0,2468.0,3399.0,19224.0,13098.0,21911.0,10581.0,2608.0,3327.0,19119.0,12773.0,22172.0,11458.0,2741.0,3188.0,18254.0,14255.0,22338.0,12003.0
18,57 ST-7 AV,40.765564000000005,-73.9803309,788.0,4815.0,8525.0,10888.0,6049.0,1858.0,638.0,4099.0,8000.0,10128.0,5188.0,1417.0,1963.0,16301.0,9765.0,21652.0,9541.0,1911.0,2076.0,17273.0,11096.0,23371.0,11331.0,2296.0,2161.0,17587.0,11392.0,24676.0,12817.0,2469.0,2173.0,17615.0,11496.0,24417.0,13402.0,2918.0,2099.0,17063.0,12033.0,23962.0,11458.0
19,GRAND ST,40.7182003,-73.9935756,826.0,5087.0,8394.0,10254.0,5268.0,1428.0,602.0,4858.0,8189.0,9147.0,4865.0,948.0,1825.0,15223.0,9376.0,13349.0,6127.0,510.0,1776.0,15368.0,10780.0,16742.0,7296.0,90.0,1721.0,15025.0,10355.0,16745.0,7655.0,86.0,1688.0,15191.0,10792.0,17936.0,8836.0,132.0,1679.0,15197.0,12500.0,18310.0,9353.0
20,145 ST,40.8240532,-73.94476230000001,1600.0,5883.0,8861.0,10141.0,6488.0,3061.0,1450.0,5608.0,8653.0,9566.0,6450.0,2228.0,3295.0,18126.0,11100.0,18228.0,9942.0,2655.0,3511.0,18862.0,11310.0,19901.0,11714.0,3101.0,3561.0,19126.0,12302.0,20058.0,12196.0,3649.0,3652.0,19498.0,11832.0,20317.0,12048.0,3560.0,3424.0,17656.0,12272.0,18620.0,11479.0
21,42 ST-BRYANT PK,40.75483679999999,-73.9841215,892.0,4007.0,8665.0,12207.0,5907.0,1599.0,590.0,3089.0,7640.0,10062.0,5222.0,648.0,1576.0,23875.0,12340.0,28938.0,10341.0,1591.0,2537.0,25853.0,13397.0,31899.0,13312.0,1907.0,2482.0,25750.0,14093.0,35088.0,15446.0,2086.0,2487.0,25547.0,14677.0,33329.0,14681.0,2218.0,2383.0,24579.0,16075.0,33136.0,14135.0
22,2 AV,40.723412700000004,-73.9902885,599.0,2456.0,4788.0,6925.0,4873.0,2059.0,558.0,2294.0,5156.0,6190.0,3689.0,950.0,974.0,7951.0,4810.0,9942.0,5546.0,851.0,1002.0,8586.0,5092.0,9810.0,6270.0,1035.0,951.0,8792.0,5226.0,10294.0,7067.0,1091.0,946.0,9582.0,5487.0,11277.0,7815.0,1330.0,977.0,8540.0,6257.0,11556.0,8766.0
23,50 ST,40.7620363,-73.98632909999998,1179.0,5703.0,9359.0,11812.0,9360.0,3430.0,1043.0,5178.0,8794.0,10206.0,6110.0,1682.0,3150.0,24822.0,13455.0,30542.0,12293.0,2069.0,3187.0,26629.0,14344.0,32417.0,15120.0,2483.0,3207.0,27138.0,15965.0,33251.0,16841.0,2901.0,3250.0,27071.0,15417.0,34402.0,18082.0,3109.0,3098.0,25578.0,17884.0,34753.0,19023.0
24,CHURCH AV,40.6495233,-73.96328390000001,2046.0,7253.0,8591.0,9342.0,5458.0,2243.0,1633.0,6367.0,8002.0,8510.0,5045.0,1665.0,3766.0,15624.0,8133.0,13796.0,7144.0,1683.0,3611.0,16390.0,8093.0,14874.0,8598.0,1869.0,3615.0,16638.0,8147.0,14584.0,8069.0,1753.0,3609.0,16530.0,8135.0,14580.0,8169.0,1911.0,3524.0,15681.0,9551.0,13787.0,7587.0
25,PRINCE ST,40.7242353,-73.99780600000001,272.0,2808.0,8932.0,11592.0,4645.0,736.0,225.0,1984.0,7317.0,9553.0,3266.0,444.0,409.0,5453.0,5598.0,9048.0,3710.0,535.0,448.0,5846.0,5716.0,10372.0,4395.0,682.0,459.0,5882.0,6169.0,10574.0,4555.0,786.0,474.0,5992.0,6341.0,11027.0,5186.0,1004.0,451.0,5510.0,6991.0,12079.0,5035.0
26,SPRING ST,40.7257799,-74.00395209999998,319.0,2277.0,6504.0,8372.0,4424.0,1070.0,236.0,1574.0,4982.0,6405.0,3059.0,490.0,715.0,7656.0,6892.0,14511.0,5881.0,760.0,744.0,7834.0,7166.0,15471.0,6935.0,1043.0,764.0,8503.0,7437.0,15764.0,7433.0,1069.0,779.0,8159.0,7513.0,16412.0,8091.0,1419.0,745.0,8185.0,9227.0,17410.0,8301.0
27,LEXINGTON AV/63,40.764629,-73.96611299999998,309.0,2054.0,3715.0,4881.0,2369.0,832.0,242.0,1694.0,3703.0,3987.0,1754.0,499.0,1742.0,14100.0,8508.0,13885.0,5854.0,863.0,1995.0,14997.0,8743.0,16287.0,6511.0,916.0,2007.0,14203.0,8651.0,16588.0,7263.0,994.0,1994.0,14710.0,9578.0,16435.0,7840.0,1460.0,1958.0,14627.0,9681.0,16943.0,5971.0
28,NOSTRAND AV,40.6697362,-73.95050890000002,786.0,3641.0,5316.0,5914.0,3706.0,1264.0,629.0,3160.0,4904.0,5516.0,3406.0,915.0,1931.0,11664.0,5819.0,9377.0,5493.0,1019.0,1440.0,12258.0,6245.0,11869.0,7393.0,1294.0,2052.0,12999.0,6514.0,10178.0,6539.0,1390.0,2050.0,10291.0,5051.0,10601.0,6830.0,1629.0,1997.0,12102.0,7409.0,10427.0,6427.0
29,JAY ST-METROTEC,40.6922507,-73.9872792,639.0,3252.0,6527.0,7298.0,3820.0,1098.0,458.0,3360.0,6503.0,6930.0,3252.0,860.0,1864.0,19142.0,15342.0,26511.0,9040.0,1160.0,2045.0,19854.0,15779.0,27849.0,9993.0,1398.0,2001.0,19921.0,16101.0,27430.0,9837.0,1358.0,1988.0,20120.0,15795.0,28486.0,10422.0,1602.0,1898.0,18245.0,16727.0,24575.0,8654.0
30,1 AV,40.7312776,-73.9823439,529.0,2640.0,4926.0,6363.0,5051.0,1706.0,405.0,2245.0,4738.0,5995.0,4064.0,848.0,1634.0,11586.0,6944.0,13647.0,4912.0,72.0,1693.0,11989.0,7140.0,13410.0,8195.0,179.0,1683.0,12434.0,7227.0,14089.0,8456.0,490.0,1673.0,12606.0,7283.0,14365.0,9004.0,506.0,1563.0,12295.0,8784.0,14550.0,10055.0
31,STEINWAY ST,40.756691700000005,-73.92064090000001,515.0,2472.0,4078.0,4756.0,2498.0,855.0,416.0,1943.0,3603.0,3989.0,2270.0,604.0,1376.0,8069.0,4287.0,6416.0,3904.0,552.0,1396.0,8768.0,4602.0,8037.0,4476.0,624.0,1412.0,8823.0,4912.0,8078.0,4305.0,583.0,1414.0,8701.0,4886.0,8663.0,4491.0,795.0,1354.0,8325.0,5670.0,8639.0,5140.0
32,JUNCTION BLVD,40.749203,-73.8693365,1973.0,5131.0,5647.0,6486.0,3553.0,1688.0,1214.0,3851.0,5202.0,5877.0,3228.0,1231.0,4389.0,10181.0,5288.0,10528.0,4688.0,1496.0,4591.0,10557.0,5235.0,10459.0,5344.0,1632.0,4587.0,10518.0,5216.0,12122.0,5079.0,1878.0,4612.0,10706.0,5218.0,12228.0,5271.0,1846.0,4559.0,10971.0,6055.0,11616.0,5486.0
33,DEKALB AV,40.68982020000001,-73.9811611,886.0,3942.0,6488.0,6867.0,3481.0,1076.0,698.0,3375.0,6229.0,6297.0,3014.0,746.0,2576.0,15988.0,8074.0,13376.0,5524.0,645.0,2539.0,16806.0,8384.0,14272.0,6675.0,714.0,2582.0,17298.0,8741.0,14392.0,6238.0,762.0,2511.0,17269.0,8462.0,14423.0,7138.0,830.0,2496.0,16084.0,9974.0,13019.0,6149.0
34,BOROUGH HALL,40.6931492,-73.9900883,374.0,2659.0,5885.0,6063.0,2953.0,814.0,294.0,2175.0,5176.0,5435.0,2496.0,438.0,1559.0,18028.0,12549.0,21315.0,6843.0,685.0,1810.0,19834.0,13592.0,22093.0,7733.0,692.0,1627.0,19408.0,14285.0,22656.0,7686.0,703.0,1712.0,10004016.0,13602.0,21658.0,7334.0,899.0,1512.0,18243.0,14591.0,20632.0,6421.0
35,CROWN HTS-UTICA,40.6689469,-73.93183379999998,1248.0,4316.0,5479.0,5938.0,4096.0,1584.0,982.0,3497.0,5016.0,5552.0,3751.0,1201.0,4039.0,14336.0,7109.0,11367.0,6190.0,1499.0,4000.0,15055.0,7370.0,12389.0,8159.0,1580.0,4086.0,15033.0,7602.0,12358.0,7334.0,1669.0,4142.0,14916.0,6993.0,12487.0,7152.0,1788.0,3926.0,14420.0,8135.0,12386.0,6737.0
36,8 ST-NYU,40.7306065,-73.99244159999998,278.0,1682.0,4969.0,6942.0,4908.0,1398.0,243.0,1579.0,4427.0,5711.0,3827.0,833.0,484.0,7006.0,4596.0,10321.0,5142.0,856.0,490.0,7832.0,5191.0,11081.0,6380.0,1161.0,500.0,7808.0,5233.0,11080.0,6581.0,1154.0,522.0,7806.0,5508.0,11492.0,7093.0,1514.0,446.0,6906.0,5672.0,11877.0,6712.0
37,CANAL ST,40.722713899999995,-74.00630600000001,343.0,1841.0,3460.0,4689.0,2224.0,801.0,254.0,1426.0,3110.0,3757.0,2033.0,488.0,1307.0,10524.0,5685.0,13736.0,4682.0,636.0,1375.0,10905.0,6670.0,14545.0,5247.0,756.0,1388.0,11021.0,6639.0,15080.0,5907.0,928.0,1320.0,10812.0,6980.0,15446.0,6327.0,1274.0,1266.0,10284.0,7810.0,15248.0,5510.0
38,QUEENSBORO PLZ,40.7505127,-73.9398439,684.0,2857.0,3666.0,3760.0,1922.0,768.0,477.0,2431.0,3278.0,3461.0,1808.0,666.0,1007.0,5640.0,3259.0,6278.0,2135.0,602.0,1031.0,6092.0,3311.0,7179.0,2458.0,548.0,1016.0,6180.0,3659.0,6713.0,2386.0,587.0,984.0,6168.0,3445.0,6952.0,3040.0,808.0,941.0,6059.0,4039.0,6896.0,3067.0
39,MYRTLE-WYCKOFF,40.699686,-73.9117713,1521.0,5053.0,5945.0,6456.0,4074.0,1456.0,1029.0,3997.0,5655.0,5903.0,3583.0,1134.0,2905.0,10585.0,4998.0,7596.0,4630.0,852.0,2859.0,10237.0,5257.0,8421.0,4921.0,870.0,2904.0,10287.0,5292.0,8483.0,4903.0,942.0,2862.0,10173.0,5090.0,8120.0,5208.0,1129.0,2790.0,10023.0,5959.0,8221.0,4914.0
40,51 ST,40.757135,-73.97191190000001,559.0,2844.0,4626.0,5721.0,2671.0,870.0,423.0,2467.0,3979.0,4638.0,2175.0,518.0,1425.0,14062.0,7036.0,14464.0,4887.0,892.0,1544.0,15015.0,7795.0,15237.0,5404.0,995.0,1500.0,15102.0,8114.0,16752.0,7205.0,1257.0,1511.0,15098.0,8809.0,16521.0,6556.0,1286.0,1506.0,14630.0,9030.0,17743.0,6358.0
41,COURT SQ,40.7467885,-73.944548,557.0,2169.0,3396.0,3563.0,1951.0,759.0,341.0,1683.0,3171.0,3296.0,1829.0,523.0,2038.0,12450.0,5667.0,12914.0,4359.0,691.0,2309.0,13107.0,5847.0,13736.0,5060.0,789.0,2177.0,13080.0,5925.0,13151.0,5008.0,846.0,2249.0,13462.0,6374.0,13721.0,5546.0,1066.0,2103.0,11375.0,6191.0,11524.0,4980.0
42,JAMAICA CENTER,40.702144700000005,-73.8008771,1135.0,2582.0,2815.0,3283.0,1982.0,801.0,725.0,1771.0,2188.0,2717.0,1895.0,709.0,7713.0,19655.0,11276.0,19251.0,8832.0,1696.0,8134.0,20580.0,11526.0,20523.0,10306.0,1417.0,8273.0,20424.0,11827.0,20618.0,9630.0,1514.0,8053.0,20650.0,11109.0,20653.0,10108.0,1737.0,7933.0,19006.0,12283.0,18491.0,8910.0
43,49 ST,40.7598372,-73.98418249999999,747.0,4185.0,7882.0,11255.0,7539.0,2455.0,606.0,3749.0,7057.0,9017.0,5340.0,1364.0,1446.0,11309.0,6278.0,15380.0,6548.0,1449.0,1420.0,12026.0,7291.0,16724.0,8472.0,1843.0,1536.0,12059.0,7837.0,17737.0,10060.0,2149.0,1499.0,12168.0,7622.0,17632.0,9925.0,2535.0,1444.0,11250.0,8334.0,17991.0,9034.0
44,BOWLING GREEN,40.7048108,-74.0144596,418.0,2313.0,3988.0,3901.0,1152.0,425.0,264.0,1689.0,3417.0,3339.0,1209.0,431.0,2352.0,18208.0,8488.0,19746.0,4381.0,644.0,2417.0,20270.0,9988.0,22193.0,5216.0,712.0,2278.0,19498.0,9574.0,21609.0,5251.0,811.0,2468.0,19526.0,10146.0,21683.0,5469.0,877.0,2067.0,18072.0,10848.0,19597.0,4518.0
45,BLEECKER ST,40.7259346,-73.9946724,325.0,1257.0,3020.0,4391.0,2217.0,937.0,287.0,1084.0,2816.0,3841.0,2057.0,638.0,539.0,4409.0,2657.0,6116.0,3440.0,833.0,522.0,4977.0,3166.0,7236.0,4220.0,1034.0,542.0,5350.0,3381.0,7364.0,4280.0,1026.0,520.0,5594.0,3574.0,7612.0,4674.0,1251.0,561.0,5178.0,4228.0,8555.0,4940.0
46,VERNON-JACKSON,40.7426713,-73.9537248,9.0,3.0,1.0,0.0,0.0,0.0,1.0,0.0,0.0,1.0,0.0,0.0,1119.0,9193.0,3151.0,6401.0,3047.0,301.0,1128.0,9590.0,3633.0,7207.0,3645.0,515.0,1225.0,9724.0,3768.0,6800.0,3557.0,686.0,1248.0,9783.0,3759.0,7474.0,3854.0,701.0,1126.0,9388.0,4444.0,7249.0,3864.0
47,28 ST,40.7470686,-73.99350919999998,390.0,2729.0,4378.0,5450.0,3400.0,1114.0,308.0,2200.0,3624.0,4117.0,2449.0,648.0,703.0,8322.0,5200.0,11399.0,4405.0,681.0,740.0,9085.0,5699.0,12031.0,5006.0,927.0,737.0,9211.0,6187.0,12263.0,5182.0,952.0,728.0,9210.0,6317.0,12495.0,5817.0,1182.0,712.0,8410.0,6492.0,12216.0,4964.0
48,SUTPHIN-ARCHER,40.700572799999996,-73.8077071,1049.0,2920.0,3582.0,3108.0,1886.0,706.0,652.0,1689.0,2169.0,2376.0,1477.0,609.0,4406.0,12208.0,7582.0,12513.0,6211.0,1303.0,4714.0,12268.0,7755.0,13399.0,6823.0,1187.0,4517.0,11843.0,7532.0,12816.0,6274.0,1060.0,4421.0,12117.0,7299.0,13551.0,6600.0,1293.0,4473.0,11526.0,8255.0,13401.0,6627.0
49,FORDHAM RD,40.8614886,-73.8905408,1323.0,3459.0,4444.0,4821.0,2644.0,1005.0,999.0,2680.0,3754.0,3983.0,2279.0,744.0,3142.0,8286.0,5331.0,7637.0,3069.0,891.0,3249.0,8434.0,5517.0,8560.0,3567.0,940.0,3253.0,8569.0,5812.0,8462.0,3517.0,1039.0,3413.0,8451.0,5727.0,8576.0,3753.0,1011.0,3267.0,8352.0,6024.0,8363.0,3451.0
50,HIGH ST,40.6993673,-73.99126559999998,102.0,1103.0,2583.0,2379.0,851.0,240.0,62.0,962.0,2564.0,2601.0,1105.0,206.0,781.0,6538.0,3180.0,5947.0,2447.0,300.0,762.0,7463.0,4135.0,7159.0,2939.0,528.0,767.0,7076.0,3862.0,6807.0,3164.0,464.0,771.0,7425.0,4097.0,7344.0,3133.0,569.0,754.0,6607.0,4484.0,7057.0,2612.0
51,BROOKLYN BRIDGE,40.6993673,-73.99126559999998,250.0,1460.0,3206.0,3953.0,957.0,374.0,171.0,1135.0,3249.0,3441.0,1195.0,323.0,1375.0,11166.0,7115.0,11446.0,3157.0,480.0,1446.0,11901.0,8346.0,13284.0,3781.0,608.0,1441.0,11683.0,8163.0,12633.0,3946.0,577.0,1402.0,11967.0,8747.0,13510.0,4052.0,736.0,1260.0,11119.0,8996.0,12584.0,3364.0
52,103 ST-CORONA,40.7498268,-73.862746,2055.0,4991.0,4669.0,5953.0,3670.0,1711.0,1289.0,4083.0,4725.0,5118.0,3107.0,1337.0,4784.0,8911.0,4970.0,8990.0,4448.0,1688.0,5026.0,9464.0,5014.0,8610.0,4905.0,1218.0,3648.0,9629.0,4880.0,9829.0,4609.0,1855.0,5109.0,9753.0,4857.0,9787.0,4945.0,1991.0,4939.0,9638.0,5654.0,9352.0,4867.0
53,GRAND-NEWTOWN,40.736835,-73.87758840000001,883.0,3789.0,4172.0,4361.0,2472.0,783.0,570.0,3079.0,3755.0,3842.0,2061.0,609.0,2817.0,10196.0,4741.0,7347.0,3548.0,603.0,2966.0,10622.0,4825.0,7899.0,4209.0,692.0,2957.0,10605.0,4603.0,7804.0,3789.0,699.0,2995.0,10531.0,4786.0,7940.0,,,2673.0,10458.0,5311.0,7267.0,4170.0
54,181 ST,40.84913,-73.93372889999998,679.0,2674.0,3780.0,4434.0,2556.0,1047.0,491.0,1858.0,3454.0,4063.0,2349.0,906.0,1439.0,5971.0,4632.0,6997.0,3058.0,918.0,1503.0,6235.0,4675.0,7455.0,3740.0,893.0,1531.0,6412.0,4765.0,7414.0,3551.0,1052.0,1509.0,6310.0,4656.0,7575.0,3807.0,1163.0,1478.0,6319.0,5334.0,7000.0,3815.0
55,167 ST,40.835598,-73.9213791,932.0,2275.0,2403.0,3092.0,1964.0,970.0,647.0,1676.0,2087.0,2775.0,1846.0,792.0,2287.0,5830.0,3530.0,6614.0,2871.0,972.0,2377.0,5929.0,3359.0,6756.0,3126.0,1164.0,2338.0,6049.0,3038.0,7040.0,3342.0,1080.0,2314.0,6038.0,3163.0,6833.0,3332.0,1150.0,2240.0,5966.0,3528.0,6624.0,3205.0
56,82 ST-JACKSON H,40.7477145,-73.8839373,883.0,3291.0,5672.0,5962.0,3487.0,1245.0,689.0,2300.0,4610.0,5338.0,2719.0,852.0,1960.0,7464.0,6647.0,9516.0,4734.0,1144.0,1910.0,7923.0,6775.0,10032.0,4886.0,1368.0,1954.0,7547.0,6361.0,10403.0,5131.0,1425.0,1992.0,7350.0,6342.0,10409.0,5163.0,1570.0,1906.0,7515.0,7226.0,10428.0,5273.0
57,KINGS HWY,40.60867440000001,-73.9578059,574.0,3395.0,4277.0,4760.0,2602.0,887.0,467.0,3246.0,4427.0,4679.0,2435.0,507.0,2459.0,12022.0,6058.0,10605.0,5139.0,639.0,2648.0,12231.0,6527.0,11098.0,6323.0,810.0,2571.0,12336.0,6276.0,11720.0,5593.0,895.0,2639.0,12259.0,6298.0,11444.0,6164.0,988.0,2423.0,11630.0,6929.0,10463.0,4354.0
58,3 AV-149 ST,40.816129,-73.917811,1061.0,3293.0,4120.0,3958.0,2050.0,756.0,762.0,2397.0,3332.0,3307.0,1810.0,650.0,2750.0,9076.0,6580.0,8480.0,2814.0,717.0,2958.0,9485.0,6672.0,9670.0,3177.0,806.0,2940.0,9503.0,7048.0,9441.0,3385.0,884.0,2926.0,9663.0,6952.0,9686.0,3484.0,871.0,2828.0,9474.0,7808.0,9621.0,3486.0
59,EAST BROADWAY,40.714402899999996,-73.98991880000001,384.0,2184.0,3432.0,3883.0,2232.0,684.0,356.0,2039.0,3483.0,3753.0,1996.0,465.0,820.0,5756.0,3851.0,6144.0,2575.0,456.0,875.0,5931.0,3974.0,6421.0,2978.0,463.0,848.0,5979.0,3989.0,6498.0,3024.0,495.0,866.0,6294.0,4144.0,6857.0,3441.0,649.0,879.0,5814.0,4515.0,6226.0,3296.0
60,72 ST,40.778453000000006,-73.98196999999998,77.0,853.0,1939.0,2322.0,985.0,290.0,75.0,801.0,2147.0,2349.0,671.0,156.0,233.0,3637.0,2636.0,4519.0,1696.0,179.0,282.0,4016.0,2814.0,4762.0,2061.0,199.0,260.0,4001.0,2969.0,4790.0,2145.0,220.0,231.0,3960.0,3168.0,5268.0,2202.0,331.0,251.0,3904.0,3473.0,5075.0,1944.0
61,WALL ST,40.706396500000004,-74.0094441,233.0,1793.0,3182.0,3609.0,1736.0,550.0,190.0,1597.0,2852.0,3161.0,1695.0,376.0,1309.0,16136.0,5499.0,18670.0,4623.0,601.0,1550.0,18206.0,6451.0,18616.0,5017.0,628.0,1539.0,17555.0,6567.0,18709.0,5044.0,669.0,1464.0,18502.0,6679.0,18818.0,5537.0,813.0,1322.0,16409.0,7393.0,16870.0,4694.0
62,21 ST-QNSBRIDGE,40.75417770000001,-73.94247419999998,268.0,1666.0,1511.0,1862.0,1174.0,403.0,197.0,1007.0,1245.0,1427.0,1087.0,298.0,1284.0,5516.0,2872.0,5182.0,2022.0,315.0,1308.0,5546.0,2940.0,5509.0,2327.0,402.0,1319.0,5514.0,3066.0,5370.0,2543.0,453.0,1367.0,5644.0,3175.0,5398.0,2977.0,669.0,1269.0,5593.0,3460.0,5725.0,2709.0
63,HOYT-SCHER,40.688828799999996,-73.98531249999998,220.0,1620.0,4084.0,3898.0,2202.0,576.0,200.0,1423.0,3403.0,3634.0,1920.0,420.0,692.0,5075.0,3978.0,6365.0,2897.0,590.0,709.0,5441.0,4180.0,6933.0,3339.0,646.0,743.0,5664.0,4258.0,6787.0,3354.0,726.0,724.0,5780.0,4123.0,6919.0,3517.0,893.0,718.0,5221.0,4761.0,7029.0,3369.0
64,FRANKLIN AV,40.7190056,-74.0066801,340.0,1692.0,2705.0,2887.0,1802.0,567.0,288.0,1449.0,2826.0,2815.0,1692.0,417.0,1046.0,7489.0,3070.0,5181.0,3468.0,552.0,1117.0,8202.0,3322.0,5604.0,4328.0,621.0,1137.0,8271.0,3432.0,5578.0,3969.0,691.0,1144.0,8119.0,3509.0,5931.0,4125.0,823.0,1106.0,7677.0,3782.0,5675.0,3617.0
65,168 ST,40.841041,-73.939971,905.0,3408.0,4632.0,5240.0,3013.0,1055.0,781.0,3386.0,4786.0,4980.0,2875.0,872.0,2371.0,13235.0,7889.0,13446.0,4318.0,1008.0,2451.0,14125.0,8152.0,15454.0,5217.0,1326.0,2445.0,14225.0,8334.0,14588.0,5263.0,1234.0,2464.0,13816.0,8243.0,15536.0,5434.0,1255.0,2265.0,13592.0,8720.0,13821.0,5289.0
66,NEVINS ST,40.6882963,-73.98052059999999,286.0,1370.0,2853.0,2885.0,1354.0,392.0,224.0,1031.0,2356.0,2595.0,1262.0,373.0,958.0,6043.0,3846.0,6175.0,2217.0,432.0,934.0,6297.0,3912.0,6901.0,2970.0,521.0,941.0,6362.0,4086.0,6988.0,3203.0,560.0,947.0,6242.0,4055.0,7308.0,3278.0,563.0,942.0,6463.0,4968.0,7116.0,2936.0
67,5 AVE,40.760216299999996,-73.975543,94.0,481.0,1026.0,1654.0,1011.0,172.0,45.0,324.0,884.0,1441.0,580.0,101.0,666.0,6301.0,3857.0,10001.0,3372.0,375.0,702.0,6762.0,4108.0,9787.0,3854.0,517.0,767.0,7077.0,4001.0,10237.0,4692.0,575.0,780.0,7065.0,4154.0,9964.0,4595.0,595.0,747.0,6441.0,4801.0,10173.0,4189.0
68,PROSPECT PARK,40.66087879999999,-73.9621109,368.0,1669.0,2744.0,3017.0,1711.0,635.0,344.0,1583.0,3052.0,3152.0,1651.0,477.0,968.0,5661.0,2823.0,4930.0,3005.0,621.0,998.0,6134.0,2850.0,5216.0,3883.0,664.0,1045.0,6397.0,3069.0,5529.0,3579.0,747.0,1007.0,6267.0,2957.0,5382.0,3748.0,859.0,935.0,5936.0,3381.0,5255.0,3291.0
69,CENTRAL PK N110,40.798737599999995,-73.9522934,403.0,1713.0,2535.0,2742.0,1580.0,627.0,342.0,1591.0,2744.0,2669.0,1545.0,502.0,936.0,4861.0,2516.0,4286.0,1980.0,557.0,988.0,5188.0,2627.0,4748.0,2239.0,600.0,968.0,5303.0,2863.0,4900.0,2323.0,685.0,1012.0,5319.0,2745.0,5406.0,2404.0,731.0,995.0,5245.0,3003.0,4869.0,2477.0
70,LEXINGTON AV/53,40.757698100000006,-73.96907420000001,953.0,4496.0,6748.0,8118.0,4344.0,1676.0,565.0,3555.0,6015.0,6667.0,3782.0,939.0,3241.0,31099.0,12161.0,31631.0,10194.0,1644.0,3372.0,33488.0,13394.0,32679.0,11230.0,1867.0,3439.0,33898.0,13802.0,34166.0,12255.0,1967.0,3443.0,33322.0,14071.0,33671.0,12561.0,2345.0,3164.0,31409.0,14992.0,33755.0,11470.0
71,63 DR-REGO PARK,40.7301359,-73.86236729999999,396.0,2119.0,3493.0,3394.0,1597.0,359.0,324.0,1711.0,3097.0,3114.0,1385.0,249.0,1579.0,8099.0,4068.0,5406.0,2272.0,385.0,1660.0,8385.0,4276.0,5737.0,2585.0,363.0,1673.0,8375.0,3893.0,5779.0,2375.0,399.0,1631.0,7779.0,3675.0,6015.0,2522.0,419.0,1505.0,7841.0,4380.0,5742.0,2505.0
72,3 AV,40.733135299999994,-73.98675829999998,128.0,723.0,1757.0,2537.0,1934.0,598.0,115.0,686.0,1696.0,2221.0,1543.0,330.0,382.0,3009.0,2134.0,4137.0,2440.0,108.0,410.0,3410.0,2290.0,4283.0,2951.0,127.0,410.0,3369.0,2233.0,4280.0,3033.0,119.0,418.0,3263.0,2294.0,4205.0,3136.0,178.0,345.0,3188.0,2514.0,4636.0,3571.0
73,175 ST,40.847916600000005,-73.9394823,455.0,1997.0,2759.0,2950.0,1638.0,653.0,370.0,1716.0,2657.0,2861.0,1623.0,366.0,1500.0,6135.0,2924.0,5519.0,2453.0,458.0,1537.0,6716.0,3207.0,5410.0,2940.0,603.0,1494.0,6742.0,3231.0,5432.0,2814.0,623.0,1455.0,6840.0,3260.0,5839.0,2902.0,594.0,1399.0,6225.0,3345.0,5906.0,2803.0
74,53 ST,40.760216299999996,-73.975543,522.0,2179.0,2549.0,2962.0,1735.0,678.0,401.0,1720.0,2358.0,2604.0,1567.0,564.0,1377.0,5179.0,3015.0,5504.0,2102.0,675.0,1468.0,5361.0,3131.0,5625.0,2660.0,704.0,1418.0,5377.0,3159.0,5695.0,2773.0,713.0,1412.0,5332.0,3004.0,5691.0,2734.0,823.0,1400.0,5146.0,3297.0,5572.0,2503.0
75,110 ST,40.798737599999995,-73.9522934,481.0,2029.0,2621.0,3043.0,1772.0,760.0,362.0,1605.0,2383.0,2767.0,1687.0,538.0,1093.0,5924.0,3445.0,5656.0,2302.0,618.0,1120.0,6155.0,3460.0,5913.0,2623.0,725.0,1187.0,6372.0,3631.0,6064.0,2728.0,777.0,1144.0,6284.0,3615.0,6164.0,2894.0,805.0,1137.0,6158.0,4094.0,5859.0,2771.0
76,BEDFORD-NOSTRAN,40.6898534,-73.9516398,221.0,1247.0,1797.0,1793.0,1107.0,451.0,186.0,1044.0,1881.0,1873.0,1082.0,325.0,684.0,5100.0,2027.0,3354.0,1942.0,380.0,749.0,5462.0,2012.0,3491.0,2059.0,424.0,747.0,5550.0,2082.0,3536.0,,468.0,740.0,,2088.0,3451.0,2180.0,506.0,727.0,5274.0,2460.0,3346.0,2145.0
77,GRAHAM AV,40.714526299999996,-73.94438180000002,183.0,1184.0,1887.0,2105.0,1505.0,523.0,133.0,971.0,2059.0,2272.0,1449.0,404.0,680.0,5625.0,2386.0,4175.0,2633.0,238.0,653.0,5925.0,2563.0,4304.0,3009.0,126.0,639.0,6005.0,2588.0,4292.0,2698.0,225.0,665.0,5959.0,2700.0,4426.0,3055.0,259.0,607.0,5820.0,2960.0,4307.0,3056.0
78,46 ST BLISS ST,40.7430691,-73.91824030000002,702.0,2485.0,3127.0,3522.0,1960.0,755.0,479.0,1929.0,2615.0,3065.0,1863.0,642.0,1714.0,6784.0,3138.0,5517.0,3337.0,777.0,1760.0,6933.0,3407.0,6309.0,3628.0,958.0,1718.0,6981.0,3113.0,6354.0,3418.0,914.0,1753.0,7183.0,3085.0,6373.0,3504.0,1093.0,1711.0,6867.0,3537.0,6149.0,3514.0
79,CHRISTOPHER ST,40.733578400000006,-74.00287279999998,272.0,1009.0,2754.0,3641.0,2828.0,1200.0,226.0,822.0,2452.0,3308.0,2093.0,577.0,161.0,3664.0,2771.0,4658.0,2666.0,369.0,370.0,2065.0,3014.0,5521.0,3417.0,530.0,389.0,4503.0,3271.0,5676.0,3368.0,574.0,353.0,4343.0,3235.0,5763.0,3774.0,784.0,362.0,4171.0,3440.0,6417.0,4902.0
80,191 ST,40.855738,-73.9306512,474.0,1701.0,2402.0,2930.0,1997.0,,,,2126.0,2806.0,1753.0,636.0,1063.0,4854.0,2789.0,5258.0,2648.0,773.0,1118.0,5012.0,2820.0,5824.0,3045.0,693.0,1124.0,5136.0,2905.0,5502.0,2921.0,914.0,1137.0,5051.0,2847.0,5601.0,3187.0,920.0,1093.0,4841.0,3519.0,4820.0,2843.0
81,ROOSEVELT ISLND,40.7591362,-73.9533215,88.0,1951.0,1348.0,1491.0,938.0,343.0,71.0,368.0,1060.0,1362.0,878.0,170.0,460.0,4112.0,2078.0,3733.0,2039.0,193.0,477.0,4312.0,2251.0,3952.0,2327.0,238.0,476.0,4421.0,2370.0,4027.0,2302.0,274.0,463.0,4366.0,2336.0,3922.0,2483.0,299.0,452.0,4214.0,2533.0,3937.0,2161.0
82,BROADWAY JCT,40.6789137,-73.9039,768.0,2056.0,2329.0,2673.0,1886.0,816.0,572.0,1754.0,2184.0,2518.0,1834.0,696.0,1475.0,4391.0,2648.0,4464.0,2080.0,1068.0,1673.0,4574.0,2847.0,4725.0,2338.0,1133.0,1761.0,4549.0,2810.0,4630.0,2327.0,1190.0,1694.0,4601.0,2839.0,4761.0,2496.0,1254.0,1692.0,4506.0,3330.0,4397.0,2628.0
83,HOYT ST,40.688828799999996,-73.98531249999998,154.0,1130.0,2696.0,2879.0,1437.0,320.0,102.0,1074.0,2550.0,2585.0,1040.0,168.0,426.0,3832.0,2995.0,4985.0,1831.0,198.0,446.0,4173.0,2917.0,5035.0,1988.0,214.0,435.0,3984.0,3138.0,5196.0,1754.0,223.0,423.0,4352.0,3128.0,5247.0,2048.0,291.0,426.0,3960.0,3467.0,5211.0,1939.0
84,135 ST,40.817894,-73.947647,491.0,2185.0,2844.0,2875.0,1829.0,693.0,423.0,1931.0,3007.0,2531.0,1443.0,520.0,1248.0,6544.0,3489.0,5166.0,2278.0,591.0,1307.0,7052.0,3703.0,5707.0,2498.0,662.0,1355.0,6950.0,3734.0,5440.0,2562.0,685.0,1204.0,7034.0,3841.0,5525.0,2634.0,710.0,1166.0,6580.0,3875.0,5320.0,2685.0
85,ELMHURST AV,40.74244789999999,-73.88198440000001,544.0,2583.0,2646.0,2408.0,1218.0,299.0,432.0,2251.0,2576.0,2044.0,1057.0,259.0,1718.0,6495.0,2846.0,3203.0,1425.0,217.0,1738.0,6801.0,2809.0,3433.0,1558.0,211.0,1750.0,6847.0,2824.0,3484.0,1474.0,271.0,1774.0,6819.0,2882.0,3600.0,1529.0,263.0,1692.0,6783.0,3065.0,3408.0,1703.0
86,RECTOR ST,40.7078954,-74.01363649999998,236.0,1722.0,2604.0,3018.0,1367.0,449.0,150.0,1421.0,2363.0,2352.0,1074.0,278.0,606.0,7223.0,3969.0,8274.0,2274.0,394.0,655.0,7671.0,4165.0,8908.0,2593.0,398.0,680.0,7738.0,4299.0,9165.0,2619.0,505.0,636.0,7774.0,4411.0,9573.0,2944.0,497.0,613.0,7231.0,4930.0,6543.0,2220.0
87,4AV-9 ST,40.6701803,-73.98929150000002,220.0,998.0,1571.0,1781.0,881.0,353.0,138.0,701.0,1350.0,1497.0,767.0,202.0,668.0,5500.0,2352.0,4092.0,2088.0,306.0,741.0,5935.0,2598.0,4685.0,2180.0,434.0,762.0,5916.0,2488.0,4927.0,2225.0,360.0,730.0,5983.0,2438.0,4982.0,2357.0,491.0,721.0,5545.0,2982.0,4799.0,2256.0
88,96 ST,40.7858701,-73.95093469999998,140.0,856.0,1520.0,1825.0,892.0,280.0,112.0,684.0,1885.0,2032.0,873.0,179.0,455.0,5412.0,2842.0,5933.0,1996.0,227.0,453.0,5926.0,3116.0,6674.0,2428.0,246.0,512.0,5903.0,3224.0,6450.0,2465.0,249.0,408.0,5907.0,3345.0,6794.0,2475.0,258.0,424.0,5606.0,3405.0,6311.0,1954.0
89,JAMAICA 179 ST,40.71264420000001,-73.7838184,1315.0,3205.0,3196.0,3553.0,2136.0,813.0,990.0,2492.0,2865.0,2926.0,1899.0,697.0,5264.0,11661.0,4069.0,6540.0,3236.0,801.0,5597.0,12442.0,4282.0,6811.0,3582.0,913.0,5685.0,12237.0,4292.0,7180.0,3611.0,977.0,5385.0,12391.0,4203.0,6966.0,3601.0,938.0,5104.0,11364.0,4528.0,6768.0,3110.0
90,BRIGHTON BEACH,40.5776648,-73.96127690000002,404.0,2021.0,2420.0,2477.0,1180.0,395.0,292.0,1590.0,2371.0,2513.0,1216.0,292.0,1451.0,5807.0,4381.0,5444.0,2465.0,286.0,1448.0,3621.0,2909.0,6218.0,2850.0,350.0,1399.0,6014.0,4346.0,6004.0,2634.0,394.0,1407.0,6131.0,4285.0,6206.0,2782.0,403.0,1322.0,5567.0,3930.0,5129.0,2011.0
91,CARROLL ST,40.679331299999994,-73.9954833,115.0,1070.0,2118.0,2390.0,1050.0,385.0,105.0,562.0,1272.0,1913.0,888.0,184.0,572.0,6897.0,2289.0,4888.0,1831.0,280.0,588.0,7175.0,2617.0,5144.0,2099.0,283.0,370.0,4328.0,2655.0,5353.0,2265.0,311.0,563.0,7134.0,2534.0,5579.0,1835.0,415.0,504.0,4092.0,3144.0,5059.0,2343.0
92,149/GRAND CONC,40.8183248,-73.9274121,653.0,2078.0,2369.0,2647.0,1395.0,684.0,714.0,1779.0,2152.0,2183.0,1394.0,617.0,1316.0,5865.0,4957.0,6123.0,2469.0,734.0,1286.0,5927.0,5219.0,6790.0,3004.0,693.0,1153.0,4976.0,4670.0,5706.0,2644.0,675.0,1161.0,4594.0,4689.0,5753.0,2621.0,704.0,1202.0,4193.0,,1780.0,866.0
93,UNION ST,40.6771729,-73.98324670000001,122.0,386.0,826.0,921.0,720.0,359.0,94.0,319.0,604.0,828.0,549.0,128.0,534.0,3986.0,1574.0,3925.0,1397.0,242.0,554.0,4369.0,1761.0,3825.0,2412.0,366.0,560.0,4493.0,1786.0,3971.0,2348.0,427.0,571.0,4385.0,1792.0,3911.0,2469.0,506.0,509.0,4315.0,1924.0,4025.0,2243.0
94,111 ST,40.75172999999999,-73.855334,1246.0,3362.0,3021.0,3465.0,2088.0,998.0,787.0,2563.0,2813.0,2972.0,1845.0,733.0,3279.0,6828.0,3241.0,5731.0,2691.0,855.0,3427.0,7015.0,3321.0,5270.0,2933.0,890.0,3458.0,6999.0,3221.0,5998.0,2773.0,988.0,3434.0,7080.0,3202.0,6067.0,3085.0,946.0,3398.0,6757.0,3711.0,5311.0,2863.0
95,MONTROSE AV,40.7077716,-73.93986329999998,282.0,1035.0,1685.0,1997.0,1334.0,492.0,249.0,901.0,1700.0,1898.0,1130.0,341.0,534.0,3183.0,1583.0,2696.0,1653.0,73.0,541.0,3587.0,1708.0,2830.0,1762.0,85.0,531.0,3594.0,1748.0,2780.0,1799.0,90.0,532.0,3595.0,1736.0,2832.0,2048.0,111.0,492.0,3448.0,1949.0,2788.0,2176.0
96,MORGAN AV,40.70607589999999,-73.93370999999998,239.0,917.0,1820.0,2067.0,1318.0,470.0,202.0,811.0,1893.0,1954.0,1131.0,316.0,572.0,3237.0,1670.0,2679.0,1373.0,74.0,542.0,3495.0,1769.0,2878.0,1582.0,105.0,563.0,3502.0,1838.0,3067.0,1666.0,78.0,568.0,3560.0,1953.0,3035.0,1955.0,113.0,600.0,3262.0,2008.0,3082.0,2394.0
97,90 ST-ELMHURST,40.748436700000006,-73.87652890000001,1274.0,3847.0,3721.0,3863.0,2118.0,842.0,836.0,3009.0,3447.0,3389.0,1834.0,618.0,3144.0,7373.0,3967.0,5488.0,2591.0,732.0,3162.0,7744.0,3925.0,5235.0,2952.0,815.0,3219.0,7758.0,3882.0,6205.0,2908.0,859.0,3284.0,7699.0,3863.0,6035.0,,,3154.0,7676.0,4019.0,5606.0,3039.0
98,6 AV,40.7373653,-73.99684529999998,81.0,455.0,1202.0,1736.0,1093.0,276.0,78.0,408.0,1237.0,1435.0,888.0,200.0,268.0,2072.0,1458.0,3100.0,1557.0,138.0,301.0,2319.0,1599.0,3262.0,1801.0,189.0,302.0,2421.0,1718.0,3295.0,1974.0,223.0,269.0,2446.0,1795.0,3292.0,2170.0,286.0,257.0,2250.0,1902.0,3409.0,2164.0
99,BOWERY,40.720166799999994,-73.99353470000001,3.0,0.0,0.0,0.0,0.0,0.0,0.0,0.0,3.0,0.0,0.0,0.0,200.0,1745.0,1203.0,1792.0,817.0,300.0,295.0,1843.0,1358.0,2208.0,1201.0,462.0,264.0,1912.0,1355.0,2173.0,1231.0,459.0,286.0,1898.0,1400.0,2278.0,1572.0,666.0,330.0,1864.0,1551.0,2385.0,1023.0
100,BURNSIDE AV,40.85345299999999,-73.90768400000002,604.0,1715.0,1877.0,1941.0,1224.0,454.0,467.0,1256.0,1633.0,1882.0,1198.0,446.0,1622.0,4228.0,3088.0,4224.0,1829.0,542.0,1685.0,4527.0,3498.0,4750.0,2151.0,612.0,1659.0,4795.0,3532.0,4736.0,2207.0,616.0,1686.0,4626.0,3594.0,4738.0,2244.0,656.0,1638.0,4446.0,3765.0,4048.0,1999.0
101,45 ST,40.6493588,-74.00959069999998,407.0,1410.0,1912.0,1967.0,1036.0,404.0,290.0,1230.0,1722.0,1813.0,896.0,333.0,1061.0,4023.0,1908.0,3399.0,1321.0,349.0,1176.0,4253.0,1963.0,3668.0,1653.0,394.0,1090.0,4171.0,2027.0,3666.0,1673.0,404.0,1123.0,4259.0,1929.0,3616.0,1744.0,480.0,1051.0,4063.0,2284.0,3319.0,1538.0
102,170 ST,40.840050399999996,-73.9133477,560.0,1438.0,1834.0,2013.0,1204.0,507.0,447.0,1046.0,1567.0,1711.0,1056.0,473.0,1502.0,3872.0,2330.0,4047.0,1650.0,573.0,1522.0,3997.0,2127.0,4088.0,1896.0,573.0,1565.0,4143.0,1926.0,4302.0,1928.0,590.0,1534.0,3980.0,1934.0,4385.0,1951.0,584.0,1509.0,4001.0,2051.0,4049.0,1927.0
103,169 ST,40.7104152,-73.79374600000001,522.0,1549.0,702.0,1019.0,1444.0,508.0,436.0,1300.0,1735.0,2098.0,1297.0,393.0,1354.0,4365.0,2594.0,4675.0,2117.0,517.0,1358.0,4335.0,2866.0,5130.0,2459.0,535.0,1431.0,4424.0,2937.0,4853.0,2429.0,619.0,1437.0,4440.0,2668.0,5186.0,2536.0,480.0,1285.0,4366.0,3104.0,4475.0,2239.0
104,74 ST-BROADWAY,40.746941899999996,-73.89146020000001,169.0,767.0,1414.0,1502.0,1004.0,315.0,136.0,635.0,1317.0,1498.0,1031.0,257.0,285.0,1478.0,1468.0,2311.0,1296.0,328.0,272.0,1416.0,1555.0,2952.0,1678.0,374.0,274.0,1440.0,1473.0,2449.0,1414.0,398.0,296.0,1409.0,1367.0,2478.0,1493.0,400.0,273.0,1347.0,1455.0,2421.0,1552.0
105,40 ST LOWERY ST,40.7438729,-73.92423409999998,342.0,1623.0,2100.0,2469.0,1547.0,571.0,255.0,1413.0,1935.0,2218.0,1366.0,422.0,1064.0,5969.0,2566.0,5265.0,2875.0,514.0,1107.0,6282.0,2619.0,5820.0,3200.0,618.0,1141.0,6369.0,2661.0,5762.0,2928.0,701.0,1149.0,6285.0,2741.0,5792.0,2920.0,782.0,1063.0,6438.0,3149.0,5508.0,3000.0
106,CASTLE HILL AV,40.83429599999999,-73.85168399999998,537.0,1408.0,1638.0,1960.0,1180.0,638.0,399.0,1138.0,1327.0,1645.0,1089.0,512.0,1484.0,3708.0,2099.0,3750.0,1890.0,594.0,1554.0,3858.0,2181.0,4080.0,2113.0,694.0,1585.0,3890.0,2241.0,4145.0,2066.0,680.0,1600.0,3869.0,2043.0,3937.0,2165.0,712.0,1476.0,3764.0,2443.0,3994.0,2106.0
107,HALSEY ST,40.69577750000001,-73.9044092,356.0,1194.0,1510.0,1797.0,1218.0,535.0,302.0,1146.0,1603.0,1652.0,1061.0,376.0,1137.0,4070.0,1787.0,3044.0,1589.0,148.0,1144.0,4316.0,1791.0,3325.0,1764.0,147.0,1139.0,4438.0,1845.0,3297.0,1851.0,143.0,1148.0,4370.0,1956.0,3388.0,2023.0,194.0,1096.0,4259.0,2143.0,3282.0,2116.0
108,CLARK ST,40.6974878,-73.99314090000001,48.0,701.0,1822.0,1752.0,789.0,193.0,63.0,685.0,1991.0,2026.0,807.0,116.0,268.0,2462.0,1254.0,2440.0,1059.0,122.0,276.0,2846.0,1514.0,2399.0,1300.0,146.0,281.0,2795.0,1455.0,2830.0,1351.0,136.0,256.0,2844.0,1550.0,2492.0,1304.0,204.0,247.0,2632.0,1691.0,2672.0,1289.0
109,SUTTER AV-RUTLD,40.664992100000006,-73.92290849999998,430.0,1310.0,1726.0,2001.0,1126.0,577.0,340.0,1103.0,1467.0,1796.0,1037.0,431.0,1334.0,3913.0,2286.0,4028.0,1873.0,482.0,1378.0,4140.0,2353.0,4126.0,2361.0,487.0,1366.0,4236.0,2358.0,4315.0,2095.0,541.0,1395.0,4160.0,2445.0,4328.0,2346.0,571.0,1384.0,4053.0,3026.0,4216.0,2095.0
110,EASTN PKWY-MUSM,40.671993799999996,-73.96420649999999,68.0,573.0,1898.0,2007.0,943.0,276.0,89.0,497.0,1826.0,1975.0,611.0,161.0,266.0,2507.0,1146.0,2444.0,1330.0,225.0,282.0,2691.0,1240.0,2503.0,1684.0,305.0,282.0,2722.0,1610.0,2977.0,1621.0,269.0,276.0,2768.0,1463.0,2857.0,1806.0,342.0,266.0,2585.0,1657.0,2814.0,1420.0
111,BAY RIDGE AV,40.634968,-74.023376,295.0,1231.0,1708.0,1688.0,1019.0,328.0,240.0,1059.0,1588.0,1484.0,823.0,204.0,963.0,4281.0,1962.0,3048.0,1045.0,159.0,1009.0,4487.0,2054.0,3151.0,1558.0,269.0,1003.0,4527.0,1948.0,3084.0,1586.0,259.0,1005.0,4564.0,2036.0,3106.0,1771.0,316.0,951.0,4292.0,2335.0,3144.0,1464.0
112,OZONE PK LEFFRT,40.685956700000006,-73.8257601,646.0,1365.0,1288.0,1542.0,1029.0,384.0,472.0,1120.0,1193.0,1388.0,984.0,354.0,2250.0,4162.0,1765.0,3709.0,1838.0,429.0,2392.0,4168.0,2002.0,3854.0,2064.0,464.0,2377.0,4331.0,1811.0,3828.0,1971.0,466.0,2365.0,4145.0,1727.0,3763.0,2034.0,489.0,2210.0,4000.0,1908.0,3695.0,1825.0
113,JEFFERSON ST,40.7065868,-73.922872,312.0,803.0,1371.0,1392.0,967.0,481.0,262.0,722.0,1426.0,1224.0,730.0,140.0,626.0,2963.0,1379.0,2166.0,901.0,27.0,664.0,3188.0,1502.0,2366.0,1166.0,42.0,647.0,3295.0,1504.0,2373.0,1267.0,47.0,619.0,3263.0,1500.0,2584.0,1437.0,85.0,617.0,3047.0,1628.0,2577.0,1897.0
114,MORISN AV/SNDVW,40.8294898,-73.8746754,608.0,1407.0,1487.0,1817.0,1090.0,530.0,458.0,1076.0,1265.0,1349.0,978.0,486.0,1537.0,3255.0,1882.0,3012.0,1511.0,635.0,1654.0,3281.0,1885.0,3004.0,1665.0,697.0,1659.0,3463.0,1833.0,2911.0,1659.0,647.0,1659.0,3447.0,1902.0,3031.0,1761.0,668.0,1644.0,3322.0,2145.0,2901.0,1711.0
115,207 ST,40.8676635,-73.9212009,321.0,1240.0,1577.0,1734.0,874.0,279.0,296.0,1019.0,1537.0,1559.0,915.0,243.0,797.0,2816.0,1652.0,2324.0,1023.0,229.0,823.0,2984.0,1836.0,2658.0,1241.0,295.0,822.0,2934.0,1894.0,2710.0,1196.0,281.0,786.0,2963.0,1694.0,2650.0,1282.0,314.0,805.0,3019.0,1922.0,2674.0,1359.0
116,EUCLID AV,40.6754013,-73.8719033,650.0,1877.0,1841.0,1858.0,1092.0,360.0,503.0,1530.0,1711.0,1583.0,1058.0,294.0,1745.0,5172.0,2389.0,2866.0,1308.0,353.0,1854.0,5564.0,2588.0,3095.0,1421.0,361.0,1830.0,5584.0,2489.0,3147.0,1363.0,403.0,1797.0,5307.0,2663.0,3219.0,1495.0,410.0,1754.0,5204.0,2850.0,3101.0,1481.0
117,GRAND ARMY PLAZ,40.6752403,-73.97104159999998,82.0,740.0,1387.0,1468.0,680.0,248.0,60.0,623.0,1461.0,1527.0,545.0,104.0,270.0,3876.0,1596.0,2816.0,1181.0,123.0,296.0,4351.0,1648.0,2961.0,1372.0,183.0,274.0,4346.0,1687.0,3126.0,1279.0,145.0,294.0,4424.0,1602.0,3067.0,1371.0,196.0,258.0,4021.0,1800.0,2793.0,1237.0
118,PARSONS BLVD,40.707714,-73.8028238,845.0,2068.0,2099.0,2619.0,1624.0,789.0,661.0,1719.0,2001.0,2232.0,1624.0,586.0,1354.0,3891.0,2175.0,3726.0,1629.0,610.0,1478.0,4019.0,2300.0,4019.0,1824.0,671.0,1448.0,3944.0,2351.0,4040.0,1850.0,816.0,1424.0,3967.0,2302.0,4124.0,1926.0,662.0,1386.0,4060.0,2563.0,3406.0,1759.0
119,231 ST,40.87899229999999,-73.904939,384.0,1476.0,2095.0,1826.0,843.0,242.0,334.0,1304.0,1804.0,1709.0,773.0,182.0,1482.0,5030.0,2073.0,2698.0,1066.0,214.0,1561.0,5353.0,2202.0,3099.0,1260.0,226.0,1537.0,5384.0,2305.0,3127.0,1249.0,239.0,1623.0,5353.0,2211.0,3236.0,1350.0,227.0,1522.0,5131.0,2455.0,3100.0,1373.0
120,SMITH-9 ST,40.6746048,-73.99703970000002,217.0,1112.0,1413.0,1557.0,790.0,286.0,139.0,740.0,1219.0,1447.0,700.0,205.0,696.0,3220.0,1810.0,3070.0,1185.0,256.0,741.0,3525.0,2084.0,3490.0,1448.0,230.0,688.0,3597.0,1859.0,3471.0,1337.0,230.0,692.0,3429.0,1744.0,3446.0,1431.0,277.0,672.0,3336.0,2290.0,3245.0,1425.0
121,4 AV-9 ST,40.6701803,-73.98929150000002,151.0,643.0,1058.0,1345.0,752.0,311.0,104.0,437.0,995.0,1060.0,572.0,167.0,335.0,2255.0,1085.0,2694.0,1622.0,234.0,363.0,2315.0,1042.0,2908.0,1647.0,303.0,362.0,2288.0,991.0,3037.0,1618.0,267.0,333.0,2198.0,1025.0,2941.0,1683.0,321.0,340.0,2193.0,1245.0,2848.0,1610.0
122,67 AV,40.7263823,-73.8515929,194.0,1102.0,1483.0,1324.0,760.0,269.0,127.0,977.0,1312.0,1150.0,614.0,143.0,971.0,5520.0,2127.0,3401.0,1657.0,178.0,1013.0,5816.0,2126.0,3386.0,1913.0,202.0,1046.0,5914.0,2143.0,3552.0,1796.0,194.0,998.0,5904.0,2073.0,3648.0,1893.0,207.0,926.0,5632.0,2292.0,2869.0,1542.0
123,ROCKAWAY AV,40.6625632,-73.9089054,306.0,1022.0,1226.0,1460.0,872.0,490.0,273.0,810.0,1064.0,1354.0,912.0,351.0,950.0,3031.0,1728.0,3030.0,1269.0,416.0,941.0,3161.0,1791.0,3111.0,1545.0,433.0,963.0,3128.0,1891.0,3090.0,1413.0,460.0,931.0,3054.0,1900.0,3257.0,1483.0,501.0,869.0,3000.0,2388.0,2956.0,1507.0
124,PELHAM BAY PARK,40.852930799999996,-73.8270555,402.0,1233.0,1575.0,1721.0,960.0,453.0,277.0,892.0,1372.0,1442.0,909.0,325.0,1517.0,3870.0,1675.0,2527.0,1070.0,,,4074.0,1802.0,2716.0,1206.0,407.0,1546.0,4136.0,1703.0,2668.0,1319.0,408.0,1581.0,4253.0,1674.0,2628.0,1235.0,423.0,1474.0,4011.0,1941.0,2702.0,1332.0
125,CLASSON AV,40.688873,-73.96007,170.0,738.0,1354.0,1605.0,1097.0,400.0,119.0,656.0,1215.0,1582.0,1017.0,240.0,481.0,3425.0,1395.0,3273.0,1839.0,277.0,498.0,3646.0,1570.0,3136.0,2145.0,349.0,483.0,3677.0,1609.0,3273.0,2092.0,398.0,491.0,3711.0,1533.0,3269.0,2152.0,467.0,486.0,3476.0,1900.0,3306.0,2091.0
126,NEW LOTS AV,40.6663015,-73.88371579999998,409.0,1101.0,1334.0,1547.0,1079.0,576.0,328.0,936.0,1208.0,1420.0,981.0,471.0,1310.0,3159.0,1857.0,3280.0,1535.0,578.0,1433.0,3262.0,1786.0,3397.0,1873.0,622.0,1409.0,3306.0,1941.0,3422.0,1828.0,656.0,1385.0,3283.0,1921.0,3381.0,1949.0,647.0,1313.0,3131.0,2253.0,3244.0,1781.0
127,GRANT AV,40.6768777,-73.86534619999998,450.0,1228.0,1399.0,1615.0,1028.0,452.0,337.0,1095.0,1178.0,1416.0,926.0,412.0,1148.0,3454.0,1814.0,3003.0,1459.0,477.0,1150.0,3540.0,1896.0,3092.0,1634.0,542.0,1214.0,3421.0,1797.0,3040.0,1641.0,578.0,1214.0,3515.0,1862.0,3142.0,1779.0,539.0,1133.0,3377.0,1958.0,2945.0,1554.0
128,STERLING ST,40.6632908,-73.951044,171.0,827.0,1352.0,1289.0,762.0,259.0,154.0,710.0,1183.0,1164.0,646.0,225.0,626.0,3191.0,1563.0,2348.0,1238.0,231.0,627.0,3443.0,1597.0,2292.0,1447.0,254.0,658.0,3305.0,1597.0,2463.0,1430.0,288.0,652.0,3469.0,1679.0,2481.0,1389.0,275.0,616.0,3307.0,1859.0,2475.0,1334.0
129,PROSPECT AV,40.66541369999999,-73.99292590000002,122.0,459.0,741.0,875.0,538.0,262.0,78.0,336.0,609.0,687.0,455.0,147.0,580.0,3957.0,1451.0,3032.0,979.0,230.0,597.0,4162.0,1562.0,3093.0,1593.0,282.0,599.0,4161.0,1690.0,3186.0,1481.0,324.0,600.0,4190.0,1510.0,3117.0,1471.0,417.0,505.0,3986.0,1754.0,3166.0,1329.0
130,18 ST,40.74122390000001,-73.9980319,113.0,609.0,1643.0,2072.0,1061.0,327.0,103.0,438.0,1549.0,1843.0,711.0,165.0,237.0,3564.0,2440.0,5524.0,1859.0,179.0,,,2828.0,5576.0,2180.0,215.0,279.0,4046.0,3217.0,5913.0,2444.0,233.0,258.0,4056.0,3127.0,6037.0,2526.0,269.0,264.0,3577.0,3540.0,5699.0,2410.0
131,SARATOGA AV,40.669094,-73.91828199999998,394.0,949.0,1185.0,1366.0,883.0,448.0,249.0,800.0,1020.0,1221.0,935.0,336.0,1234.0,3165.0,1660.0,3191.0,1517.0,383.0,1268.0,3290.0,1692.0,3103.0,2034.0,430.0,1218.0,3278.0,1702.0,3220.0,1833.0,472.0,1209.0,3265.0,1634.0,3238.0,1872.0,461.0,1147.0,3140.0,1955.0,2999.0,1760.0
132,WILSON AV,40.6887823,-73.90467240000001,186.0,722.0,1074.0,1289.0,990.0,368.0,176.0,674.0,1094.0,1289.0,910.0,287.0,587.0,2473.0,1311.0,2254.0,1364.0,104.0,543.0,2630.0,1398.0,2441.0,1565.0,111.0,529.0,2599.0,1364.0,2483.0,1667.0,116.0,546.0,2672.0,1312.0,2528.0,1730.0,147.0,506.0,2536.0,1572.0,2306.0,1673.0
133,V.CORTLANDT PK,40.89642429999999,-73.8852842,402.0,1311.0,1653.0,1582.0,827.0,326.0,297.0,983.0,1295.0,1302.0,787.0,196.0,1708.0,4143.0,1584.0,2916.0,1081.0,237.0,1813.0,4391.0,1591.0,3021.0,1240.0,268.0,1797.0,4402.0,1686.0,3018.0,1297.0,337.0,1673.0,4346.0,1757.0,2997.0,1368.0,377.0,1647.0,4129.0,1780.0,3244.0,1321.0
134,WESTCHESTER SQ,40.840124700000004,-73.84282579999999,393.0,1068.0,1178.0,1479.0,835.0,403.0,234.0,809.0,967.0,1119.0,746.0,297.0,1106.0,3753.0,2266.0,3444.0,1452.0,392.0,1144.0,3741.0,2254.0,3873.0,1541.0,442.0,1136.0,3816.0,2187.0,3530.0,1711.0,447.0,1086.0,3666.0,2139.0,3685.0,1691.0,468.0,1118.0,3610.0,2593.0,3405.0,1510.0
135,FAR ROCKAWAY,40.6077527,-73.7517548,470.0,933.0,1095.0,1274.0,800.0,407.0,402.0,863.0,975.0,1135.0,893.0,323.0,1240.0,2384.0,1352.0,2778.0,1219.0,403.0,1302.0,2378.0,1499.0,2897.0,1298.0,393.0,1352.0,2342.0,1498.0,2889.0,1364.0,404.0,1319.0,2439.0,1411.0,2982.0,1367.0,388.0,1240.0,2392.0,1769.0,2837.0,1271.0
136,WOODLAWN,40.88603699999999,-73.878751,360.0,844.0,1005.0,1086.0,749.0,321.0,221.0,605.0,878.0,1012.0,674.0,197.0,1484.0,2666.0,1237.0,1900.0,869.0,300.0,1506.0,2837.0,1283.0,2033.0,1014.0,288.0,1512.0,2869.0,1300.0,2148.0,885.0,332.0,1521.0,2773.0,1199.0,2106.0,889.0,342.0,1370.0,2596.0,1200.0,2004.0,1001.0
137,CORTELYOU RD,40.6412697,-73.9639694,171.0,590.0,743.0,731.0,423.0,122.0,146.0,532.0,759.0,613.0,397.0,131.0,773.0,3516.0,1408.0,1777.0,682.0,171.0,788.0,3641.0,1398.0,1923.0,823.0,152.0,794.0,3721.0,1382.0,1905.0,840.0,159.0,772.0,3660.0,1463.0,1884.0,816.0,140.0,719.0,3605.0,1653.0,1814.0,853.0
138,BERGEN ST,40.686083200000006,-73.9909074,62.0,452.0,1002.0,1213.0,774.0,287.0,49.0,385.0,741.0,1166.0,724.0,125.0,193.0,2530.0,925.0,1940.0,1007.0,121.0,200.0,2789.0,894.0,1681.0,1155.0,153.0,185.0,2758.0,944.0,2045.0,1085.0,202.0,185.0,2911.0,1003.0,1835.0,1180.0,204.0,163.0,2714.0,1141.0,2192.0,1309.0
139,BEDFORD PK BLVD,40.8732636,-73.8871965,309.0,747.0,900.0,951.0,573.0,242.0,184.0,576.0,1187.0,1555.0,479.0,199.0,954.0,2710.0,1642.0,3050.0,1155.0,328.0,1003.0,2748.0,1786.0,3542.0,1542.0,348.0,1004.0,2982.0,154.0,814.0,1390.0,364.0,1029.0,2778.0,1984.0,3308.0,1479.0,353.0,928.0,2559.0,1944.0,2803.0,1176.0
140,HARLEM 148 ST,40.8240504,-73.9369385,223.0,877.0,1225.0,1429.0,1090.0,347.0,171.0,758.0,1108.0,1320.0,841.0,258.0,666.0,3173.0,1440.0,2844.0,1333.0,265.0,717.0,3403.0,,,1416.0,336.0,551.0,3063.0,1201.0,2560.0,1197.0,269.0,594.0,2926.0,1451.0,2379.0,1193.0,306.0,558.0,2763.0,1452.0,2333.0,1188.0
141,BAY RIDGE-95 ST,40.6167174,-74.0308527,199.0,876.0,1043.0,1143.0,616.0,267.0,136.0,731.0,1048.0,1025.0,600.0,181.0,907.0,3544.0,1309.0,2556.0,771.0,192.0,937.0,3743.0,1369.0,2712.0,1297.0,254.0,936.0,3804.0,1452.0,2695.0,1313.0,274.0,949.0,3654.0,1394.0,2651.0,1337.0,308.0,852.0,3482.0,1505.0,2418.0,1137.0
142,CLINTON-WASH AV,40.683498900000004,-73.9668944,147.0,1327.0,1760.0,1415.0,931.0,387.0,99.0,733.0,1437.0,1349.0,742.0,208.0,457.0,4885.0,1869.0,3328.0,1603.0,285.0,465.0,5480.0,1832.0,3564.0,1897.0,330.0,470.0,5369.0,1960.0,3644.0,1974.0,344.0,462.0,5428.0,1983.0,3767.0,1945.0,516.0,420.0,4995.0,2411.0,3444.0,1944.0
143,KINGSTON-THROOP,40.679826500000004,-73.94112940000001,255.0,1147.0,1690.0,1816.0,1121.0,688.0,260.0,1070.0,1639.0,1577.0,1120.0,561.0,646.0,3777.0,1763.0,3228.0,1676.0,544.0,693.0,4060.0,1923.0,3326.0,1900.0,626.0,705.0,4056.0,1934.0,3335.0,2092.0,694.0,720.0,4129.0,1965.0,3265.0,1968.0,812.0,698.0,3933.0,2405.0,3071.0,1755.0
144,ST LAWRENCE AV,40.8315326,-73.8672593,400.0,882.0,950.0,1203.0,761.0,470.0,310.0,763.0,940.0,1096.0,801.0,418.0,1014.0,2174.0,1265.0,2115.0,1073.0,459.0,1038.0,2191.0,1234.0,2269.0,1209.0,519.0,1030.0,2306.0,1303.0,2192.0,1184.0,493.0,1034.0,2208.0,1187.0,2175.0,1242.0,448.0,963.0,2220.0,1476.0,2059.0,1168.0
145,176 ST,40.8484597,-73.9117411,400.0,1103.0,1232.0,1281.0,820.0,311.0,313.0,766.0,986.0,1065.0,736.0,268.0,1055.0,3069.0,1684.0,2536.0,1046.0,323.0,1097.0,3064.0,1329.0,2824.0,1220.0,341.0,1079.0,3129.0,1263.0,2729.0,1119.0,322.0,1140.0,3096.0,1296.0,2729.0,1336.0,370.0,1000.0,2994.0,1374.0,2660.0,1156.0
146,FULTON ST,40.709893,-74.0079818,141.0,764.0,1851.0,1992.0,1084.0,309.0,111.0,667.0,1582.0,2168.0,1321.0,220.0,365.0,2668.0,1838.0,3661.0,1692.0,297.0,383.0,2812.0,1941.0,3710.0,1759.0,313.0,377.0,2934.0,2052.0,3954.0,1988.0,329.0,374.0,2853.0,1981.0,3777.0,2214.0,353.0,369.0,2731.0,2678.0,3631.0,2059.0
147,AVENUE J,40.6252684,-73.9607296,171.0,631.0,711.0,776.0,434.0,140.0,121.0,688.0,831.0,863.0,587.0,144.0,673.0,3215.0,1707.0,2525.0,1210.0,152.0,675.0,3408.0,1688.0,2774.0,1306.0,198.0,700.0,3404.0,1848.0,2735.0,1185.0,193.0,702.0,3459.0,1768.0,2822.0,1357.0,214.0,621.0,3195.0,2050.0,2070.0,804.0
148,183 ST,40.8583924,-73.90397810000002,474.0,1174.0,1117.0,1188.0,738.0,329.0,314.0,782.0,997.0,1019.0,739.0,261.0,1172.0,2684.0,1037.0,1392.0,923.0,329.0,1139.0,2833.0,1579.0,2255.0,1165.0,367.0,1182.0,2878.0,1569.0,2156.0,1121.0,378.0,1194.0,2910.0,1583.0,2348.0,1092.0,389.0,1172.0,2767.0,1643.0,2101.0,1125.0
149,18 AV,40.6201053,-73.9894661,247.0,1072.0,994.0,961.0,477.0,111.0,158.0,899.0,1144.0,848.0,418.0,68.0,1363.0,5351.0,2262.0,3570.0,1337.0,261.0,1462.0,5445.0,2507.0,3852.0,1457.0,242.0,1467.0,5612.0,2583.0,3887.0,1515.0,301.0,1505.0,5566.0,2537.0,3963.0,1526.0,290.0,1420.0,5371.0,2859.0,3548.0,1289.0
150,KINGSTON AV,40.669284499999996,-73.9422927,141.0,650.0,945.0,1066.0,817.0,354.0,156.0,852.0,1254.0,1331.0,835.0,251.0,465.0,2549.0,1345.0,2350.0,1260.0,288.0,481.0,2738.0,1499.0,2261.0,1605.0,329.0,494.0,2669.0,1467.0,2381.0,1452.0,347.0,481.0,2756.0,1530.0,2439.0,1277.0,400.0,446.0,2705.0,2347.0,1996.0,1092.0
151,BEVERLEY ROAD,40.644229100000004,-73.96449799999998,116.0,338.0,443.0,698.0,601.0,256.0,77.0,289.0,442.0,745.0,611.0,264.0,404.0,1903.0,863.0,1894.0,1550.0,745.0,432.0,2152.0,864.0,1815.0,1775.0,731.0,435.0,2078.0,868.0,1830.0,1223.0,298.0,437.0,2053.0,843.0,1709.0,1279.0,338.0,413.0,1965.0,947.0,1701.0,1342.0
152,71 ST,40.619621200000005,-73.99877699999998,209.0,669.0,631.0,785.0,450.0,150.0,109.0,555.0,610.0,631.0,519.0,94.0,1016.0,3430.0,1203.0,1551.0,813.0,154.0,1020.0,3510.0,1168.0,1647.0,909.0,144.0,1019.0,3447.0,1176.0,1627.0,787.0,143.0,1013.0,3411.0,1161.0,1719.0,960.0,182.0,952.0,3321.0,1143.0,1655.0,838.0
153,ST. GEORGE,40.64400390000001,-74.07332480000001,306.0,752.0,916.0,984.0,615.0,292.0,205.0,522.0,740.0,793.0,585.0,200.0,1673.0,4866.0,1495.0,5500.0,1322.0,267.0,1741.0,5092.0,1597.0,5348.0,1779.0,368.0,1656.0,5194.0,1654.0,5474.0,1881.0,388.0,1634.0,1767.0,1077.0,5433.0,1790.0,366.0,1561.0,4514.0,1586.0,4932.0,1477.0
154,MT EDEN AV,40.844528499999996,-73.9146157,396.0,1051.0,1166.0,1223.0,758.0,340.0,304.0,789.0,964.0,1015.0,734.0,297.0,1138.0,2848.0,1650.0,2600.0,1022.0,400.0,1113.0,2961.0,1329.0,2686.0,1175.0,408.0,1140.0,2889.0,1348.0,2799.0,1261.0,395.0,1148.0,2868.0,1327.0,2710.0,1238.0,449.0,1074.0,2860.0,1428.0,2503.0,1284.0
155,MARBLE HILL-225,40.8743487,-73.91043309999998,252.0,823.0,1119.0,1291.0,744.0,176.0,156.0,689.0,996.0,1158.0,616.0,155.0,727.0,2356.0,1271.0,1956.0,740.0,168.0,714.0,2472.0,1359.0,2148.0,839.0,167.0,749.0,2487.0,1417.0,2136.0,903.0,164.0,715.0,2483.0,1355.0,2146.0,982.0,193.0,709.0,2450.0,1448.0,2096.0,956.0
156,174-175 STS,40.846524,-73.90972690000001,,,,,,,,,,,,,,,,,,,,,,,,,,,,,,,,,,,,,,,,,
157,33 ST-RAWSON ST,40.744587,-73.93099699999998,235.0,605.0,770.0,799.0,262.0,142.0,233.0,428.0,637.0,689.0,351.0,174.0,1013.0,6241.0,4042.0,7850.0,2632.0,255.0,1056.0,6224.0,4372.0,8847.0,2903.0,225.0,1092.0,6478.0,4534.0,7691.0,2782.0,262.0,1049.0,6404.0,4188.0,8365.0,3037.0,262.0,1013.0,5228.0,3927.0,6066.0,1504.0
158,CITY HALL,40.7135245,-74.00671009999998,53.0,470.0,1148.0,1162.0,375.0,111.0,47.0,452.0,1012.0,1066.0,392.0,76.0,202.0,2509.0,1850.0,3742.0,1007.0,127.0,227.0,2788.0,2218.0,4404.0,1263.0,123.0,222.0,2691.0,2300.0,4182.0,1313.0,145.0,219.0,2746.0,2365.0,4360.0,1307.0,176.0,201.0,2528.0,2325.0,4151.0,1027.0
159,182-183 STS,40.8560934,-73.90102949999998,400.0,919.0,919.0,989.0,652.0,279.0,307.0,747.0,906.0,874.0,571.0,222.0,934.0,2029.0,1120.0,1389.0,640.0,212.0,948.0,2124.0,1141.0,1516.0,700.0,262.0,979.0,2172.0,1197.0,1481.0,695.0,281.0,894.0,2189.0,1170.0,1426.0,724.0,271.0,907.0,2152.0,1277.0,1526.0,743.0
160,PRESIDENT ST,40.668158500000004,-73.95065859999998,131.0,566.0,814.0,1030.0,657.0,277.0,108.0,514.0,786.0,945.0,578.0,208.0,385.0,3147.0,1504.0,2761.0,1346.0,235.0,369.0,3239.0,1532.0,2558.0,1439.0,237.0,398.0,2962.0,1612.0,2680.0,1567.0,283.0,428.0,3186.0,1499.0,2906.0,1775.0,338.0,384.0,3017.0,1606.0,2660.0,1316.0
161,77 ST,40.7736346,-73.95982939999998,167.0,802.0,1030.0,931.0,569.0,170.0,104.0,575.0,718.0,780.0,391.0,103.0,762.0,3228.0,1090.0,1784.0,723.0,104.0,797.0,3450.0,1177.0,1891.0,888.0,131.0,753.0,3507.0,1191.0,1861.0,853.0,150.0,813.0,3453.0,1260.0,1962.0,972.0,170.0,691.0,3201.0,1212.0,1843.0,752.0
162,GUN HILL RD,40.87773920000001,-73.86630459999998,238.0,597.0,598.0,534.0,344.0,104.0,156.0,469.0,503.0,464.0,301.0,95.0,1371.0,2699.0,1079.0,1324.0,521.0,129.0,,,1157.0,1207.0,596.0,124.0,1459.0,2813.0,1209.0,,,171.0,1428.0,2796.0,1174.0,1306.0,640.0,131.0,1381.0,2646.0,1283.0,1276.0,556.0
163,79 ST,40.783934,-73.979917,273.0,1179.0,802.0,665.0,364.0,121.0,167.0,856.0,804.0,653.0,456.0,91.0,976.0,3898.0,1260.0,1461.0,607.0,117.0,1081.0,3877.0,1346.0,1531.0,683.0,120.0,1012.0,3969.0,1340.0,1368.0,694.0,128.0,1039.0,3943.0,1364.0,1618.0,771.0,133.0,978.0,3734.0,1373.0,1589.0,653.0
164,190 ST,40.858887700000004,-73.93422159999999,82.0,630.0,1130.0,802.0,329.0,115.0,82.0,572.0,1152.0,832.0,344.0,81.0,417.0,2642.0,790.0,1347.0,459.0,76.0,439.0,2787.0,912.0,1419.0,566.0,92.0,446.0,2882.0,1027.0,1290.0,657.0,102.0,449.0,2931.0,902.0,1478.0,563.0,117.0,382.0,2670.0,995.0,1473.0,572.0
165,20 AV,40.617271,-73.9847709,189.0,805.0,819.0,870.0,413.0,98.0,96.0,525.0,725.0,804.0,392.0,50.0,813.0,2538.0,943.0,1307.0,641.0,90.0,835.0,2529.0,965.0,1375.0,770.0,89.0,849.0,2564.0,968.0,1397.0,704.0,82.0,882.0,2612.0,986.0,1470.0,709.0,114.0,854.0,2569.0,983.0,1464.0,705.0
166,25 ST,40.6604039,-73.99810550000001,120.0,414.0,590.0,660.0,373.0,216.0,97.0,360.0,506.0,575.0,356.0,164.0,452.0,2227.0,1114.0,1911.0,714.0,265.0,468.0,2375.0,1036.0,1883.0,997.0,287.0,463.0,2432.0,1120.0,1916.0,973.0,297.0,491.0,2344.0,1146.0,1931.0,1073.0,359.0,435.0,2377.0,546.0,860.0,913.0
167,BRIARWOOD,40.7093666,-73.81988539999998,247.0,1082.0,1257.0,1489.0,819.0,264.0,202.0,816.0,1071.0,1171.0,678.0,175.0,819.0,2846.0,1315.0,1944.0,961.0,200.0,826.0,3090.0,1330.0,1969.0,1053.0,216.0,855.0,3045.0,1372.0,1986.0,1004.0,250.0,814.0,2976.0,1341.0,2071.0,1065.0,201.0,777.0,2888.0,1489.0,1850.0,1001.0
168,AQUEDUCT RACETR,40.6721498,-73.8356843,144.0,68.0,394.0,911.0,434.0,226.0,123.0,67.0,367.0,848.0,510.0,141.0,149.0,202.0,340.0,436.0,293.0,101.0,120.0,191.0,385.0,520.0,305.0,117.0,123.0,209.0,372.0,590.0,396.0,135.0,138.0,297.0,373.0,700.0,396.0,165.0,153.0,195.0,450.0,726.0,516.0
169,PENNSYLVANIA AV,40.6646911,-73.8941747,219.0,671.0,831.0,902.0,506.0,229.0,168.0,515.0,760.0,782.0,510.0,188.0,748.0,2350.0,1212.0,1762.0,710.0,203.0,753.0,2461.0,1248.0,1953.0,821.0,228.0,798.0,2414.0,1297.0,1959.0,777.0,208.0,780.0,2415.0,1215.0,1956.0,977.0,198.0,712.0,2382.0,1557.0,1884.0,794.0
170,AVENUE M,40.6180725,-73.9593745,108.0,560.0,539.0,499.0,331.0,105.0,71.0,577.0,722.0,656.0,408.0,79.0,560.0,3517.0,1732.0,2393.0,775.0,88.0,567.0,3607.0,1710.0,2550.0,826.0,109.0,547.0,3599.0,1620.0,2557.0,809.0,107.0,566.0,3620.0,1654.0,2576.0,896.0,138.0,568.0,3498.0,2136.0,1981.0,515.0
171,OCEAN PKWY,40.5762935,-73.9684997,105.0,576.0,766.0,736.0,307.0,122.0,97.0,522.0,741.0,764.0,368.0,83.0,364.0,1520.0,940.0,1203.0,522.0,90.0,387.0,1603.0,1011.0,1351.0,596.0,104.0,390.0,1530.0,999.0,1259.0,563.0,89.0,351.0,1538.0,987.0,1321.0,656.0,98.0,352.0,1497.0,1081.0,1211.0,425.0
172,AVENUE H,40.6297445,-73.96166170000001,78.0,325.0,426.0,518.0,373.0,129.0,65.0,285.0,380.0,576.0,411.0,120.0,339.0,2253.0,1360.0,2023.0,990.0,147.0,339.0,2320.0,1363.0,2273.0,1212.0,178.0,362.0,2364.0,1460.0,2306.0,1074.0,187.0,364.0,2277.0,1366.0,2192.0,1078.0,225.0,335.0,1840.0,1330.0,1526.0,790.0
173,JUNIUS ST,40.67504,-73.904496,128.0,482.0,604.0,723.0,446.0,169.0,93.0,411.0,524.0,689.0,438.0,142.0,374.0,1393.0,798.0,1449.0,558.0,166.0,360.0,1481.0,739.0,1602.0,716.0,170.0,362.0,1473.0,835.0,1579.0,621.0,185.0,364.0,1501.0,801.0,1554.0,706.0,198.0,355.0,,,,
174,NECK RD,40.595153100000005,-73.9550266,181.0,770.0,765.0,683.0,402.0,141.0,138.0,670.0,719.0,610.0,297.0,91.0,610.0,2621.0,797.0,1442.0,612.0,67.0,600.0,2757.0,831.0,1405.0,794.0,85.0,626.0,2635.0,775.0,1485.0,677.0,101.0,632.0,2754.0,859.0,1425.0,667.0,115.0,606.0,2565.0,848.0,1405.0,568.0
175,VAN SICLEN AV,40.67274219999999,-73.8903155,197.0,573.0,647.0,842.0,486.0,263.0,154.0,456.0,665.0,717.0,497.0,210.0,645.0,1839.0,916.0,1743.0,759.0,248.0,700.0,1879.0,937.0,1732.0,982.0,270.0,660.0,1842.0,920.0,1731.0,954.0,281.0,652.0,1853.0,905.0,1668.0,1015.0,276.0,621.0,1732.0,1125.0,1682.0,881.0
176,138/GRAND CONC,40.8132249,-73.9298111,181.0,350.0,327.0,404.0,210.0,84.0,186.0,190.0,272.0,280.0,208.0,76.0,697.0,1579.0,1066.0,1621.0,499.0,141.0,718.0,1669.0,1119.0,1844.0,618.0,161.0,709.0,1748.0,1111.0,1784.0,599.0,179.0,685.0,1729.0,1085.0,1924.0,678.0,164.0,574.0,1667.0,1145.0,1767.0,659.0
177,BEVERLY RD,40.8322067,-73.3848891,225.0,674.0,754.0,701.0,353.0,135.0,173.0,560.0,665.0,562.0,354.0,104.0,738.0,2194.0,860.0,896.0,439.0,192.0,742.0,2320.0,854.0,919.0,434.0,185.0,757.0,2410.0,891.0,965.0,453.0,108.0,743.0,2365.0,892.0,993.0,482.0,131.0,694.0,2212.0,1027.0,956.0,547.0
178,75 AV,40.718331,-73.837324,54.0,459.0,600.0,579.0,302.0,84.0,47.0,386.0,582.0,449.0,235.0,65.0,262.0,1975.0,739.0,928.0,421.0,62.0,281.0,2109.0,737.0,997.0,451.0,70.0,293.0,2131.0,815.0,947.0,493.0,69.0,303.0,2050.0,757.0,1020.0,487.0,87.0,257.0,1953.0,826.0,964.0,484.0
179,BUSHWICK AV,40.7002958,-73.94116439999998,75.0,354.0,562.0,595.0,399.0,164.0,95.0,361.0,527.0,589.0,410.0,146.0,279.0,1053.0,544.0,843.0,537.0,37.0,247.0,1185.0,604.0,942.0,693.0,33.0,261.0,1163.0,576.0,1023.0,689.0,61.0,226.0,1197.0,654.0,1034.0,604.0,52.0,239.0,1110.0,687.0,970.0,663.0
180,BEACH 67 ST,40.5909714,-73.79631690000001,198.0,379.0,558.0,505.0,363.0,167.0,180.0,381.0,536.0,455.0,346.0,147.0,615.0,1083.0,597.0,886.0,448.0,164.0,606.0,1063.0,588.0,975.0,506.0,179.0,590.0,1073.0,631.0,942.0,478.0,173.0,591.0,1075.0,620.0,1057.0,553.0,190.0,566.0,1020.0,709.0,918.0,509.0
181,WHITLOCK AV,40.82674420000001,-73.88634559999998,199.0,436.0,515.0,609.0,412.0,218.0,143.0,364.0,403.0,542.0,409.0,185.0,419.0,1234.0,640.0,1179.0,479.0,223.0,418.0,1231.0,653.0,1230.0,542.0,199.0,433.0,1272.0,628.0,1217.0,495.0,225.0,446.0,1273.0,586.0,1284.0,600.0,249.0,409.0,1246.0,831.0,1130.0,504.0
182,W 8 ST-AQUARIUM,40.57612779999999,-73.97596539999998,49.0,318.0,562.0,425.0,188.0,44.0,34.0,335.0,507.0,393.0,149.0,39.0,244.0,1138.0,814.0,720.0,263.0,42.0,245.0,1206.0,872.0,847.0,275.0,49.0,221.0,1187.0,869.0,225.0,57.0,42.0,226.0,1145.0,894.0,979.0,281.0,59.0,216.0,1130.0,851.0,791.0,266.0
183,PARK PLACE,40.7132422,-74.0092559,44.0,210.0,551.0,648.0,184.0,75.0,48.0,220.0,590.0,552.0,210.0,44.0,171.0,1963.0,1002.0,2392.0,634.0,62.0,203.0,1981.0,1155.0,2458.0,677.0,61.0,196.0,2018.0,1208.0,2467.0,783.0,84.0,200.0,1972.0,1180.0,2553.0,689.0,67.0,178.0,1864.0,1196.0,2259.0,618.0
184,215 ST,40.8695946,-73.9153019,52.0,234.0,300.0,328.0,172.0,61.0,34.0,174.0,302.0,288.0,137.0,44.0,146.0,663.0,533.0,816.0,284.0,54.0,141.0,754.0,521.0,698.0,325.0,78.0,134.0,766.0,549.0,712.0,322.0,78.0,134.0,724.0,551.0,755.0,337.0,89.0,144.0,755.0,596.0,690.0,291.0
185,HOWARD BCH JFK,40.660476,-73.83030099999998,161.0,387.0,566.0,657.0,495.0,241.0,206.0,410.0,625.0,700.0,661.0,227.0,395.0,882.0,492.0,734.0,502.0,263.0,428.0,747.0,604.0,761.0,473.0,243.0,423.0,749.0,479.0,701.0,478.0,200.0,414.0,694.0,505.0,749.0,453.0,233.0,395.0,650.0,547.0,767.0,499.0
186,BEACH 25 ST,40.59946790000001,-73.7618536,162.0,335.0,383.0,434.0,350.0,219.0,131.0,286.0,313.0,398.0,362.0,127.0,560.0,1171.0,606.0,1101.0,544.0,181.0,562.0,1183.0,572.0,1136.0,643.0,208.0,562.0,1189.0,616.0,1211.0,700.0,201.0,561.0,1184.0,571.0,1187.0,668.0,200.0,513.0,1120.0,722.0,984.0,601.0
187,BEACH 60 ST,40.59244,-73.78928300000003,201.0,372.0,445.0,436.0,346.0,197.0,166.0,306.0,435.0,427.0,308.0,152.0,607.0,999.0,585.0,929.0,438.0,136.0,596.0,1004.0,665.0,956.0,483.0,165.0,621.0,997.0,611.0,968.0,501.0,160.0,616.0,1033.0,576.0,943.0,534.0,201.0,570.0,956.0,648.0,929.0,485.0
188,ATLANTIC AV,40.675554,-73.90305759999998,64.0,215.0,277.0,303.0,193.0,78.0,61.0,214.0,237.0,293.0,224.0,58.0,283.0,1020.0,434.0,815.0,268.0,42.0,288.0,1015.0,441.0,875.0,318.0,54.0,295.0,1016.0,401.0,856.0,302.0,46.0,258.0,974.0,428.0,885.0,322.0,51.0,282.0,1041.0,518.0,832.0,329.0
189,BEACH 36 ST,40.595532,-73.7681238,88.0,186.0,190.0,253.0,178.0,100.0,71.0,155.0,219.0,226.0,183.0,73.0,268.0,451.0,285.0,513.0,277.0,77.0,261.0,533.0,333.0,557.0,341.0,100.0,267.0,515.0,285.0,545.0,313.0,85.0,299.0,497.0,283.0,600.0,330.0,92.0,261.0,464.0,341.0,521.0,328.0
190,55 ST,40.6315514,-73.9956328,53.0,240.0,225.0,239.0,176.0,67.0,52.0,347.0,443.0,463.0,241.0,67.0,185.0,1068.0,719.0,1136.0,293.0,52.0,181.0,1096.0,722.0,1172.0,378.0,83.0,202.0,1068.0,488.0,764.0,384.0,58.0,206.0,1100.0,793.0,1162.0,395.0,75.0,217.0,985.0,735.0,915.0,198.0
191,104 ST,40.695145600000004,-73.8443046,212.0,165.0,424.0,348.0,222.0,73.0,120.0,363.0,297.0,304.0,162.0,42.0,838.0,1478.0,576.0,772.0,283.0,74.0,876.0,1621.0,605.0,821.0,365.0,63.0,888.0,1618.0,603.0,818.0,328.0,58.0,895.0,1584.0,659.0,782.0,402.0,74.0,812.0,1500.0,603.0,745.0,332.0
192,BEACH 44 ST,40.592920899999996,-73.77594839999998,73.0,129.0,169.0,205.0,133.0,82.0,75.0,148.0,182.0,174.0,180.0,65.0,244.0,374.0,195.0,470.0,207.0,78.0,217.0,425.0,236.0,446.0,228.0,79.0,262.0,367.0,221.0,457.0,231.0,102.0,238.0,379.0,191.0,437.0,253.0,83.0,218.0,412.0,248.0,453.0,201.0
193,WORLD TRADE CTR,40.712645200000004,-74.00989799999998,404.0,2771.0,5691.0,5858.0,2497.0,695.0,286.0,2005.0,4409.0,4610.0,2229.0,437.0,1336.0,9156.0,4928.0,12037.0,3418.0,504.0,1382.0,10014.0,5017.0,12898.0,4230.0,711.0,1228.0,10295.0,5238.0,12722.0,4155.0,597.0,1296.0,10448.0,5715.0,13467.0,4366.0,878.0,1355.0,9684.0,6563.0,12948.0,4320.0
194,NASSAU AV,40.7238944,-73.9506777,206.0,994.0,1869.0,2168.0,1114.0,444.0,124.0,742.0,1685.0,1890.0,1056.0,245.0,716.0,4777.0,1951.0,4392.0,1976.0,318.0,775.0,5178.0,2114.0,4618.0,2369.0,417.0,770.0,5446.0,2158.0,4672.0,2437.0,667.0,728.0,5410.0,2136.0,4636.0,2489.0,625.0,735.0,4992.0,2510.0,4511.0,2926.0
195,39 AV,40.752689700000005,-73.9328056,,,,,,,,,,,,,,,,,,,,,,,,,,,,,,,,,,,,,,,,,
196,36 AV,40.7668516,-73.921313,358.0,1525.0,2463.0,3051.0,1860.0,690.0,254.0,1276.0,2255.0,2752.0,1549.0,486.0,1055.0,6355.0,2639.0,5925.0,3025.0,792.0,1136.0,6768.0,2813.0,6382.0,3699.0,825.0,1164.0,6684.0,2274.0,6606.0,3573.0,881.0,1135.0,6853.0,2898.0,6509.0,3315.0,986.0,1008.0,6279.0,2556.0,5154.0,3012.0
197,BROADWAY,40.7623472,-73.9256595,,,,,,,,,,,,,,,,,,,,,,,,,,,,,,,,,,,,,,,,,
198,COURT SQ-23 ST,40.748050799999994,-73.94704779999998,235.0,1109.0,1458.0,1493.0,680.0,237.0,149.0,1070.0,1543.0,1346.0,657.0,161.0,547.0,2903.0,1465.0,2812.0,863.0,202.0,631.0,3066.0,1456.0,3150.0,1003.0,213.0,596.0,3029.0,1380.0,3053.0,998.0,240.0,559.0,3089.0,1542.0,3401.0,1108.0,205.0,540.0,3026.0,1798.0,2971.0,949.0
199,ASTORIA DITMARS,40.7750119,-73.91211,533.0,2291.0,3430.0,3822.0,2374.0,882.0,419.0,1861.0,3164.0,3238.0,2181.0,611.0,1696.0,8923.0,3465.0,6454.0,3699.0,842.0,1835.0,9761.0,3696.0,7055.0,4540.0,986.0,1817.0,9409.0,3662.0,7274.0,4676.0,1138.0,1834.0,9770.0,,,4130.0,1201.0,1625.0,9315.0,3958.0,5884.0,4009.0
200,CYPRESS HILLS,40.68994860000001,-73.87257310000003,73.0,193.0,233.0,263.0,151.0,49.0,61.0,174.0,240.0,215.0,136.0,47.0,333.0,796.0,351.0,582.0,203.0,56.0,346.0,818.0,387.0,665.0,234.0,69.0,340.0,829.0,388.0,632.0,218.0,50.0,340.0,848.0,364.0,716.0,270.0,52.0,364.0,776.0,488.0,608.0,267.0
201,30 AV,40.7668516,-73.921313,483.0,2275.0,3840.0,4496.0,2886.0,1102.0,376.0,1912.0,3705.0,4178.0,2530.0,758.0,1619.0,10316.0,3931.0,8609.0,5129.0,1165.0,1729.0,11108.0,4109.0,8738.0,5966.0,1291.0,1723.0,11003.0,3218.0,8967.0,6233.0,1331.0,1689.0,11008.0,4137.0,9363.0,5025.0,1545.0,1548.0,10235.0,3624.0,7034.0,5073.0
202,121 ST,40.7006094,-73.8281286,130.0,272.0,336.0,395.0,257.0,106.0,105.0,210.0,271.0,363.0,196.0,92.0,339.0,839.0,471.0,927.0,369.0,120.0,363.0,884.0,626.0,975.0,434.0,116.0,357.0,838.0,552.0,990.0,446.0,126.0,356.0,912.0,503.0,1022.0,448.0,144.0,334.0,889.0,584.0,1021.0,400.0
203,75 ST-ELDERTS,40.69143649999999,-73.8665512,220.0,692.0,578.0,635.0,444.0,134.0,168.0,565.0,503.0,620.0,304.0,136.0,872.0,2124.0,813.0,1579.0,640.0,144.0,869.0,2152.0,919.0,1800.0,708.0,169.0,888.0,2240.0,986.0,1714.0,745.0,142.0,895.0,2151.0,816.0,1760.0,843.0,176.0,814.0,2139.0,1214.0,1376.0,702.0
204,AVENUE X,40.589682200000006,-73.9742509,0.0,1.0,2.0,0.0,0.0,0.0,0.0,1.0,0.0,0.0,0.0,0.0,434.0,1595.0,745.0,1166.0,714.0,105.0,540.0,1653.0,832.0,1327.0,689.0,115.0,502.0,1728.0,756.0,1368.0,697.0,124.0,502.0,1598.0,724.0,1336.0,738.0,107.0,452.0,1590.0,749.0,1205.0,470.0
205,AVENUE P,40.6087814,-73.97290840000001,0.0,0.0,0.0,0.0,1.0,0.0,0.0,0.0,0.0,0.0,1.0,1.0,327.0,1435.0,504.0,839.0,367.0,60.0,364.0,1443.0,448.0,804.0,364.0,77.0,364.0,1412.0,436.0,833.0,377.0,56.0,368.0,1440.0,435.0,811.0,397.0,71.0,340.0,1408.0,475.0,752.0,257.0
206,85 ST-FOREST PK,40.6924861,-73.8590708,219.0,662.0,673.0,578.0,332.0,146.0,145.0,521.0,567.0,558.0,266.0,108.0,893.0,1891.0,874.0,1263.0,669.0,154.0,914.0,1953.0,914.0,1449.0,667.0,148.0,910.0,1950.0,887.0,1441.0,712.0,152.0,971.0,1953.0,856.0,1415.0,743.0,146.0,848.0,1931.0,1022.0,1293.0,642.0
207,WOODHAVEN BLVD,40.6939097,-73.85139269999998,273.0,700.0,866.0,949.0,500.0,165.0,185.0,584.0,679.0,750.0,462.0,166.0,922.0,2485.0,1094.0,1790.0,734.0,170.0,925.0,2530.0,1205.0,2060.0,777.0,192.0,915.0,2593.0,1049.0,1949.0,744.0,182.0,929.0,2679.0,1098.0,2002.0,791.0,208.0,892.0,2576.0,1387.0,1834.0,844.0
208,METROPOLITAN AV,40.712132700000005,-73.889276,42.0,45.0,69.0,58.0,48.0,19.0,35.0,61.0,65.0,54.0,36.0,29.0,757.0,2205.0,1079.0,2103.0,758.0,159.0,816.0,2236.0,1121.0,2516.0,827.0,150.0,800.0,2266.0,1268.0,2486.0,826.0,160.0,802.0,2247.0,1083.0,2545.0,856.0,146.0,723.0,2161.0,1215.0,2493.0,815.0
209,GREENPOINT AV,40.7301618,-73.9540458,226.0,1166.0,2004.0,2345.0,1442.0,514.0,184.0,1033.0,1936.0,2163.0,1209.0,266.0,904.0,5393.0,2465.0,5176.0,2484.0,324.0,896.0,5915.0,2710.0,5689.0,2874.0,360.0,902.0,5932.0,2676.0,5775.0,2906.0,409.0,964.0,5946.0,2758.0,5799.0,3253.0,530.0,891.0,5702.0,3061.0,5945.0,2706.0
