,StationName,Latitude,Longitude,2018-11-10 03:00:00,2018-11-10 07:00:00,2018-11-10 11:00:00,2018-11-10 15:00:00,2018-11-10 19:00:00,2018-11-10 23:00:00,2018-11-11 03:00:00,2018-11-11 07:00:00,2018-11-11 11:00:00,2018-11-11 15:00:00,2018-11-11 19:00:00,2018-11-11 23:00:00,2018-11-12 03:00:00,2018-11-12 07:00:00,2018-11-12 11:00:00,2018-11-12 15:00:00,2018-11-12 19:00:00,2018-11-12 23:00:00,2018-11-13 03:00:00,2018-11-13 07:00:00,2018-11-13 11:00:00,2018-11-13 15:00:00,2018-11-13 19:00:00,2018-11-13 23:00:00,2018-11-14 03:00:00,2018-11-14 07:00:00,2018-11-14 11:00:00,2018-11-14 15:00:00,2018-11-14 19:00:00,2018-11-14 23:00:00,2018-11-15 03:00:00,2018-11-15 07:00:00,2018-11-15 11:00:00,2018-11-15 15:00:00,2018-11-15 19:00:00,2018-11-15 23:00:00,2018-11-16 03:00:00,2018-11-16 07:00:00,2018-11-16 11:00:00,2018-11-16 15:00:00,2018-11-16 19:00:00
0,34 ST-HERALD SQ,40.748897899999996,-73.98878859999998,3085.0,18163.0,36245.0,48666.0,29461.0,9209.0,2420.0,14241.0,31832.0,41765.0,22912.0,4207.0,6092.0,59118.0,42825.0,61116.0,24157.0,4559.0,7280.0,69029.0,39887.0,86137.0,36785.0,5130.0,7704.0,68828.0,43689.0,91138.0,40306.0,5630.0,7435.0,67139.0,42998.0,90526.0,40875.0,6946.0,7003.0,60758.0,44861.0,88177.0,41222.0
1,TIMES SQ-42 ST,40.7545563,-73.98667370000001,2930.0,15305.0,30560.0,43962.0,31938.0,11644.0,2256.0,10856.0,26083.0,35735.0,21423.0,5956.0,5673.0,44260.0,29529.0,60636.0,27946.0,5209.0,6050.0,51884.0,29354.0,68218.0,33926.0,6388.0,6617.0,52115.0,34059.0,70381.0,34851.0,6706.0,6437.0,51443.0,32584.0,66746.0,35567.0,7959.0,5293.0,44165.0,32588.0,64817.0,34967.0
2,34 ST-PENN STA,40.751056,-73.99031020000001,3953.0,18742.0,31340.0,39092.0,23677.0,7468.0,2524.0,14399.0,28644.0,36016.0,21126.0,3813.0,8151.0,61409.0,33391.0,72913.0,27365.0,4076.0,11859.0,76188.0,32984.0,81900.0,30164.0,4371.0,12133.0,74547.0,35912.0,85143.0,33297.0,5126.0,11371.0,71713.0,38093.0,93678.0,39980.0,7105.0,11165.0,62574.0,37560.0,78196.0,30976.0
3,59 ST COLUMBUS,40.7684839,-73.98180699999999,1930.0,13627.0,25212.0,30640.0,15751.0,5380.0,1436.0,9745.0,22353.0,25997.0,10800.0,2510.0,3504.0,30476.0,26939.0,44618.0,20392.0,3377.0,4529.0,37521.0,26725.0,46943.0,23595.0,3756.0,5020.0,37388.0,29239.0,48975.0,23169.0,3936.0,4594.0,37233.0,29442.0,50147.0,24859.0,5375.0,4362.0,31912.0,26984.0,43258.0,21387.0
4,86 ST,40.7795016,-73.95557240000001,2600.0,16370.0,26486.0,32992.0,15609.0,4284.0,1865.0,11080.0,22289.0,24824.0,11218.0,2440.0,4395.0,29503.0,23228.0,37047.0,14991.0,1899.0,4945.0,35888.0,22901.0,40381.0,16322.0,2182.0,5449.0,36265.0,22809.0,42032.0,17230.0,2166.0,5150.0,36210.0,19846.0,35111.0,18882.0,2902.0,4779.0,34871.0,24752.0,40451.0,15855.0
5,GRD CNTRL-42 ST,40.75216470000001,-73.97715339999998,1738.0,11563.0,20453.0,24035.0,11857.0,3822.0,945.0,8364.0,17669.0,19030.0,9221.0,1632.0,5234.0,40471.0,22166.0,44768.0,16077.0,2286.0,6884.0,53143.0,23896.0,52938.0,19324.0,2768.0,6760.0,49682.0,24773.0,56239.0,20779.0,2918.0,6529.0,49570.0,26801.0,61964.0,25558.0,3618.0,5944.0,43997.0,25026.0,51791.0,18177.0
6,59 ST,40.6415685,-74.0176783,3234.0,16691.0,24835.0,28995.0,11394.0,3607.0,2066.0,11250.0,20960.0,22897.0,10108.0,2513.0,5444.0,32554.0,22662.0,40287.0,14983.0,2759.0,5861.0,38450.0,22604.0,43931.0,16880.0,3162.0,6271.0,6008.0,3035.0,22400.0,7554.0,1475.0,3839.0,20623.0,12324.0,22135.0,9143.0,1597.0,3432.0,19483.0,12276.0,21142.0,6849.0
7,FLUSHING-MAIN,40.75955820000001,-73.82992209999998,3217.0,15589.0,17115.0,20878.0,12642.0,3801.0,2066.0,10945.0,15099.0,16539.0,10300.0,2655.0,6887.0,25529.0,17188.0,26868.0,15414.0,3077.0,8079.0,29862.0,16249.0,29974.0,16617.0,2892.0,8467.0,30546.0,16901.0,28836.0,18031.0,3160.0,8591.0,30050.0,15270.0,27534.0,15744.0,3302.0,7663.0,28336.0,15561.0,29534.0,16743.0
8,ATL AV-BARCLAY,40.6837598,-73.97875739999998,1513.0,8376.0,16393.0,21068.0,11601.0,3733.0,1030.0,6148.0,13429.0,16372.0,8839.0,1936.0,2143.0,15659.0,12506.0,21658.0,9971.0,1754.0,3003.0,25195.0,12808.0,31180.0,14554.0,1890.0,3076.0,25326.0,14038.0,32961.0,19374.0,2175.0,3196.0,24739.0,14000.0,32721.0,17112.0,2407.0,2879.0,22361.0,15461.0,30374.0,14299.0
9,23 ST,40.7413626,-73.9891335,826.0,7100.0,15164.0,18633.0,9786.0,3455.0,700.0,5267.0,12330.0,13981.0,6585.0,1605.0,1490.0,19581.0,15144.0,29817.0,14112.0,2266.0,2102.0,24565.0,16159.0,34718.0,16558.0,2291.0,2137.0,24402.0,17248.0,35992.0,17459.0,2755.0,1992.0,23643.0,17872.0,37050.0,19650.0,3238.0,1983.0,21711.0,16448.0,32848.0,14555.0
10,42 ST-PORT AUTH,40.7578346,-73.99146259999998,2422.0,13659.0,16377.0,18989.0,12576.0,3452.0,1403.0,9936.0,14303.0,16497.0,10781.0,2137.0,7367.0,33924.0,15223.0,31716.0,15046.0,2451.0,9245.0,46283.0,16662.0,36214.0,16843.0,2372.0,9852.0,39383.0,16759.0,37034.0,17909.0,2608.0,9478.0,40276.0,17851.0,50513.0,23130.0,3949.0,7040.0,31075.0,16409.0,31466.0,17168.0
11,14 ST,40.73747540000001,-73.9970975,1379.0,7811.0,19044.0,23803.0,13893.0,4926.0,1140.0,5798.0,16609.0,19235.0,8752.0,1955.0,1653.0,19376.0,15458.0,27990.0,12754.0,1310.0,1717.0,22480.0,15089.0,30432.0,15820.0,2401.0,2171.0,22658.0,16065.0,31406.0,16125.0,2465.0,2088.0,22399.0,15689.0,29445.0,15616.0,2837.0,1965.0,20200.0,16056.0,30021.0,15408.0
12,JKSN HT-ROOSVLT,40.746739,-73.89099859999999,4026.0,14631.0,16607.0,19290.0,10631.0,4855.0,2906.0,10848.0,13743.0,14945.0,9127.0,3318.0,5743.0,19736.0,14936.0,22858.0,12539.0,4049.0,6444.0,23834.0,14189.0,24938.0,13381.0,4476.0,6686.0,24498.0,14895.0,25417.0,13497.0,4433.0,6847.0,24137.0,14404.0,23604.0,12583.0,5146.0,6258.0,23398.0,14871.0,25881.0,13967.0
13,BEDFORD AV,40.717354,-73.956972,6.0,12.0,8.0,109.0,48.0,17.0,17.0,37.0,22.0,17.0,15.0,4.0,1272.0,12114.0,8288.0,16286.0,10143.0,308.0,1469.0,14812.0,7807.0,17257.0,11268.0,339.0,1617.0,15295.0,8611.0,17619.0,11631.0,395.0,1547.0,15203.0,8338.0,15491.0,10893.0,530.0,1352.0,14058.0,9645.0,18255.0,12622.0
14,47-50 STS ROCK,40.75885,-73.98118610000002,1540.0,7716.0,14240.0,20107.0,11427.0,3301.0,1040.0,6004.0,13307.0,16389.0,7544.0,1716.0,3256.0,37761.0,18899.0,41284.0,12339.0,2088.0,4419.0,46853.0,18708.0,45095.0,14680.0,2498.0,4608.0,45511.0,19934.0,47554.0,15632.0,2537.0,4500.0,44989.0,22149.0,53638.0,19038.0,3150.0,4357.0,41955.0,21904.0,44728.0,15090.0
15,34 ST-HUDSON YD,40.7549713,-74.0010084,755.0,2066.0,3762.0,3955.0,1323.0,477.0,389.0,1732.0,3461.0,3797.0,1281.0,278.0,2246.0,6158.0,4550.0,7646.0,1830.0,402.0,2739.0,6590.0,3419.0,7411.0,2054.0,379.0,2766.0,6503.0,4274.0,8261.0,2291.0,508.0,2758.0,6366.0,4146.0,8849.0,3191.0,556.0,2515.0,6973.0,6585.0,9733.0,4502.0
16,CHAMBERS ST,40.7155134,-74.00922270000001,1043.0,8525.0,15106.0,14984.0,6741.0,2370.0,723.0,5993.0,12410.0,11338.0,4910.0,1112.0,2156.0,19808.0,16912.0,27071.0,11385.0,1456.0,3241.0,34299.0,23361.0,44346.0,14716.0,1783.0,3429.0,34942.0,24523.0,44039.0,15154.0,1929.0,3437.0,33817.0,23671.0,42996.0,14810.0,2237.0,2893.0,29090.0,21926.0,38682.0,11553.0
17,125 ST,40.8043863,-73.9374292,1822.0,9049.0,13754.0,16040.0,9719.0,3679.0,1453.0,6882.0,12349.0,13384.0,7314.0,2107.0,2700.0,14253.0,11604.0,17921.0,9557.0,2077.0,3272.0,18814.0,12276.0,21581.0,10634.0,2255.0,3399.0,19537.0,13318.0,22195.0,11517.0,2438.0,3187.0,18981.0,12827.0,21265.0,13844.0,3868.0,3187.0,18871.0,13656.0,21698.0,11570.0
18,57 ST-7 AV,40.765564000000005,-73.9803309,772.0,4895.0,7913.0,11355.0,6406.0,2474.0,569.0,3524.0,3775.0,5097.0,4442.0,1264.0,1772.0,15382.0,10727.0,21797.0,10114.0,1955.0,2184.0,17659.0,10763.0,23942.0,12543.0,2203.0,2250.0,17373.0,11601.0,24543.0,12491.0,2255.0,2175.0,17450.0,,5261.0,10347.0,2874.0,2039.0,16504.0,10896.0,22701.0,11468.0
19,GRAND ST,40.7182003,-73.9935756,593.0,6078.0,9576.0,11299.0,6284.0,1730.0,535.0,5130.0,8219.0,9532.0,4632.0,736.0,1607.0,11739.0,10848.0,14312.0,6651.0,692.0,1808.0,14782.0,9993.0,16670.0,7757.0,931.0,1881.0,15584.0,11126.0,17162.0,7823.0,938.0,1706.0,14956.0,9878.0,14807.0,7553.0,1121.0,1747.0,14285.0,10948.0,17742.0,8960.0
20,145 ST,40.8240532,-73.94476230000001,1994.0,8819.0,11906.0,13516.0,8826.0,3622.0,1476.0,6752.0,9995.0,11174.0,6881.0,2467.0,2961.0,14884.0,11106.0,17513.0,9954.0,2129.0,3435.0,18132.0,11061.0,19901.0,11027.0,2324.0,3547.0,19116.0,11929.0,20186.0,11204.0,2491.0,3366.0,18523.0,11348.0,20064.0,13134.0,4320.0,3391.0,17550.0,11502.0,18471.0,10651.0
21,42 ST-BRYANT PK,40.75483679999999,-73.9841215,1082.0,5798.0,12216.0,16131.0,9455.0,3212.0,747.0,4188.0,10390.0,13192.0,6653.0,1694.0,1801.0,21426.0,13340.0,28250.0,10881.0,1623.0,2382.0,25507.0,13173.0,31346.0,12888.0,1929.0,2510.0,26457.0,14084.0,30558.0,12315.0,1943.0,2578.0,25466.0,14589.0,32722.0,12741.0,2195.0,2270.0,23689.0,13977.0,30147.0,12046.0
22,2 AV,40.723412700000004,-73.9902885,706.0,3237.0,6726.0,9187.0,7791.0,3456.0,731.0,2644.0,6126.0,7490.0,4562.0,1093.0,593.0,6561.0,4927.0,8731.0,5688.0,1078.0,1000.0,8765.0,5039.0,9908.0,6621.0,1357.0,1005.0,8776.0,5291.0,10855.0,7389.0,1434.0,1009.0,8740.0,5659.0,10967.0,7854.0,1754.0,1023.0,8478.0,6006.0,11207.0,8525.0
23,50 ST,40.7620363,-73.98632909999998,1401.0,7493.0,11597.0,14541.0,10991.0,4716.0,1194.0,6181.0,11013.0,13242.0,7640.0,1912.0,2500.0,21566.0,13723.0,26027.0,12140.0,2477.0,3345.0,27516.0,14498.0,32523.0,15845.0,3040.0,3423.0,27203.0,16104.0,32734.0,16119.0,3143.0,3294.0,26324.0,15632.0,35114.0,19475.0,4286.0,3352.0,24935.0,16065.0,31482.0,15296.0
24,CHURCH AV,40.6495233,-73.96328390000001,1359.0,5012.0,5741.0,6127.0,3381.0,1419.0,972.0,3781.0,4414.0,4887.0,2836.0,1057.0,2799.0,12266.0,7711.0,12115.0,6955.0,1390.0,3453.0,16105.0,7595.0,14470.0,7582.0,1660.0,3658.0,16375.0,8226.0,14983.0,7691.0,1667.0,3514.0,16124.0,8045.0,13704.0,7277.0,1721.0,3347.0,15317.0,8251.0,14010.0,6958.0
25,PRINCE ST,40.7242353,-73.99780600000001,289.0,2543.0,8639.0,12621.0,4949.0,1172.0,209.0,1753.0,7250.0,9528.0,2996.0,393.0,345.0,5064.0,6374.0,10398.0,3862.0,424.0,413.0,5815.0,5304.0,10413.0,4578.0,574.0,453.0,5952.0,6359.0,11367.0,4640.0,569.0,417.0,5527.0,6346.0,10238.0,4908.0,660.0,408.0,5314.0,6680.0,12104.0,4945.0
26,SPRING ST,40.7257799,-74.00395209999998,384.0,2877.0,8528.0,10814.0,5616.0,1324.0,297.0,2136.0,6280.0,8147.0,3410.0,573.0,685.0,6918.0,7387.0,13889.0,6052.0,911.0,708.0,8257.0,7092.0,15381.0,7392.0,1019.0,769.0,8323.0,7680.0,16386.0,7812.0,1077.0,736.0,8314.0,8060.0,16713.0,9044.0,1359.0,685.0,7829.0,8378.0,16274.0,7183.0
27,LEXINGTON AV/63,40.764629,-73.96611299999998,784.0,4678.0,7659.0,8898.0,4152.0,1518.0,577.0,3166.0,6911.0,6996.0,3042.0,768.0,1145.0,13081.0,,,6254.0,1056.0,1948.0,14949.0,8658.0,15953.0,7275.0,1216.0,2017.0,14754.0,9016.0,16243.0,6847.0,1154.0,2120.0,14089.0,9310.0,15787.0,8398.0,1643.0,1927.0,14113.0,9026.0,14629.0,5457.0
28,NOSTRAND AV,40.6697362,-73.95050890000002,1068.0,5372.0,7134.0,7556.0,4999.0,1827.0,738.0,3705.0,5847.0,5990.0,3794.0,1080.0,1630.0,9547.0,5838.0,8893.0,5611.0,1240.0,1990.0,12227.0,5944.0,10186.0,6348.0,1321.0,2132.0,12802.0,6505.0,10701.0,6178.0,1366.0,1916.0,12315.0,6367.0,9657.0,5561.0,1300.0,1867.0,11682.0,6957.0,10544.0,6117.0
29,JAY ST-METROTEC,40.6922507,-73.9872792,814.0,5397.0,10266.0,11007.0,5471.0,1805.0,645.0,3953.0,8114.0,8589.0,3932.0,949.0,1235.0,11798.0,11883.0,16885.0,7524.0,1074.0,1926.0,19699.0,15638.0,27859.0,9930.0,1191.0,1996.0,19978.0,16911.0,28533.0,9898.0,1306.0,1804.0,19674.0,16163.0,27547.0,9307.0,1342.0,1755.0,17395.0,15443.0,23890.0,8045.0
30,1 AV,40.7312776,-73.9823439,5.0,18.0,23.0,30.0,13.0,39.0,5.0,6.0,20.0,1.0,0.0,12.0,1171.0,8634.0,6061.0,10636.0,6785.0,178.0,1656.0,12896.0,6815.0,13708.0,8092.0,155.0,1579.0,12467.0,7211.0,14501.0,8659.0,388.0,1642.0,12371.0,7657.0,15024.0,9972.0,565.0,1552.0,12508.0,7842.0,13971.0,9526.0
31,STEINWAY ST,40.756691700000005,-73.92064090000001,515.0,2532.0,3797.0,4340.0,2676.0,933.0,351.0,1512.0,2690.0,3056.0,2161.0,549.0,1058.0,6825.0,4713.0,7312.0,4057.0,551.0,1406.0,8314.0,4560.0,7892.0,4228.0,557.0,1434.0,8845.0,4916.0,8365.0,4227.0,599.0,1459.0,8626.0,4519.0,7637.0,4643.0,707.0,1388.0,8327.0,5035.0,8845.0,5012.0
32,JUNCTION BLVD,40.749203,-73.8693365,2522.0,6413.0,6331.0,7878.0,4128.0,2060.0,1446.0,4414.0,5308.0,6049.0,3264.0,1371.0,3751.0,7507.0,5025.0,11105.0,4725.0,1465.0,4251.0,10353.0,5248.0,12098.0,5030.0,1732.0,4657.0,10763.0,5536.0,12165.0,5412.0,1702.0,4514.0,10683.0,5327.0,10899.0,4748.0,1873.0,4244.0,10675.0,5520.0,12425.0,5413.0
33,DEKALB AV,40.68982020000001,-73.9811611,482.0,2178.0,3431.0,4148.0,2099.0,716.0,400.0,1677.0,3012.0,3288.0,1382.0,428.0,1973.0,12799.0,7421.0,10830.0,5180.0,704.0,2427.0,16934.0,8176.0,14258.0,5954.0,724.0,2593.0,17785.0,8549.0,14650.0,6099.0,777.0,2588.0,17118.0,8215.0,13315.0,5631.0,847.0,2321.0,15776.0,8787.0,13684.0,5980.0
34,BOROUGH HALL,40.6931492,-73.9900883,489.0,4015.0,7311.0,7003.0,3232.0,890.0,300.0,2288.0,5212.0,5424.0,2232.0,421.0,1214.0,12069.0,9321.0,14948.0,5947.0,620.0,1707.0,19969.0,14127.0,22719.0,7693.0,766.0,1745.0,19644.0,14914.0,23070.0,7678.0,726.0,1837.0,19679.0,14400.0,21682.0,7107.0,881.0,1469.0,17028.0,13724.0,20045.0,6084.0
35,CROWN HTS-UTICA,40.6689469,-73.93183379999998,1430.0,5134.0,5602.0,6259.0,4035.0,1488.0,1054.0,3577.0,4506.0,4671.0,3142.0,1140.0,3274.0,10872.0,6669.0,10147.0,5984.0,1427.0,4016.0,14861.0,7118.0,12587.0,7115.0,1717.0,4114.0,15504.0,7406.0,13028.0,7255.0,1614.0,4282.0,15121.0,6973.0,12147.0,6162.0,1672.0,3745.0,13955.0,7662.0,12380.0,6494.0
36,8 ST-NYU,40.7306065,-73.99244159999998,365.0,2618.0,7093.0,9648.0,7375.0,2742.0,285.0,1971.0,5765.0,7322.0,4476.0,987.0,407.0,6614.0,4969.0,10070.0,5373.0,892.0,479.0,3917.0,2683.0,10892.0,6606.0,1087.0,534.0,7692.0,5645.0,11305.0,6806.0,1086.0,437.0,6816.0,5587.0,11167.0,7196.0,1319.0,544.0,6867.0,5401.0,11277.0,6807.0
37,CANAL ST,40.722713899999995,-74.00630600000001,515.0,2973.0,6142.0,7722.0,3770.0,1229.0,340.0,2250.0,5127.0,5909.0,2516.0,496.0,844.0,8597.0,5767.0,11638.0,4736.0,798.0,1323.0,10947.0,6392.0,14743.0,5728.0,935.0,1397.0,11063.0,7052.0,15491.0,6241.0,993.0,1203.0,10706.0,7219.0,15678.0,7114.0,1352.0,1217.0,9855.0,7336.0,14355.0,5340.0
38,QUEENSBORO PLZ,40.7505127,-73.9398439,589.0,2875.0,4225.0,4102.0,2079.0,905.0,450.0,2421.0,3269.0,3021.0,1457.0,490.0,857.0,4917.0,2668.0,4833.0,2064.0,485.0,991.0,6087.0,3472.0,7286.0,2467.0,549.0,1040.0,6216.0,3758.0,6891.0,2480.0,558.0,1001.0,6159.0,3358.0,6589.0,2833.0,760.0,927.0,5595.0,3457.0,6630.0,2532.0
39,MYRTLE-WYCKOFF,40.699686,-73.9117713,1209.0,3892.0,4214.0,4406.0,2524.0,1134.0,772.0,2523.0,3475.0,3410.0,1957.0,741.0,2511.0,8107.0,4977.0,7403.0,4425.0,831.0,2653.0,10108.0,5073.0,8238.0,4965.0,937.0,2884.0,10367.0,5347.0,8532.0,4923.0,906.0,2749.0,10090.0,4939.0,7316.0,4493.0,1043.0,2699.0,10073.0,5558.0,8247.0,4762.0
40,51 ST,40.757135,-73.97191190000001,433.0,2294.0,3046.0,3463.0,1767.0,632.0,334.0,1568.0,2465.0,2764.0,968.0,272.0,1330.0,12752.0,7034.0,13221.0,4619.0,901.0,1622.0,15273.0,7649.0,15239.0,5406.0,971.0,1633.0,15162.0,8201.0,16173.0,5724.0,1132.0,1503.0,15151.0,8968.0,18272.0,8508.0,1486.0,1383.0,14327.0,8156.0,15575.0,4860.0
41,COURT SQ,40.7467885,-73.944548,750.0,2818.0,4674.0,5294.0,2566.0,1020.0,399.0,1749.0,3696.0,3595.0,1771.0,503.0,1486.0,8516.0,4682.0,9295.0,4049.0,598.0,2126.0,13056.0,5484.0,13258.0,5010.0,745.0,2236.0,13560.0,6198.0,13353.0,5054.0,763.0,2088.0,13067.0,6590.0,12967.0,4608.0,949.0,1831.0,11080.0,5627.0,11116.0,3993.0
42,JAMAICA CENTER,40.702144700000005,-73.8008771,2500.0,6277.0,5970.0,7563.0,4508.0,1601.0,1770.0,4150.0,4298.0,5131.0,3775.0,1490.0,6566.0,14292.0,9820.0,15761.0,8117.0,2006.0,7961.0,20218.0,10986.0,20855.0,9641.0,2227.0,8553.0,20904.0,12075.0,21158.0,9998.0,2248.0,8358.0,20474.0,11512.0,19782.0,9262.0,2274.0,7326.0,18361.0,11173.0,18783.0,8529.0
43,49 ST,40.7598372,-73.98418249999999,641.0,3968.0,6867.0,,,2947.0,561.0,3244.0,6844.0,8867.0,5054.0,1272.0,1281.0,9405.0,6641.0,13713.0,6296.0,1443.0,1411.0,12077.0,7101.0,16448.0,8257.0,1655.0,1570.0,12237.0,7670.0,17585.0,8381.0,1707.0,1453.0,11961.0,7471.0,18083.0,9735.0,2082.0,1454.0,11134.0,7307.0,16541.0,8459.0
44,BOWLING GREEN,40.7048108,-74.0144596,503.0,3284.0,5543.0,5398.0,1807.0,534.0,284.0,2152.0,4105.0,3808.0,1293.0,394.0,1638.0,12334.0,7180.0,13996.0,3859.0,606.0,2333.0,18342.0,8989.0,21396.0,5283.0,702.0,2480.0,20009.0,10446.0,21985.0,5393.0,759.0,2342.0,19241.0,9653.0,21978.0,5150.0,888.0,2025.0,17105.0,9743.0,18090.0,3940.0
45,BLEECKER ST,40.7259346,-73.9946724,374.0,1407.0,3897.0,5906.0,3374.0,1893.0,327.0,1009.0,2980.0,4490.0,2287.0,652.0,476.0,4513.0,3295.0,6301.0,3472.0,672.0,529.0,5293.0,3205.0,7124.0,4259.0,864.0,526.0,5480.0,3608.0,7608.0,4493.0,924.0,477.0,5421.0,3617.0,7105.0,4615.0,1056.0,536.0,5100.0,3708.0,7569.0,4324.0
46,VERNON-JACKSON,40.7426713,-73.9537248,398.0,2522.0,4383.0,4777.0,2545.0,986.0,232.0,1934.0,3787.0,4111.0,1918.0,354.0,905.0,7823.0,3436.0,6392.0,2895.0,526.0,1214.0,9466.0,3518.0,7497.0,3894.0,587.0,1272.0,9916.0,3848.0,7276.0,3705.0,567.0,1319.0,9523.0,3586.0,6911.0,3645.0,732.0,1099.0,9021.0,3997.0,7245.0,3672.0
47,28 ST,40.7470686,-73.99350919999998,379.0,2980.0,4975.0,6645.0,3580.0,1323.0,280.0,2259.0,4886.0,4643.0,2244.0,549.0,651.0,7734.0,5347.0,10088.0,4178.0,755.0,744.0,9206.0,5817.0,11928.0,4962.0,821.0,783.0,8999.0,6285.0,12615.0,5442.0,853.0,776.0,8921.0,6416.0,12820.0,6228.0,1047.0,748.0,8201.0,6251.0,11216.0,4679.0
48,SUTPHIN-ARCHER,40.700572799999996,-73.8077071,1722.0,4924.0,5188.0,6132.0,3838.0,1190.0,1238.0,3203.0,3972.0,4978.0,3572.0,1086.0,4585.0,9188.0,6757.0,10888.0,5995.0,1458.0,4522.0,12006.0,7394.0,12737.0,6197.0,1561.0,4696.0,11930.0,7582.0,13100.0,6561.0,1523.0,4787.0,11862.0,7621.0,14786.0,7561.0,2085.0,4515.0,11476.0,7945.0,13280.0,6751.0
49,FORDHAM RD,40.8614886,-73.8905408,1564.0,3815.0,4326.0,5315.0,2920.0,1160.0,1186.0,2999.0,3819.0,3930.0,2015.0,832.0,2862.0,6254.0,4623.0,6457.0,2991.0,968.0,3170.0,8295.0,5424.0,8238.0,3505.0,942.0,3349.0,8831.0,5852.0,8738.0,3574.0,1072.0,3323.0,8548.0,5407.0,8998.0,4523.0,1272.0,3128.0,8135.0,5583.0,8198.0,3449.0
50,HIGH ST,40.6993673,-73.99126559999998,228.0,2306.0,5119.0,5703.0,2128.0,704.0,136.0,1715.0,4608.0,4790.0,1675.0,307.0,603.0,5742.0,4013.0,6291.0,2690.0,293.0,780.0,6711.0,3352.0,6741.0,2895.0,364.0,745.0,7169.0,4027.0,7238.0,2892.0,377.0,369.0,6848.0,3560.0,6412.0,2919.0,442.0,642.0,6322.0,3959.0,6664.0,2566.0
51,BROOKLYN BRIDGE,40.6993673,-73.99126559999998,342.0,2320.0,4936.0,5012.0,1966.0,504.0,197.0,1685.0,3878.0,4049.0,1382.0,370.0,920.0,5965.0,5414.0,8103.0,3001.0,485.0,1378.0,11220.0,7885.0,12807.0,4012.0,606.0,1376.0,11803.0,8789.0,13350.0,4092.0,417743.0,1392.0,11773.0,8466.0,11666.0,3651.0,706.0,1242.0,10202.0,7637.0,11236.0,3025.0
52,103 ST-CORONA,40.7498268,-73.862746,2540.0,5899.0,5343.0,6836.0,3998.0,1783.0,1377.0,4180.0,4793.0,5177.0,3252.0,1454.0,4453.0,7643.0,4702.0,8832.0,4431.0,1684.0,4712.0,9658.0,4949.0,9761.0,4420.0,1739.0,5139.0,9800.0,4915.0,9762.0,4744.0,1872.0,4980.0,9631.0,4894.0,9336.0,4410.0,1911.0,4658.0,9690.0,4976.0,9593.0,4707.0
53,GRAND-NEWTOWN,40.736835,-73.87758840000001,810.0,3543.0,3329.0,3336.0,1971.0,869.0,506.0,2020.0,2563.0,2702.0,1630.0,496.0,2316.0,8282.0,4693.0,6742.0,3472.0,598.0,2853.0,10339.0,4530.0,7780.0,3671.0,656.0,2939.0,10695.0,4854.0,8088.0,3871.0,718.0,2912.0,10426.0,4585.0,7158.0,3764.0,691.0,2690.0,10250.0,4810.0,7744.0,3825.0
54,181 ST,40.84913,-73.93372889999998,798.0,3228.0,4365.0,4976.0,3041.0,1206.0,639.0,2325.0,3725.0,4271.0,2527.0,811.0,1278.0,4535.0,4349.0,6363.0,2699.0,27.0,1327.0,6086.0,4357.0,7253.0,3138.0,24.0,1459.0,6432.0,4954.0,7297.0,3096.0,17.0,1323.0,6237.0,4630.0,7549.0,4147.0,967.0,1277.0,5729.0,4759.0,6833.0,3438.0
55,167 ST,40.835598,-73.9213791,1061.0,2276.0,2174.0,2951.0,2069.0,928.0,652.0,1483.0,1699.0,2357.0,1644.0,744.0,1990.0,4050.0,2697.0,5580.0,2733.0,1023.0,2334.0,6058.0,3505.0,6736.0,3269.0,1148.0,2390.0,6040.0,3330.0,7217.0,3292.0,1130.0,2346.0,5896.0,3500.0,7247.0,4258.0,1357.0,2180.0,5859.0,3661.0,6403.0,3273.0
56,82 ST-JACKSON H,40.7477145,-73.8839373,1132.0,4452.0,6997.0,7778.0,4027.0,1745.0,862.0,3008.0,5461.0,6240.0,3366.0,1144.0,1699.0,5595.0,5897.0,9590.0,4631.0,1313.0,1953.0,7868.0,6429.0,11044.0,5030.0,1436.0,2023.0,7810.0,6355.0,10843.0,5249.0,1450.0,2037.0,7467.0,6117.0,9664.0,4550.0,1564.0,1888.0,7287.0,6690.0,11033.0,5353.0
57,KINGS HWY,40.60867440000001,-73.9578059,508.0,3148.0,3457.0,3607.0,1845.0,560.0,355.0,2411.0,3242.0,3275.0,1634.0,364.0,1833.0,10000.0,5914.0,9934.0,4853.0,618.0,2499.0,12106.0,6008.0,11778.0,5651.0,880.0,2603.0,12453.0,6590.0,12342.0,5510.0,807.0,2556.0,12138.0,6001.0,11032.0,5191.0,,,8981.0,5446.0,8635.0,3373.0
58,3 AV-149 ST,40.816129,-73.917811,1297.0,4067.0,4603.0,4803.0,2488.0,839.0,839.0,2907.0,3527.0,3650.0,1983.0,610.0,2423.0,6963.0,5361.0,6987.0,2729.0,781.0,2803.0,9235.0,6633.0,9232.0,3298.0,740.0,2942.0,9728.0,7344.0,9734.0,3301.0,739.0,2895.0,9489.0,6749.0,8831.0,4280.0,914.0,2568.0,8701.0,7342.0,9185.0,3247.0
59,EAST BROADWAY,40.714402899999996,-73.98991880000001,403.0,2534.0,3681.0,4422.0,2672.0,796.0,302.0,2070.0,3508.0,3783.0,1992.0,445.0,589.0,4415.0,3585.0,4906.0,2635.0,495.0,869.0,6009.0,3743.0,6466.0,3022.0,654.0,888.0,5982.0,4071.0,6552.0,3154.0,575.0,849.0,6027.0,3969.0,6340.0,3376.0,693.0,877.0,5870.0,4177.0,6169.0,3359.0
60,72 ST,40.778453000000006,-73.98196999999998,104.0,976.0,2387.0,2654.0,891.0,314.0,66.0,766.0,2337.0,2293.0,731.0,115.0,218.0,3412.0,3465.0,4724.0,1574.0,143.0,252.0,4273.0,2685.0,4784.0,1904.0,214.0,256.0,3863.0,3080.0,5070.0,2065.0,248.0,262.0,3930.0,3022.0,5545.0,2543.0,299.0,221.0,4038.0,3133.0,4980.0,1771.0
61,WALL ST,40.706396500000004,-74.0094441,416.0,3119.0,4611.0,5014.0,2673.0,984.0,277.0,2122.0,4280.0,3845.0,1807.0,429.0,1047.0,12898.0,5160.0,13031.0,3629.0,528.0,1444.0,18689.0,6396.0,18502.0,5138.0,563.0,1548.0,17833.0,6676.0,18992.0,5531.0,737.0,1505.0,17399.0,7122.0,19209.0,5676.0,877.0,1350.0,13517.0,6446.0,15615.0,4173.0
62,21 ST-QNSBRIDGE,40.75417770000001,-73.94247419999998,584.0,2621.0,2742.0,3146.0,1892.0,724.0,417.0,2030.0,2190.0,2375.0,1523.0,477.0,1044.0,4513.0,2811.0,4289.0,2320.0,614.0,1316.0,5309.0,3267.0,5267.0,2510.0,627.0,1443.0,5643.0,3259.0,5509.0,2383.0,658.0,1337.0,5452.0,3238.0,4933.0,2678.0,750.0,1264.0,5308.0,3151.0,5328.0,2484.0
63,HOYT-SCHER,40.688828799999996,-73.98531249999998,248.0,2266.0,4659.0,5286.0,2915.0,870.0,190.0,1630.0,4014.0,4362.0,2156.0,454.0,570.0,3403.0,3412.0,5364.0,2768.0,458.0,729.0,5471.0,4347.0,6769.0,3166.0,432.0,791.0,5628.0,4370.0,7082.0,3284.0,527.0,630.0,5608.0,4221.0,6569.0,3101.0,608.0,641.0,5070.0,4422.0,7073.0,3218.0
64,FRANKLIN AV,40.7190056,-74.0066801,421.0,2353.0,3554.0,3680.0,2286.0,1043.0,375.0,1864.0,3038.0,2911.0,1711.0,449.0,872.0,6233.0,3848.0,5223.0,3290.0,603.0,1123.0,7933.0,3641.0,5984.0,3955.0,673.0,1218.0,7119.0,3532.0,5855.0,3882.0,671.0,1204.0,8254.0,3800.0,5588.0,3241.0,765.0,1043.0,7591.0,3710.0,5726.0,3319.0
65,168 ST,40.841041,-73.939971,1220.0,4775.0,6137.0,6480.0,3778.0,1375.0,952.0,3485.0,5077.0,5559.0,3142.0,945.0,1654.0,9568.0,7691.0,12482.0,4412.0,1092.0,2289.0,14401.0,8036.0,15090.0,5034.0,1220.0,2648.0,14236.0,8614.0,14638.0,5063.0,1227.0,2456.0,14019.0,8259.0,16204.0,6747.0,1645.0,2485.0,13457.0,8263.0,13444.0,5094.0
66,NEVINS ST,40.6882963,-73.98052059999999,316.0,1856.0,2831.0,3388.0,1712.0,581.0,216.0,1017.0,2316.0,2388.0,1061.0,356.0,725.0,4252.0,3386.0,5378.0,2277.0,442.0,900.0,6306.0,3773.0,6899.0,2836.0,474.0,975.0,6532.0,4140.0,7132.0,2962.0,466.0,1004.0,6453.0,4138.0,6613.0,2453.0,515.0,840.0,5880.0,4159.0,6981.0,2802.0
67,5 AVE,40.760216299999996,-73.975543,266.0,1580.0,3874.0,5116.0,2241.0,613.0,152.0,1186.0,3199.0,4006.0,1573.0,259.0,645.0,5701.0,3953.0,8440.0,990169275.0,444.0,808.0,7624.0,3791.0,9291.0,3974.0,553.0,848.0,6682.0,4148.0,9724.0,4018.0,598.0,811.0,7008.0,4318.0,10866.0,3753.0,595.0,761.0,6379.0,3963.0,8999.0,3302.0
68,PROSPECT PARK,40.66087879999999,-73.9621109,958.0,3285.0,3916.0,4091.0,2258.0,648.0,693.0,2443.0,3318.0,3427.0,1688.0,449.0,988.0,4861.0,3470.0,5149.0,3058.0,530.0,1004.0,6152.0,2821.0,5015.0,3571.0,774.0,1049.0,6383.0,3253.0,5707.0,3719.0,733.0,1019.0,6251.0,3278.0,5059.0,3169.0,676.0,878.0,5763.0,3303.0,5269.0,3216.0
69,CENTRAL PK N110,40.798737599999995,-73.9522934,558.0,2464.0,3396.0,3625.0,2199.0,897.0,461.0,1962.0,3041.0,3294.0,1742.0,662.0,827.0,3691.0,2526.0,4025.0,2033.0,523.0,970.0,5034.0,2539.0,4899.0,2228.0,591.0,1010.0,5397.0,2835.0,4943.0,2329.0,613.0,969.0,5278.0,2757.0,4528.0,2573.0,673.0,849.0,3620.0,2913.0,4610.0,2228.0
70,LEXINGTON AV/53,40.757698100000006,-73.96907420000001,848.0,5547.0,7810.0,9263.0,5451.0,1915.0,599.0,3884.0,6953.0,7514.0,3825.0,908.0,2155.0,27775.0,11494.0,27364.0,9241.0,1399.0,3318.0,34991.0,13367.0,32553.0,10973.0,1724.0,3563.0,33867.0,14386.0,33661.0,11326.0,1792.0,3350.0,33056.0,15093.0,36431.0,15715.0,2592.0,3129.0,30338.0,14178.0,30927.0,9963.0
71,63 DR-REGO PARK,40.7301359,-73.86236729999999,440.0,2087.0,2766.0,2547.0,1329.0,281.0,273.0,1572.0,2146.0,2201.0,1008.0,185.0,1193.0,6578.0,4058.0,5479.0,2177.0,420.0,1596.0,8127.0,3989.0,5594.0,2261.0,382.0,1640.0,8557.0,4191.0,6029.0,2502.0,480.0,1587.0,8259.0,3810.0,5358.0,2137.0,449.0,1534.0,7728.0,4110.0,5717.0,2478.0
72,3 AV,40.733135299999994,-73.98675829999998,7.0,0.0,0.0,2.0,0.0,19.0,4.0,1.0,1.0,2.0,1.0,5.0,260.0,2643.0,2127.0,3754.0,2562.0,68.0,393.0,3240.0,2261.0,4263.0,2996.0,127.0,416.0,3271.0,2322.0,4419.0,2974.0,103.0,391.0,3109.0,2318.0,4225.0,3079.0,238.0,357.0,3117.0,2410.0,4568.0,3451.0
73,175 ST,40.847916600000005,-73.9394823,593.0,2539.0,3171.0,3439.0,2016.0,652.0,426.0,1759.0,2638.0,2984.0,1682.0,477.0,1366.0,5311.0,2988.0,5065.0,2279.0,563.0,1415.0,6771.0,3013.0,5439.0,2582.0,642.0,1557.0,6776.0,3133.0,5484.0,2764.0,627.0,1486.0,6547.0,3233.0,7413.0,4654.0,1341.0,1382.0,5748.0,3231.0,5601.0,2764.0
74,53 ST,40.760216299999996,-73.975543,640.0,2428.0,2613.0,3041.0,1738.0,758.0,394.0,1716.0,2291.0,2468.0,1531.0,556.0,1120.0,4106.0,2933.0,4758.0,2419.0,644.0,1401.0,5470.0,2903.0,5612.0,2585.0,656.0,1462.0,5446.0,3058.0,5755.0,2565.0,688.0,1434.0,5375.0,2887.0,5348.0,2542.0,726.0,1348.0,5137.0,3066.0,5516.0,2490.0
75,110 ST,40.798737599999995,-73.9522934,515.0,2101.0,2389.0,2271.0,1248.0,429.0,325.0,1346.0,1672.0,1798.0,804.0,405.0,860.0,4080.0,2941.0,4657.0,2513.0,600.0,1124.0,6128.0,3538.0,6279.0,2729.0,686.0,1208.0,6303.0,3644.0,5937.0,2857.0,746.0,1160.0,6172.0,3912.0,5979.0,3223.0,940.0,1140.0,6324.0,3879.0,6011.0,2905.0
76,BEDFORD-NOSTRAN,40.6898534,-73.9516398,252.0,1687.0,2531.0,2474.0,1683.0,707.0,199.0,1334.0,2120.0,2104.0,1143.0,358.0,574.0,4194.0,2027.0,3085.0,1855.0,377.0,739.0,5470.0,1994.0,3598.0,2156.0,421.0,754.0,5510.0,2071.0,3581.0,2145.0,468.0,755.0,5431.0,2106.0,3541.0,2044.0,476.0,683.0,5259.0,2345.0,3653.0,2009.0
77,GRAHAM AV,40.714526299999996,-73.94438180000002,13.0,6.0,1.0,0.0,0.0,1.0,0.0,0.0,2.0,0.0,0.0,0.0,468.0,4685.0,2282.0,3705.0,2137.0,96.0,605.0,5930.0,2338.0,4436.0,3067.0,244.0,668.0,6097.0,2588.0,4296.0,3139.0,238.0,641.0,5992.0,2663.0,4297.0,2815.0,205.0,589.0,5592.0,2772.0,4118.0,3111.0
78,46 ST BLISS ST,40.7430691,-73.91824030000002,885.0,3315.0,3867.0,4632.0,2662.0,996.0,542.0,2359.0,3379.0,3918.0,2221.0,669.0,1517.0,5620.0,3104.0,5843.0,3270.0,830.0,1789.0,7097.0,3139.0,6441.0,3428.0,936.0,1877.0,7192.0,3232.0,6377.0,2762.0,693.0,1783.0,7115.0,3241.0,6128.0,3351.0,1065.0,1737.0,7019.0,3590.0,6451.0,3570.0
79,CHRISTOPHER ST,40.733578400000006,-74.00287279999998,316.0,1550.0,3707.0,5304.0,4582.0,2186.0,309.0,1017.0,3155.0,4227.0,2633.0,733.0,351.0,3633.0,2980.0,5113.0,2824.0,290.0,366.0,4249.0,2763.0,5682.0,3279.0,349.0,376.0,4407.0,3294.0,5766.0,3053.0,334.0,374.0,4296.0,3230.0,5699.0,3953.0,447.0,373.0,3933.0,3447.0,5983.0,4576.0
80,191 ST,40.855738,-73.9306512,550.0,2277.0,2793.0,3329.0,2182.0,970.0,403.0,1499.0,2347.0,2973.0,1867.0,633.0,969.0,3438.0,2623.0,4424.0,2159.0,3.0,1054.0,4970.0,2795.0,5384.0,2567.0,0.0,1094.0,5082.0,2992.0,5299.0,2632.0,22.0,1030.0,5031.0,2943.0,5519.0,3211.0,722.0,1077.0,4864.0,3075.0,5039.0,2661.0
81,ROOSEVELT ISLND,40.7591362,-73.9533215,152.0,1540.0,2454.0,2658.0,1643.0,532.0,146.0,1182.0,2299.0,2449.0,1206.0,247.0,298.0,3400.0,2247.0,3520.0,2125.0,280.0,431.0,4505.0,2051.0,4007.0,2555.0,292.0,473.0,4569.0,2246.0,4070.0,2428.0,359.0,443.0,4428.0,2185.0,3955.0,2332.0,421.0,420.0,4112.0,2291.0,3800.0,2239.0
82,BROADWAY JCT,40.6789137,-73.9039,1437.0,4013.0,3915.0,4639.0,3257.0,1397.0,1059.0,2807.0,3208.0,3646.0,2681.0,927.0,1296.0,3130.0,2686.0,3593.0,1948.0,967.0,1553.0,4299.0,2781.0,4601.0,2312.0,1109.0,1702.0,4596.0,2916.0,4738.0,2445.0,1123.0,2006.0,4562.0,2842.0,4221.0,2125.0,1166.0,1621.0,4352.0,3051.0,4466.0,2412.0
83,HOYT ST,40.688828799999996,-73.98531249999998,201.0,1426.0,3343.0,3855.0,1747.0,496.0,164.0,1272.0,2792.0,2976.0,1207.0,210.0,326.0,2303.0,2334.0,3505.0,1343.0,193.0,387.0,4341.0,3011.0,5071.0,1936.0,202.0,465.0,4195.0,3270.0,5344.0,1878.0,236.0,542.0,4282.0,3167.0,5010.0,1706.0,258.0,391.0,3667.0,3095.0,5025.0,1869.0
84,135 ST,40.817894,-73.947647,593.0,2986.0,3687.0,3717.0,2047.0,850.0,487.0,2378.0,3073.0,2829.0,1504.0,631.0,969.0,5000.0,2963.0,4036.0,2075.0,531.0,1305.0,6973.0,3312.0,5520.0,2562.0,586.0,1278.0,7251.0,3719.0,5578.0,2651.0,620.0,1288.0,7254.0,3799.0,5134.0,2797.0,851.0,1159.0,4618.0,3734.0,5250.0,2545.0
85,ELMHURST AV,40.74244789999999,-73.88198440000001,193.0,550.0,849.0,1039.0,507.0,124.0,128.0,653.0,984.0,799.0,385.0,77.0,1370.0,5124.0,2797.0,2873.0,1190.0,252.0,1740.0,6506.0,2568.0,3238.0,1239.0,193.0,1762.0,6852.0,2676.0,3483.0,1446.0,247.0,1771.0,6667.0,2581.0,3247.0,1408.0,299.0,1656.0,6507.0,2690.0,3474.0,1690.0
86,RECTOR ST,40.7078954,-74.01363649999998,231.0,1944.0,3431.0,3813.0,1834.0,607.0,169.0,1628.0,2939.0,2929.0,1236.0,264.0,450.0,5688.0,3738.0,6817.0,2133.0,345.0,616.0,7770.0,4014.0,8848.0,2653.0,422.0,683.0,8053.0,4416.0,9358.0,2852.0,471.0,675.0,7546.0,4216.0,9033.0,1677.0,414.0,604.0,6903.0,2611.0,8177.0,1584.0
87,4AV-9 ST,40.6701803,-73.98929150000002,272.0,1748.0,2846.0,2848.0,1608.0,626.0,217.0,1272.0,2460.0,2439.0,1224.0,291.0,533.0,4329.0,2440.0,3975.0,1973.0,352.0,729.0,5905.0,2367.0,4980.0,2249.0,345.0,831.0,5974.0,2421.0,5046.0,2228.0,413.0,766.0,5926.0,2371.0,4541.0,2135.0,391.0,716.0,5302.0,2655.0,4835.0,2263.0
88,96 ST,40.7858701,-73.95093469999998,134.0,1106.0,1807.0,2286.0,1074.0,402.0,125.0,713.0,1848.0,2136.0,1049.0,252.0,379.0,4277.0,3019.0,5618.0,1999.0,228.0,473.0,5743.0,2995.0,6579.0,2277.0,282.0,495.0,5935.0,3280.0,6548.0,2284.0,277.0,489.0,5796.0,3545.0,6508.0,2757.0,384.0,447.0,6009.0,3548.0,5945.0,1923.0
89,JAMAICA 179 ST,40.71264420000001,-73.7838184,1511.0,3584.0,3162.0,3457.0,1991.0,759.0,934.0,2350.0,2516.0,2411.0,1698.0,553.0,3553.0,8946.0,3928.0,5389.0,3114.0,669.0,5072.0,12746.0,4019.0,6555.0,3451.0,706.0,5467.0,12683.0,4385.0,7132.0,3618.0,769.0,5419.0,12095.0,4096.0,6896.0,3470.0,760.0,4795.0,11221.0,4213.0,6396.0,3259.0
90,BRIGHTON BEACH,40.5776648,-73.96127690000002,497.0,2295.0,2782.0,2877.0,1313.0,379.0,343.0,1662.0,2291.0,2459.0,1220.0,308.0,1181.0,4982.0,4256.0,5476.0,2541.0,329.0,1381.0,6085.0,4314.0,6049.0,2677.0,350.0,1446.0,6162.0,4640.0,6469.0,2700.0,395.0,1424.0,5898.0,4195.0,5460.0,2361.0,352.0,1322.0,5106.0,3697.0,5019.0,2085.0
91,CARROLL ST,40.679331299999994,-73.9954833,169.0,1719.0,2848.0,3250.0,1889.0,682.0,112.0,1257.0,2491.0,2412.0,1249.0,218.0,435.0,5380.0,2381.0,4054.0,1867.0,229.0,576.0,7388.0,2401.0,5358.0,2226.0,300.0,573.0,7257.0,2643.0,5432.0,2284.0,354.0,574.0,7210.0,3047.0,5315.0,2393.0,417.0,494.0,6940.0,2789.0,5208.0,2352.0
92,149/GRAND CONC,40.8183248,-73.9274121,1055.0,3313.0,3998.0,3848.0,1991.0,975.0,848.0,2468.0,2878.0,3069.0,1711.0,667.0,1111.0,4651.0,4605.0,5393.0,2587.0,854.0,1309.0,6005.0,4961.0,6863.0,3063.0,864.0,1385.0,6311.0,5757.0,6881.0,3067.0,778.0,1345.0,5972.0,5264.0,7556.0,3329.0,1135.0,1224.0,5409.0,4717.0,5728.0,2525.0
93,UNION ST,40.6771729,-73.98324670000001,251.0,1316.0,2241.0,2819.0,1788.0,831.0,234.0,1039.0,1859.0,2160.0,1145.0,342.0,434.0,3505.0,1769.0,3366.0,1933.0,367.0,538.0,4537.0,1763.0,3950.0,2134.0,369.0,573.0,4503.0,1835.0,4116.0,2474.0,412.0,559.0,4426.0,2065.0,4097.0,2289.0,528.0,514.0,4090.0,1909.0,3970.0,2382.0
94,111 ST,40.75172999999999,-73.855334,1305.0,3457.0,2800.0,3345.0,2019.0,918.0,758.0,2349.0,2606.0,2674.0,1633.0,775.0,3078.0,5251.0,3259.0,5220.0,2651.0,831.0,3205.0,6921.0,3335.0,6162.0,2830.0,929.0,3440.0,6956.0,3257.0,6061.0,2773.0,960.0,3417.0,7042.0,3252.0,5971.0,2673.0,1025.0,3235.0,6842.0,3272.0,6002.0,2858.0
95,MONTROSE AV,40.7077716,-73.93986329999998,5.0,1.0,2.0,0.0,4.0,0.0,0.0,0.0,0.0,0.0,0.0,0.0,449.0,2848.0,1503.0,2310.0,1641.0,84.0,531.0,3416.0,1555.0,2738.0,1784.0,70.0,510.0,3550.0,1682.0,2838.0,1810.0,87.0,511.0,3393.0,1752.0,2655.0,1758.0,82.0,509.0,3325.0,1903.0,2730.0,2023.0
96,MORGAN AV,40.70607589999999,-73.93370999999998,16.0,32.0,21.0,24.0,8.0,13.0,4.0,5.0,3.0,4.0,2.0,16.0,449.0,2694.0,1721.0,2673.0,1508.0,89.0,538.0,3390.0,1835.0,2966.0,1726.0,103.0,568.0,3419.0,1904.0,2914.0,1700.0,93.0,567.0,3377.0,1721.0,2709.0,1481.0,105.0,536.0,3166.0,2006.0,3029.0,2150.0
97,90 ST-ELMHURST,40.748436700000006,-73.87652890000001,1546.0,4730.0,4314.0,4616.0,2421.0,900.0,983.0,3199.0,3766.0,3762.0,1930.0,728.0,2838.0,6213.0,4055.0,5637.0,2691.0,811.0,3110.0,7613.0,3855.0,6173.0,3017.0,867.0,3292.0,7987.0,3888.0,6076.0,2952.0,782.0,3227.0,7605.0,3789.0,5770.0,2536.0,897.0,3101.0,7500.0,3886.0,6070.0,3013.0
98,6 AV,40.7373653,-73.99684529999998,66.0,329.0,943.0,1469.0,982.0,278.0,41.0,163.0,690.0,1070.0,566.0,110.0,214.0,1697.0,1354.0,2487.0,1504.0,132.0,290.0,2418.0,1619.0,3100.0,1701.0,118.0,295.0,2293.0,1753.0,3301.0,2122.0,158.0,265.0,2228.0,1574.0,3548.0,1938.0,231.0,243.0,2105.0,1627.0,3274.0,2013.0
99,BOWERY,40.720166799999994,-73.99353470000001,263.0,1330.0,2192.0,2677.0,1483.0,800.0,192.0,935.0,1724.0,2125.0,1047.0,409.0,230.0,1577.0,1455.0,2065.0,1110.0,378.0,281.0,1932.0,1292.0,2340.0,1486.0,591.0,299.0,2063.0,1371.0,2465.0,1471.0,541.0,281.0,2053.0,1428.0,2213.0,1589.0,596.0,286.0,1745.0,1505.0,2473.0,1528.0
100,BURNSIDE AV,40.85345299999999,-73.90768400000002,948.0,2540.0,2622.0,2577.0,1622.0,595.0,724.0,1695.0,1973.0,2105.0,1339.0,465.0,1405.0,3246.0,3146.0,3928.0,2054.0,566.0,1628.0,4409.0,3210.0,4849.0,2148.0,581.0,1671.0,4657.0,9116636.0,4219.0,1961.0,435.0,1632.0,4260.0,3343.0,4963.0,2506.0,770.0,1544.0,4217.0,3212.0,4073.0,1811.0
101,45 ST,40.6493588,-74.00959069999998,466.0,1692.0,2004.0,2024.0,1001.0,412.0,297.0,1238.0,1724.0,1625.0,843.0,264.0,867.0,3059.0,1906.0,3026.0,1409.0,348.0,1062.0,4159.0,1884.0,3643.0,1482.0,411.0,1136.0,4182.0,1996.0,3564.0,1568.0,442.0,1100.0,4112.0,1977.0,3376.0,1568.0,442.0,1016.0,4008.0,2049.0,3508.0,1507.0
102,170 ST,40.840050399999996,-73.9133477,777.0,1562.0,1643.0,1847.0,1229.0,430.0,444.0,1025.0,1252.0,1400.0,973.0,465.0,1359.0,2697.0,1738.0,3260.0,1814.0,613.0,1533.0,4177.0,2428.0,4335.0,1845.0,595.0,1608.0,4178.0,2099.0,4542.0,1908.0,600.0,1590.0,4025.0,2361.0,4486.0,2318.0,714.0,1331.0,3875.0,2500.0,4104.0,1938.0
103,169 ST,40.7104152,-73.79374600000001,606.0,1800.0,2105.0,2605.0,1351.0,506.0,450.0,1207.0,1645.0,1935.0,1085.0,418.0,1177.0,3056.0,2277.0,3505.0,2119.0,420.0,1362.0,4453.0,2744.0,4962.0,2197.0,433.0,1452.0,4513.0,3133.0,4830.0,2360.0,503.0,1437.0,4354.0,2751.0,4847.0,2074.0,475.0,1286.0,4061.0,2680.0,4695.0,2136.0
104,74 ST-BROADWAY,40.746941899999996,-73.89146020000001,212.0,1021.0,1816.0,2117.0,1240.0,490.0,176.0,731.0,1516.0,1787.0,1155.0,350.0,262.0,1066.0,1410.0,2114.0,1219.0,330.0,239.0,1344.0,1414.0,2429.0,1430.0,372.0,291.0,1396.0,1437.0,2512.0,1491.0,380.0,287.0,1429.0,1318.0,2025.0,1158.0,379.0,276.0,1373.0,1373.0,2538.0,1553.0
105,40 ST LOWERY ST,40.7438729,-73.92423409999998,480.0,2252.0,2839.0,3281.0,1982.0,728.0,,,2409.0,2748.0,1633.0,477.0,811.0,4743.0,2456.0,4836.0,2577.0,475.0,1156.0,6282.0,2510.0,5948.0,2795.0,628.0,1167.0,6620.0,2708.0,5984.0,2952.0,630.0,1154.0,6145.0,2660.0,5619.0,2864.0,792.0,1108.0,6050.0,3315.0,5460.0,2793.0
106,CASTLE HILL AV,40.83429599999999,-73.85168399999998,616.0,1649.0,1818.0,2168.0,1333.0,649.0,474.0,1131.0,1272.0,1630.0,1126.0,538.0,1202.0,2721.0,1833.0,3349.0,1693.0,630.0,1485.0,3841.0,2059.0,4110.0,1962.0,655.0,1608.0,4052.0,2087.0,4375.0,2053.0,699.0,1569.0,3790.0,2009.0,3745.0,2764.0,864.0,1476.0,2862.0,1756.0,3931.0,1838.0
107,HALSEY ST,40.69577750000001,-73.9044092,19.0,47.0,67.0,45.0,21.0,7.0,11.0,17.0,23.0,40.0,13.0,14.0,906.0,3384.0,1673.0,2749.0,1656.0,121.0,1116.0,1347.0,660.0,3374.0,1891.0,142.0,1171.0,4381.0,1769.0,3248.0,1994.0,141.0,1178.0,4252.0,1793.0,3199.0,1882.0,133.0,1075.0,4206.0,1947.0,3174.0,1924.0
108,CLARK ST,40.6974878,-73.99314090000001,100.0,976.0,2106.0,2195.0,1015.0,312.0,66.0,835.0,1770.0,1762.0,796.0,118.0,201.0,2289.0,1552.0,2313.0,1161.0,121.0,258.0,2710.0,1365.0,2556.0,1262.0,128.0,275.0,2787.0,1572.0,2737.0,1169.0,143.0,339.0,2894.0,1522.0,2569.0,1438.0,242.0,261.0,2363.0,1413.0,2492.0,1207.0
109,SUTTER AV-RUTLD,40.664992100000006,-73.92290849999998,517.0,1590.0,1899.0,2269.0,1383.0,481.0,368.0,1077.0,1391.0,1732.0,1127.0,434.0,1066.0,2643.0,2061.0,3302.0,1785.0,426.0,1321.0,4036.0,2243.0,4455.0,2047.0,521.0,1397.0,4274.0,2481.0,4567.0,2130.0,510.0,1424.0,4059.0,2428.0,4116.0,1897.0,498.0,1276.0,3927.0,2590.0,4282.0,2116.0
110,EASTN PKWY-MUSM,40.671993799999996,-73.96420649999999,111.0,1134.0,2488.0,2644.0,1043.0,457.0,91.0,721.0,1855.0,2088.0,864.0,199.0,213.0,1893.0,1054.0,1952.0,1128.0,232.0,291.0,2844.0,1255.0,2537.0,1756.0,271.0,315.0,2827.0,1608.0,2875.0,1631.0,302.0,293.0,2812.0,1461.0,2971.0,1659.0,366.0,272.0,2618.0,1497.0,2821.0,1339.0
111,BAY RIDGE AV,40.634968,-74.023376,390.0,1796.0,1984.0,2128.0,1123.0,393.0,292.0,1282.0,1676.0,1629.0,887.0,267.0,710.0,3189.0,1966.0,2557.0,1342.0,239.0,985.0,4529.0,1973.0,3069.0,1373.0,285.0,1052.0,4615.0,1971.0,3266.0,1523.0,291.0,987.0,4507.0,1964.0,,1645.0,,928.0,4210.0,1978.0,2949.0,1498.0
112,OZONE PK LEFFRT,40.685956700000006,-73.8257601,810.0,1728.0,1606.0,1964.0,1211.0,431.0,490.0,1210.0,1310.0,1478.0,1078.0,369.0,2051.0,3359.0,1783.0,3230.0,1782.0,414.0,2331.0,4299.0,1856.0,3781.0,2182.0,453.0,2479.0,4322.0,1846.0,3848.0,2158.0,413.0,2311.0,4122.0,1796.0,3606.0,1873.0,443.0,2093.0,3854.0,1981.0,3581.0,1845.0
113,JEFFERSON ST,40.7065868,-73.922872,18.0,8.0,9.0,2.0,5.0,1.0,10.0,11.0,4.0,2.0,0.0,0.0,520.0,2512.0,1492.0,2194.0,1025.0,15.0,485.0,3239.0,1346.0,2486.0,1158.0,,,3319.0,1472.0,2510.0,1234.0,74.0,603.0,3198.0,1412.0,2281.0,1259.0,102.0,561.0,3136.0,1574.0,2551.0,1585.0
114,MORISN AV/SNDVW,40.8294898,-73.8746754,721.0,1719.0,1760.0,1810.0,1140.0,586.0,491.0,1164.0,1298.0,1421.0,951.0,475.0,1381.0,2454.0,1605.0,2415.0,1468.0,576.0,1468.0,3253.0,1859.0,2914.0,1642.0,614.0,1626.0,3448.0,1573.0,3025.0,1603.0,718.0,1642.0,3365.0,1586.0,2664.0,2325.0,781.0,1394.0,3003.0,1907.0,2868.0,1537.0
115,207 ST,40.8676635,-73.9212009,373.0,1549.0,1853.0,1830.0,1085.0,416.0,296.0,1131.0,1613.0,1827.0,983.0,264.0,685.0,2165.0,1718.0,2287.0,914.0,82.0,714.0,2849.0,1740.0,2691.0,1055.0,88.0,766.0,3077.0,1874.0,2622.0,1082.0,66.0,759.0,2986.0,1646.0,2665.0,1214.0,296.0,694.0,2537.0,1804.0,2567.0,1273.0
116,EUCLID AV,40.6754013,-73.8719033,753.0,2248.0,2064.0,1984.0,1150.0,398.0,546.0,1637.0,1686.0,1654.0,1055.0,326.0,1452.0,3348.0,2164.0,2383.0,1294.0,336.0,1795.0,5322.0,2522.0,3264.0,1448.0,372.0,1847.0,5535.0,2535.0,3212.0,1502.0,397.0,1856.0,5240.0,2420.0,2899.0,1205.0,357.0,1645.0,5058.0,2583.0,3052.0,1351.0
117,GRAND ARMY PLAZ,40.6752403,-73.97104159999998,120.0,1595.0,2920.0,2882.0,1282.0,372.0,87.0,1106.0,2269.0,2143.0,929.0,183.0,239.0,3146.0,1577.0,2522.0,1036.0,169.0,292.0,4366.0,1713.0,3003.0,1421.0,155.0,291.0,4344.0,1761.0,3206.0,1406.0,138.0,300.0,4260.0,1772.0,3052.0,1226.0,201.0,264.0,3899.0,1800.0,2866.0,1235.0
118,PARSONS BLVD,40.707714,-73.8028238,633.0,1748.0,1757.0,2033.0,1221.0,549.0,527.0,1264.0,1440.0,1750.0,1065.0,514.0,1445.0,2531.0,1712.0,2830.0,1610.0,473.0,1361.0,3904.0,2187.0,3911.0,1660.0,527.0,1338.0,4116.0,2361.0,3950.0,1873.0,509.0,1346.0,3922.0,2239.0,3796.0,1678.0,555.0,1268.0,3743.0,2278.0,3514.0,1651.0
119,231 ST,40.87899229999999,-73.904939,480.0,1824.0,2279.0,2141.0,958.0,303.0,336.0,1362.0,1906.0,1793.0,749.0,196.0,1217.0,3891.0,2268.0,2671.0,1065.0,130.0,1533.0,5113.0,2170.0,3108.0,1093.0,138.0,1624.0,5364.0,2333.0,3114.0,1186.0,131.0,1572.0,5206.0,2204.0,3309.0,1381.0,207.0,1440.0,4739.0,2345.0,3011.0,1226.0
120,SMITH-9 ST,40.6746048,-73.99703970000002,302.0,1485.0,2217.0,2266.0,1102.0,399.0,148.0,829.0,1574.0,1712.0,811.0,202.0,532.0,2678.0,1772.0,2862.0,1134.0,279.0,666.0,3531.0,1793.0,3428.0,1306.0,239.0,740.0,3553.0,1992.0,3531.0,1394.0,257.0,678.0,3505.0,1966.0,3376.0,1437.0,277.0,673.0,3294.0,2034.0,3131.0,1332.0
121,4 AV-9 ST,40.6701803,-73.98929150000002,159.0,864.0,1458.0,1731.0,1018.0,512.0,112.0,528.0,1319.0,1525.0,846.0,224.0,273.0,1902.0,1176.0,2615.0,1285.0,244.0,314.0,2352.0,1156.0,2991.0,1628.0,266.0,350.0,2357.0,981.0,2997.0,1638.0,272.0,311.0,2399.0,1099.0,2947.0,1458.0,340.0,342.0,2126.0,1290.0,2933.0,1561.0
122,67 AV,40.7263823,-73.8515929,214.0,1235.0,1387.0,1131.0,606.0,159.0,120.0,868.0,1032.0,852.0,497.0,102.0,671.0,4192.0,1855.0,2588.0,1375.0,182.0,983.0,5734.0,1996.0,3496.0,1631.0,187.0,1037.0,5953.0,2166.0,3525.0,1744.0,221.0,1003.0,5814.0,2107.0,3586.0,1550.0,224.0,964.0,5428.0,2114.0,3125.0,1466.0
123,ROCKAWAY AV,40.6625632,-73.9089054,376.0,1204.0,1467.0,1629.0,1133.0,457.0,308.0,871.0,1133.0,1329.0,809.0,367.0,692.0,2024.0,1568.0,2377.0,1145.0,373.0,914.0,3262.0,1747.0,3211.0,1388.0,463.0,985.0,3229.0,1905.0,3323.0,1434.0,431.0,911.0,2899.0,1854.0,3031.0,1170.0,452.0,858.0,2809.0,1933.0,2935.0,1419.0
124,PELHAM BAY PARK,40.852930799999996,-73.8270555,484.0,1299.0,1514.0,1750.0,939.0,442.0,302.0,952.0,1017.0,1388.0,808.0,296.0,1088.0,2803.0,1636.0,2330.0,1094.0,381.0,1549.0,4112.0,1728.0,2637.0,1242.0,386.0,1633.0,4179.0,1691.0,2862.0,1211.0,351.0,1536.0,4176.0,1606.0,2208.0,1620.0,482.0,1311.0,3734.0,1626.0,2519.0,1200.0
125,CLASSON AV,40.688873,-73.96007,186.0,1074.0,1865.0,2216.0,1514.0,609.0,121.0,906.0,2347.0,2477.0,1119.0,289.0,397.0,2697.0,1527.0,2739.0,1857.0,267.0,466.0,3673.0,1612.0,3076.0,2044.0,309.0,530.0,3704.0,1691.0,3294.0,2073.0,393.0,445.0,3636.0,1735.0,3510.0,2168.0,448.0,458.0,3596.0,1702.0,3299.0,2063.0
126,NEW LOTS AV,40.6663015,-73.88371579999998,530.0,1307.0,1434.0,1794.0,1078.0,526.0,387.0,998.0,1097.0,1346.0,976.0,426.0,1026.0,2106.0,1765.0,2554.0,1482.0,539.0,1349.0,3228.0,1689.0,3651.0,1701.0,596.0,1434.0,3377.0,1980.0,3743.0,1787.0,618.0,1440.0,3307.0,1865.0,3391.0,1546.0,558.0,1201.0,3051.0,1859.0,3444.0,1626.0
127,GRANT AV,40.6768777,-73.86534619999998,539.0,1553.0,1657.0,1751.0,1123.0,573.0,397.0,1069.0,1192.0,1305.0,953.0,373.0,934.0,2398.0,1746.0,2538.0,1427.0,466.0,1164.0,3434.0,1804.0,3019.0,1600.0,520.0,1229.0,3650.0,1925.0,2953.0,1696.0,551.0,1052.0,3384.0,1830.0,2780.0,1411.0,516.0,1042.0,3160.0,1819.0,2883.0,1531.0
128,STERLING ST,40.6632908,-73.951044,203.0,1285.0,1694.0,1617.0,867.0,380.0,198.0,982.0,1379.0,1238.0,742.0,236.0,486.0,2565.0,1490.0,2107.0,1177.0,243.0,635.0,3434.0,1556.0,2428.0,1459.0,256.0,644.0,3529.0,1618.0,2660.0,1436.0,265.0,340.0,2148.0,1127.0,2584.0,1384.0,312.0,589.0,3248.0,1775.0,2415.0,1337.0
129,PROSPECT AV,40.66541369999999,-73.99292590000002,222.0,1100.0,1378.0,1603.0,799.0,404.0,143.0,690.0,1204.0,1211.0,676.0,222.0,476.0,2973.0,1281.0,2626.0,1211.0,259.0,589.0,4326.0,1455.0,3207.0,1372.0,340.0,605.0,4170.0,1517.0,3106.0,1367.0,347.0,586.0,4172.0,1544.0,3256.0,1466.0,350.0,549.0,3882.0,1642.0,3005.0,1333.0
130,18 ST,40.74122390000001,-73.9980319,145.0,1000.0,2466.0,2811.0,1520.0,537.0,129.0,597.0,1874.0,2326.0,831.0,199.0,213.0,2965.0,2423.0,4863.0,1572.0,98.0,268.0,3979.0,2650.0,5805.0,2062.0,115.0,271.0,3869.0,3306.0,5982.0,2172.0,107.0,263.0,3940.0,3308.0,6124.0,2378.0,151.0,233.0,3350.0,3059.0,5213.0,1974.0
131,SARATOGA AV,40.669094,-73.91828199999998,407.0,1132.0,1240.0,1482.0,1081.0,414.0,293.0,886.0,957.0,1151.0,865.0,273.0,961.0,2199.0,1437.0,2568.0,1423.0,363.0,1270.0,3171.0,1547.0,3391.0,1821.0,388.0,1345.0,3253.0,1705.0,3307.0,1884.0,442.0,1244.0,3174.0,1623.0,3347.0,1473.0,400.0,1133.0,2982.0,1616.0,3085.0,1674.0
132,WILSON AV,40.6887823,-73.90467240000001,0.0,0.0,0.0,0.0,0.0,0.0,1.0,1.0,0.0,1.0,0.0,2.0,410.0,1910.0,1193.0,2009.0,1395.0,94.0,528.0,2508.0,1230.0,2420.0,1546.0,102.0,552.0,2621.0,1324.0,2525.0,1610.0,111.0,505.0,2581.0,1382.0,2363.0,1470.0,131.0,486.0,2453.0,1412.0,2347.0,1590.0
133,V.CORTLANDT PK,40.89642429999999,-73.8852842,464.0,2010.0,2777.0,2046.0,1033.0,373.0,332.0,1139.0,1732.0,1564.0,812.0,225.0,1371.0,3507.0,1690.0,2793.0,1144.0,193.0,1610.0,4182.0,1508.0,2960.0,1270.0,200.0,1773.0,3622.0,1272.0,3125.0,1199.0,202.0,1689.0,4330.0,1618.0,3141.0,1664.0,390.0,1240.0,3520.0,1763.0,2627.0,1296.0
134,WESTCHESTER SQ,40.840124700000004,-73.84282579999999,471.0,1413.0,1533.0,1634.0,989.0,383.0,334.0,835.0,1116.0,1162.0,697.0,300.0,847.0,2341.0,1891.0,2719.0,1237.0,396.0,1078.0,3712.0,2160.0,3747.0,1578.0,433.0,1178.0,3819.0,2234.0,4020.0,1472.0,440.0,1145.0,3658.0,2159.0,3510.0,2138.0,612.0,996.0,3261.0,2123.0,3400.0,1342.0
135,FAR ROCKAWAY,40.6077527,-73.7517548,575.0,1206.0,1299.0,1528.0,908.0,379.0,493.0,899.0,977.0,1126.0,777.0,325.0,983.0,1810.0,1356.0,2298.0,1224.0,315.0,1289.0,2261.0,1321.0,2784.0,1309.0,420.0,1319.0,2479.0,1501.0,2940.0,1356.0,433.0,1230.0,2324.0,1384.0,2608.0,1201.0,386.0,1136.0,2260.0,1441.0,2842.0,1302.0
136,WOODLAWN,40.88603699999999,-73.878751,440.0,1075.0,1148.0,1311.0,773.0,343.0,278.0,642.0,936.0,1021.0,627.0,259.0,1205.0,1939.0,1196.0,1928.0,939.0,328.0,1348.0,2975.0,1204.0,2059.0,907.0,333.0,1503.0,2797.0,1391.0,2149.0,941.0,301.0,1526.0,2663.0,1133.0,1507.0,1108.0,459.0,1077.0,2050.0,1214.0,1639.0,782.0
137,CORTELYOU RD,40.6412697,-73.9639694,204.0,903.0,1005.0,864.0,473.0,158.0,153.0,658.0,863.0,718.0,419.0,107.0,607.0,2744.0,1425.0,1581.0,746.0,133.0,778.0,3712.0,1330.0,1906.0,759.0,153.0,824.0,3711.0,1428.0,2002.0,850.0,145.0,779.0,3631.0,1477.0,1706.0,736.0,150.0,729.0,3416.0,1548.0,1786.0,798.0
138,BERGEN ST,40.686083200000006,-73.9909074,79.0,874.0,1671.0,1978.0,1140.0,386.0,75.0,679.0,1387.0,1551.0,896.0,160.0,143.0,1995.0,947.0,1605.0,875.0,101.0,198.0,2843.0,979.0,1995.0,1141.0,122.0,127.0,2313.0,1069.0,2213.0,1147.0,164.0,201.0,2745.0,1043.0,2117.0,1144.0,163.0,173.0,2544.0,1088.0,2131.0,1143.0
139,BEDFORD PK BLVD,40.8732636,-73.8871965,384.0,1115.0,1304.0,1232.0,753.0,421.0,284.0,782.0,857.0,868.0,577.0,212.0,815.0,1791.0,1551.0,2079.0,1276.0,325.0,947.0,2861.0,1756.0,3587.0,1456.0,368.0,953.0,2885.0,1867.0,3524.0,1423.0,406.0,1000.0,2836.0,1774.0,3765.0,1840.0,523.0,851.0,2495.0,1800.0,2740.0,987.0
140,HARLEM 148 ST,40.8240504,-73.9369385,267.0,1196.0,1481.0,1680.0,1085.0,483.0,223.0,847.0,1239.0,1292.0,964.0,315.0,507.0,2048.0,1401.0,2261.0,1183.0,135.0,626.0,3374.0,1526.0,2943.0,1522.0,225.0,701.0,3466.0,1817.0,3019.0,1452.0,325.0,685.0,3402.0,1604.0,3297.0,2196.0,366.0,670.0,2055.0,1661.0,2746.0,1459.0
141,BAY RIDGE-95 ST,40.6167174,-74.0308527,253.0,1133.0,1350.0,1330.0,748.0,295.0,177.0,884.0,1053.0,996.0,616.0,225.0,612.0,2658.0,1396.0,2101.0,987.0,240.0,911.0,3629.0,1348.0,2631.0,1154.0,235.0,926.0,3760.0,1380.0,2739.0,1304.0,263.0,924.0,3665.0,1371.0,2765.0,1439.0,282.0,902.0,3442.0,1304.0,2544.0,1147.0
142,CLINTON-WASH AV,40.683498900000004,-73.9668944,204.0,1510.0,2438.0,2542.0,1698.0,709.0,182.0,1009.0,2088.0,2062.0,1130.0,314.0,357.0,3463.0,1547.0,2491.0,1563.0,318.0,554.0,5378.0,1848.0,3778.0,1892.0,340.0,493.0,5390.0,1912.0,3661.0,2000.0,380.0,359.0,5228.0,2144.0,3772.0,2062.0,504.0,440.0,4976.0,2267.0,3458.0,1903.0
143,KINGSTON-THROOP,40.679826500000004,-73.94112940000001,361.0,1600.0,2450.0,2449.0,1634.0,1055.0,295.0,1207.0,1998.0,1959.0,1345.0,538.0,537.0,3144.0,1835.0,2722.0,1800.0,644.0,706.0,4253.0,1911.0,3301.0,2031.0,682.0,800.0,4218.0,1876.0,3532.0,2149.0,682.0,578.0,4127.0,2074.0,3419.0,2024.0,773.0,658.0,3973.0,2222.0,3238.0,1912.0
144,ST LAWRENCE AV,40.8315326,-73.8672593,486.0,1088.0,1140.0,1325.0,913.0,497.0,356.0,755.0,1008.0,1161.0,690.0,395.0,866.0,1512.0,1052.0,1681.0,988.0,431.0,973.0,2275.0,1219.0,2190.0,1093.0,499.0,1010.0,2276.0,997.0,2274.0,1138.0,521.0,1004.0,2150.0,1051.0,2075.0,1752.0,575.0,931.0,2239.0,1277.0,2082.0,1185.0
145,176 ST,40.8484597,-73.9117411,365.0,1091.0,978.0,967.0,608.0,248.0,258.0,569.0,695.0,783.0,549.0,273.0,905.0,1976.0,1128.0,2134.0,1007.0,345.0,1078.0,3118.0,1488.0,2796.0,1157.0,381.0,1124.0,3088.0,1306.0,2842.0,1208.0,423.0,1117.0,2911.0,1578.0,2791.0,1399.0,449.0,1031.0,2967.0,1691.0,2560.0,1115.0
146,FULTON ST,40.709893,-74.0079818,163.0,992.0,2347.0,2738.0,1682.0,610.0,115.0,752.0,2028.0,2245.0,1043.0,236.0,281.0,1913.0,1468.0,2568.0,1427.0,235.0,370.0,2965.0,1783.0,4015.0,1883.0,273.0,370.0,2910.0,2107.0,4048.0,2070.0,317.0,380.0,2832.0,2025.0,4121.0,2108.0,325.0,359.0,2802.0,2114.0,3851.0,2035.0
147,AVENUE J,40.6252684,-73.9607296,202.0,940.0,900.0,973.0,467.0,126.0,144.0,820.0,1080.0,957.0,546.0,97.0,527.0,2729.0,1580.0,2412.0,1110.0,161.0,641.0,3303.0,1684.0,2737.0,1288.0,206.0,699.0,3392.0,1838.0,2730.0,1306.0,197.0,688.0,3466.0,1767.0,2640.0,1219.0,186.0,649.0,3068.0,1836.0,2203.0,828.0
148,183 ST,40.8583924,-73.90397810000002,598.0,1353.0,1296.0,1244.0,856.0,324.0,409.0,971.0,1016.0,1066.0,729.0,272.0,1004.0,1995.0,1380.0,1948.0,977.0,339.0,1191.0,2844.0,1532.0,2359.0,1111.0,352.0,1199.0,2925.0,1653.0,2340.0,1152.0,344.0,1203.0,2862.0,1496.0,2224.0,1214.0,420.0,1192.0,2751.0,1560.0,2122.0,1127.0
149,18 AV,40.6201053,-73.9894661,585.0,2427.0,2262.0,2389.0,1175.0,495.0,406.0,2052.0,2340.0,2219.0,1116.0,304.0,1225.0,4417.0,2197.0,3284.0,1296.0,254.0,1421.0,5450.0,2228.0,3859.0,1387.0,335.0,1505.0,5653.0,2598.0,4034.0,1479.0,297.0,1492.0,5303.0,2446.0,3764.0,1407.0,329.0,1392.0,5198.0,2516.0,3518.0,1224.0
150,KINGSTON AV,40.669284499999996,-73.9422927,175.0,882.0,1178.0,1326.0,1077.0,375.0,129.0,916.0,1386.0,1381.0,875.0,267.0,368.0,2154.0,1354.0,2099.0,1263.0,429.0,473.0,2721.0,1421.0,2343.0,1343.0,288.0,475.0,2802.0,1541.0,2550.0,1332.0,373.0,495.0,2735.0,1453.0,2276.0,1279.0,339.0,458.0,2603.0,2205.0,2194.0,1072.0
151,BEVERLEY ROAD,40.644229100000004,-73.96449799999998,138.0,443.0,501.0,560.0,415.0,172.0,90.0,334.0,394.0,425.0,277.0,97.0,303.0,1531.0,849.0,1503.0,1042.0,201.0,447.0,2095.0,856.0,1833.0,1238.0,297.0,466.0,2115.0,892.0,1880.0,1235.0,262.0,455.0,2068.0,796.0,1731.0,1124.0,291.0,413.0,1987.0,886.0,1827.0,1357.0
152,71 ST,40.619621200000005,-73.99877699999998,452.0,1980.0,1458.0,1329.0,747.0,214.0,300.0,1569.0,1399.0,1059.0,638.0,165.0,786.0,2844.0,1230.0,1548.0,753.0,149.0,968.0,3455.0,1141.0,1779.0,828.0,178.0,1052.0,3585.0,1182.0,1748.0,816.0,135.0,971.0,3381.0,995.0,1576.0,796.0,189.0,920.0,3278.0,1131.0,1597.0,819.0
153,ST. GEORGE,40.64400390000001,-74.07332480000001,18.0,11.0,9.0,13.0,11.0,6.0,8.0,22.0,10.0,14.0,135.0,131.0,726.0,3516.0,1302.0,3791.0,1155.0,281.0,1653.0,5072.0,1543.0,5526.0,1515.0,293.0,1720.0,5166.0,1607.0,5384.0,1728.0,325.0,1627.0,4827.0,1500.0,6618.0,2445.0,346.0,1220.0,4711.0,1463.0,4730.0,1472.0
154,MT EDEN AV,40.844528499999996,-73.9146157,437.0,1039.0,974.0,938.0,674.0,306.0,258.0,702.0,690.0,776.0,614.0,360.0,964.0,2175.0,1274.0,2238.0,1109.0,441.0,1124.0,2821.0,1498.0,2630.0,1226.0,459.0,1196.0,3042.0,1282.0,2817.0,1219.0,454.0,1140.0,3012.0,1549.0,2706.0,1553.0,558.0,1053.0,2835.0,1585.0,2676.0,1245.0
155,MARBLE HILL-225,40.8743487,-73.91043309999998,287.0,1075.0,1228.0,1372.0,671.0,159.0,180.0,689.0,1035.0,1242.0,583.0,132.0,577.0,1797.0,1218.0,1782.0,713.0,62.0,716.0,2458.0,1171.0,2177.0,928.0,62.0,707.0,2483.0,1411.0,2126.0,830.0,73.0,720.0,2488.0,1238.0,2162.0,997.0,182.0,683.0,2197.0,1358.0,1999.0,793.0
156,174-175 STS,40.846524,-73.90972690000001,,,,,,,,,,,,,,,,,,,,,,,,,,,,,,,,,,,,,,,,,
157,33 ST-RAWSON ST,40.744587,-73.93099699999998,360.0,1448.0,1854.0,1572.0,529.0,164.0,290.0,668.0,910.0,951.0,372.0,162.0,798.0,4257.0,3241.0,6051.0,2406.0,239.0,1045.0,6511.0,4250.0,8462.0,2925.0,253.0,1136.0,6596.0,4558.0,8014.0,2848.0,242.0,1094.0,6430.0,4465.0,8433.0,2452.0,268.0,990.0,5565.0,3935.0,5915.0,1383.0
158,CITY HALL,40.7135245,-74.00671009999998,62.0,620.0,1362.0,1323.0,528.0,183.0,36.0,489.0,1209.0,1124.0,384.0,86.0,115.0,1604.0,1652.0,2538.0,967.0,92.0,215.0,2651.0,2020.0,4194.0,1261.0,124.0,245.0,2763.0,2248.0,4275.0,1195.0,121.0,222.0,2736.0,2128.0,3914.0,1096.0,,191.0,,,,1031.0
159,182-183 STS,40.8560934,-73.90102949999998,421.0,1088.0,1033.0,1068.0,687.0,297.0,313.0,719.0,869.0,920.0,570.0,219.0,756.0,1575.0,1030.0,1297.0,682.0,231.0,912.0,2182.0,1130.0,1410.0,660.0,218.0,916.0,2204.0,1145.0,1431.0,720.0,262.0,913.0,2127.0,1139.0,1600.0,803.0,272.0,876.0,2149.0,1204.0,1478.0,739.0
160,PRESIDENT ST,40.668158500000004,-73.95065859999998,177.0,814.0,1127.0,1095.0,767.0,409.0,153.0,604.0,904.0,906.0,667.0,202.0,317.0,2299.0,1423.0,2299.0,1229.0,270.0,389.0,3173.0,1476.0,3065.0,1596.0,262.0,421.0,3206.0,1632.0,2985.0,1580.0,281.0,404.0,3272.0,1557.0,2966.0,1443.0,344.0,373.0,2964.0,1577.0,2370.0,1280.0
161,77 ST,40.7736346,-73.95982939999998,181.0,1003.0,1226.0,1048.0,573.0,202.0,124.0,734.0,936.0,750.0,452.0,107.0,544.0,2599.0,1187.0,1507.0,750.0,162.0,819.0,3375.0,1172.0,1944.0,819.0,158.0,783.0,3512.0,1181.0,1935.0,891.0,144.0,795.0,3427.0,1181.0,2036.0,902.0,162.0,722.0,3112.0,1151.0,1790.0,829.0
162,GUN HILL RD,40.87773920000001,-73.86630459999998,325.0,788.0,756.0,598.0,396.0,155.0,211.0,472.0,567.0,512.0,305.0,126.0,1070.0,1848.0,1038.0,1047.0,509.0,152.0,1440.0,2649.0,1072.0,1252.0,558.0,138.0,1519.0,2876.0,1164.0,1283.0,616.0,138.0,1428.0,2819.0,1152.0,1089.0,750.0,176.0,1268.0,2397.0,1163.0,1092.0,555.0
163,79 ST,40.783934,-73.979917,363.0,1676.0,1143.0,990.0,493.0,173.0,236.0,1340.0,1131.0,840.0,458.0,113.0,827.0,2873.0,1115.0,1201.0,648.0,132.0,1006.0,3960.0,1280.0,1635.0,682.0,155.0,1071.0,4013.0,1416.0,1473.0,611.0,130.0,1043.0,3818.0,1249.0,1498.0,590.0,116.0,973.0,3715.0,1308.0,1429.0,596.0
164,190 ST,40.858887700000004,-73.93422159999999,115.0,904.0,1797.0,1322.0,437.0,145.0,85.0,705.0,,,352.0,73.0,358.0,2127.0,1110.0,1433.0,527.0,124.0,457.0,2783.0,947.0,1434.0,582.0,108.0,494.0,2870.0,1134.0,1374.0,555.0,120.0,459.0,2802.0,994.0,1608.0,768.0,139.0,432.0,2590.0,1065.0,1369.0,561.0
165,20 AV,40.617271,-73.9847709,301.0,1216.0,1103.0,1120.0,515.0,101.0,211.0,982.0,964.0,998.0,447.0,71.0,699.0,2185.0,1021.0,1332.0,645.0,101.0,837.0,2546.0,952.0,1413.0,682.0,88.0,843.0,2633.0,987.0,1474.0,667.0,85.0,842.0,2645.0,916.0,1337.0,647.0,94.0,797.0,2545.0,954.0,1429.0,659.0
166,25 ST,40.6604039,-73.99810550000001,79.0,292.0,1163.0,1330.0,696.0,371.0,139.0,654.0,897.0,1078.0,527.0,227.0,366.0,431.0,1046.0,797.0,870.0,247.0,481.0,2431.0,1017.0,1984.0,938.0,250.0,485.0,2423.0,1123.0,1955.0,993.0,205.0,135.0,557.0,458.0,1013.0,621.0,245.0,173.0,530.0,480.0,893.0,596.0
167,BRIARWOOD,40.7093666,-73.81988539999998,200.0,661.0,699.0,852.0,434.0,147.0,134.0,410.0,486.0,626.0,327.0,102.0,647.0,2116.0,1074.0,1406.0,812.0,106.0,800.0,2963.0,1245.0,1958.0,998.0,132.0,833.0,3092.0,1398.0,2120.0,1048.0,142.0,801.0,2983.0,1386.0,2056.0,969.0,166.0,738.0,2863.0,1461.0,1822.0,948.0
168,AQUEDUCT RACETR,40.6721498,-73.8356843,172.0,85.0,419.0,902.0,499.0,224.0,174.0,72.0,418.0,860.0,435.0,160.0,121.0,149.0,368.0,584.0,342.0,120.0,110.0,213.0,329.0,475.0,298.0,123.0,138.0,199.0,416.0,714.0,353.0,140.0,143.0,201.0,358.0,488.0,222.0,109.0,104.0,169.0,396.0,662.0,497.0
169,PENNSYLVANIA AV,40.6646911,-73.8941747,268.0,873.0,1016.0,965.0,656.0,231.0,196.0,628.0,821.0,796.0,495.0,182.0,581.0,1331.0,1015.0,1321.0,742.0,182.0,775.0,2539.0,1244.0,2123.0,797.0,215.0,809.0,2532.0,1346.0,2050.0,738.0,252.0,758.0,2371.0,1230.0,1861.0,706.0,214.0,692.0,2214.0,1306.0,1764.0,818.0
170,AVENUE M,40.6180725,-73.9593745,147.0,802.0,844.0,757.0,425.0,101.0,99.0,775.0,924.0,865.0,409.0,60.0,457.0,2375.0,1318.0,2111.0,725.0,73.0,527.0,3526.0,1740.0,2593.0,793.0,110.0,553.0,3656.0,1709.0,2649.0,931.0,88.0,535.0,3652.0,1761.0,2402.0,861.0,113.0,519.0,3356.0,2134.0,1853.0,516.0
171,OCEAN PKWY,40.5762935,-73.9684997,113.0,590.0,775.0,793.0,346.0,116.0,66.0,505.0,666.0,602.0,320.0,75.0,263.0,1096.0,932.0,1089.0,478.0,83.0,371.0,1168.0,872.0,1306.0,568.0,95.0,390.0,1589.0,1076.0,1486.0,550.0,95.0,378.0,1540.0,922.0,1289.0,526.0,85.0,387.0,1449.0,1082.0,1188.0,423.0
172,AVENUE H,40.6297445,-73.96166170000001,107.0,452.0,516.0,558.0,320.0,105.0,70.0,334.0,465.0,522.0,315.0,86.0,240.0,1877.0,1246.0,1976.0,963.0,121.0,339.0,2306.0,1374.0,2356.0,1109.0,185.0,358.0,2394.0,1419.0,2351.0,1172.0,176.0,356.0,2311.0,1373.0,2032.0,1014.0,173.0,333.0,1823.0,1153.0,1577.0,652.0
173,JUNIUS ST,40.67504,-73.904496,133.0,583.0,625.0,743.0,433.0,207.0,111.0,406.0,445.0,561.0,401.0,123.0,288.0,927.0,704.0,1177.0,528.0,171.0,369.0,1375.0,755.0,1685.0,706.0,189.0,372.0,1535.0,804.0,1630.0,679.0,182.0,383.0,1432.0,819.0,1562.0,554.0,148.0,320.0,1418.0,846.0,1559.0,636.0
174,NECK RD,40.595153100000005,-73.9550266,198.0,931.0,747.0,729.0,407.0,105.0,142.0,642.0,639.0,575.0,324.0,82.0,486.0,2091.0,799.0,1273.0,559.0,86.0,628.0,2707.0,807.0,1483.0,704.0,101.0,639.0,2691.0,810.0,1400.0,686.0,95.0,614.0,2689.0,769.0,1432.0,638.0,123.0,611.0,2477.0,807.0,1326.0,582.0
175,VAN SICLEN AV,40.67274219999999,-73.8903155,214.0,660.0,794.0,965.0,561.0,284.0,154.0,482.0,530.0,651.0,505.0,208.0,481.0,1140.0,816.0,1349.0,754.0,220.0,620.0,1781.0,839.0,1830.0,898.0,226.0,673.0,1843.0,915.0,1837.0,888.0,274.0,669.0,1796.0,871.0,1746.0,777.0,217.0,564.0,1712.0,993.0,1767.0,914.0
176,138/GRAND CONC,40.8132249,-73.9298111,334.0,658.0,571.0,726.0,403.0,192.0,200.0,324.0,393.0,566.0,334.0,166.0,603.0,1237.0,853.0,1432.0,532.0,194.0,699.0,1680.0,1145.0,1850.0,605.0,221.0,729.0,1776.0,1179.0,1922.0,674.0,208.0,692.0,1744.0,1125.0,1839.0,957.0,293.0,590.0,1867.0,1140.0,1651.0,554.0
177,BEVERLY RD,40.8322067,-73.3848891,274.0,936.0,971.0,890.0,502.0,149.0,227.0,667.0,760.0,617.0,330.0,74.0,599.0,1601.0,823.0,818.0,428.0,105.0,741.0,2330.0,878.0,992.0,467.0,104.0,762.0,2429.0,934.0,966.0,516.0,94.0,748.0,2345.0,881.0,891.0,430.0,102.0,695.0,2219.0,883.0,1026.0,517.0
178,75 AV,40.718331,-73.837324,30.0,280.0,395.0,427.0,247.0,100.0,46.0,214.0,357.0,357.0,134.0,46.0,131.0,1546.0,776.0,925.0,391.0,58.0,276.0,2138.0,725.0,1029.0,435.0,52.0,298.0,2140.0,746.0,1000.0,415.0,51.0,296.0,2034.0,555.0,955.0,437.0,63.0,280.0,1984.0,806.0,1024.0,460.0
179,BUSHWICK AV,40.7002958,-73.94116439999998,0.0,0.0,1.0,2.0,2.0,0.0,0.0,0.0,0.0,1.0,0.0,0.0,169.0,822.0,542.0,813.0,597.0,26.0,229.0,1176.0,563.0,966.0,602.0,41.0,248.0,1205.0,499.0,1013.0,643.0,47.0,253.0,1167.0,521.0,899.0,557.0,66.0,231.0,1102.0,635.0,882.0,667.0
180,BEACH 67 ST,40.5909714,-73.79631690000001,218.0,522.0,568.0,584.0,389.0,195.0,168.0,402.0,434.0,459.0,315.0,134.0,466.0,738.0,609.0,777.0,466.0,147.0,590.0,1056.0,607.0,951.0,541.0,164.0,639.0,1097.0,676.0,1009.0,531.0,143.0,584.0,1015.0,602.0,903.0,437.0,170.0,543.0,1006.0,609.0,952.0,515.0
181,WHITLOCK AV,40.82674420000001,-73.88634559999998,231.0,497.0,508.0,620.0,392.0,181.0,174.0,368.0,402.0,489.0,322.0,147.0,366.0,826.0,510.0,938.0,482.0,210.0,400.0,1295.0,635.0,1221.0,547.0,225.0,440.0,1255.0,465.0,1186.0,539.0,204.0,437.0,1247.0,449.0,1266.0,1124.0,289.0,408.0,961.0,620.0,1084.0,527.0
182,W 8 ST-AQUARIUM,40.57612779999999,-73.97596539999998,52.0,418.0,709.0,533.0,178.0,41.0,32.0,329.0,606.0,504.0,151.0,39.0,163.0,794.0,766.0,692.0,267.0,36.0,221.0,1237.0,927.0,901.0,270.0,41.0,251.0,1236.0,926.0,875.0,250.0,49.0,231.0,1116.0,740.0,813.0,233.0,59.0,220.0,1067.0,759.0,833.0,227.0
183,PARK PLACE,40.7132422,-74.0092559,59.0,386.0,764.0,807.0,337.0,96.0,32.0,282.0,591.0,643.0,243.0,65.0,155.0,1210.0,915.0,1542.0,509.0,52.0,197.0,1946.0,1116.0,2461.0,714.0,43.0,218.0,2069.0,1202.0,2570.0,760.0,87.0,214.0,1966.0,1305.0,2376.0,610.0,74.0,189.0,1410.0,1082.0,2143.0,599.0
184,215 ST,40.8695946,-73.9153019,64.0,355.0,470.0,580.0,191.0,81.0,39.0,232.0,423.0,361.0,160.0,59.0,109.0,552.0,431.0,579.0,256.0,63.0,144.0,669.0,469.0,732.0,328.0,75.0,146.0,766.0,584.0,792.0,294.0,60.0,150.0,771.0,624.0,885.0,354.0,88.0,134.0,690.0,532.0,636.0,297.0
185,HOWARD BCH JFK,40.660476,-73.83030099999998,353.0,550.0,413.0,501.0,477.0,291.0,244.0,330.0,468.0,537.0,473.0,205.0,298.0,651.0,481.0,701.0,399.0,199.0,419.0,766.0,517.0,654.0,398.0,204.0,396.0,702.0,498.0,688.0,401.0,207.0,368.0,692.0,440.0,673.0,503.0,305.0,383.0,666.0,504.0,735.0,440.0
186,BEACH 25 ST,40.59946790000001,-73.7618536,190.0,388.0,423.0,461.0,335.0,210.0,140.0,307.0,310.0,421.0,305.0,158.0,391.0,679.0,,,550.0,161.0,562.0,1052.0,578.0,1092.0,676.0,188.0,589.0,1131.0,677.0,1201.0,585.0,245.0,552.0,1176.0,575.0,1006.0,581.0,208.0,505.0,1011.0,589.0,973.0,583.0
187,BEACH 60 ST,40.59244,-73.78928300000003,230.0,440.0,,487.0,,174.0,199.0,359.0,355.0,401.0,308.0,140.0,420.0,634.0,474.0,726.0,397.0,144.0,606.0,996.0,558.0,967.0,487.0,178.0,648.0,1075.0,609.0,975.0,500.0,170.0,595.0,1021.0,606.0,892.0,419.0,173.0,560.0,918.0,596.0,995.0,483.0
188,ATLANTIC AV,40.675554,-73.90305759999998,57.0,215.0,188.0,222.0,160.0,8.0,9.0,93.0,157.0,133.0,111.0,42.0,175.0,593.0,333.0,605.0,252.0,40.0,282.0,976.0,428.0,835.0,316.0,49.0,271.0,1045.0,441.0,834.0,307.0,39.0,285.0,954.0,401.0,807.0,291.0,44.0,260.0,936.0,469.0,783.0,279.0
189,BEACH 36 ST,40.595532,-73.7681238,94.0,191.0,224.0,278.0,176.0,87.0,90.0,164.0,224.0,207.0,205.0,65.0,190.0,344.0,288.0,447.0,287.0,77.0,275.0,,,555.0,332.0,84.0,269.0,537.0,270.0,613.0,333.0,80.0,284.0,505.0,271.0,531.0,299.0,79.0,241.0,475.0,268.0,513.0,302.0
190,55 ST,40.6315514,-73.9956328,101.0,364.0,353.0,348.0,278.0,107.0,53.0,478.0,634.0,598.0,297.0,58.0,164.0,899.0,691.0,1013.0,421.0,80.0,188.0,1128.0,748.0,1142.0,386.0,74.0,215.0,1071.0,708.0,1139.0,392.0,74.0,197.0,1053.0,702.0,1126.0,396.0,75.0,174.0,1023.0,859.0,946.0,194.0
191,104 ST,40.695145600000004,-73.8443046,176.0,318.0,315.0,292.0,145.0,45.0,78.0,248.0,250.0,251.0,111.0,51.0,728.0,1176.0,533.0,610.0,314.0,69.0,871.0,1603.0,644.0,784.0,350.0,72.0,887.0,1646.0,547.0,829.0,352.0,74.0,804.0,1583.0,590.0,744.0,313.0,82.0,799.0,1504.0,601.0,738.0,345.0
192,BEACH 44 ST,40.592920899999996,-73.77594839999998,81.0,164.0,200.0,243.0,164.0,84.0,83.0,162.0,163.0,155.0,156.0,84.0,194.0,258.0,201.0,409.0,210.0,77.0,227.0,391.0,246.0,441.0,248.0,92.0,272.0,395.0,200.0,485.0,257.0,87.0,227.0,410.0,215.0,406.0,186.0,100.0,229.0,374.0,214.0,475.0,203.0
193,WORLD TRADE CTR,40.712645200000004,-74.00989799999998,445.0,2744.0,5657.0,6154.0,2361.0,853.0,313.0,1902.0,4210.0,4882.0,1815.0,439.0,769.0,7699.0,4916.0,10314.0,3150.0,482.0,1343.0,10368.0,4836.0,12209.0,3934.0,547.0,1371.0,10101.0,4487.0,10886.0,4078.0,990211.0,1264.0,8544.0,4836.0,12755.0,5060.0,755.0,1221.0,8882.0,5361.0,11773.0,3643.0
194,NASSAU AV,40.7238944,-73.9506777,392.0,1807.0,3761.0,4785.0,2862.0,1137.0,264.0,1399.0,3273.0,3694.0,1849.0,664.0,675.0,4237.0,2044.0,4014.0,1947.0,340.0,809.0,5496.0,2088.0,4774.0,2490.0,529.0,811.0,5371.0,2309.0,4917.0,2647.0,630.0,823.0,5331.0,2146.0,5094.0,2784.0,815.0,752.0,5151.0,2397.0,4980.0,2469.0
195,39 AV,40.752689700000005,-73.9328056,,,,,,,,,,,,,,,,,,,,,,,,,,,,,,,,,,,,,,,,,
196,36 AV,40.7668516,-73.921313,354.0,1573.0,2454.0,3181.0,2022.0,970.0,286.0,1029.0,1963.0,2462.0,1442.0,557.0,853.0,5019.0,1854.0,5013.0,3122.0,703.0,1099.0,6556.0,2122.0,6368.0,3600.0,872.0,1192.0,6495.0,2097.0,6452.0,3657.0,857.0,1118.0,6760.0,2708.0,5466.0,3652.0,1338.0,1054.0,6338.0,2709.0,6302.0,3033.0
197,BROADWAY,40.7623472,-73.9256595,,,,,,,,,,,,,,,,,,,,,,,,,,,,,,,,,,,,,,,,,
198,COURT SQ-23 ST,40.748050799999994,-73.94704779999998,181.0,863.0,1149.0,1198.0,571.0,178.0,121.0,665.0,943.0,980.0,385.0,83.0,296.0,2121.0,1056.0,2156.0,795.0,134.0,551.0,2911.0,1451.0,2918.0,964.0,153.0,606.0,3238.0,1602.0,2949.0,973.0,147.0,572.0,2976.0,1510.0,2915.0,1013.0,182.0,508.0,2757.0,1560.0,2853.0,936.0
199,ASTORIA DITMARS,40.7750119,-73.91211,617.0,2866.0,3873.0,4014.0,2525.0,1237.0,497.0,2004.0,3353.0,3123.0,2055.0,677.0,1319.0,7576.0,3537.0,5907.0,3659.0,734.0,1699.0,9338.0,3514.0,6525.0,4060.0,948.0,1809.0,9480.0,3524.0,6680.0,3982.0,1020.0,1773.0,9331.0,3497.0,5068.0,3740.0,1242.0,1486.0,8700.0,3665.0,6637.0,3816.0
200,CYPRESS HILLS,40.68994860000001,-73.87257310000003,17.0,1.0,1.0,2.0,5.0,1.0,3.0,,,4.0,18.0,57.0,267.0,485.0,301.0,477.0,215.0,73.0,381.0,807.0,352.0,636.0,278.0,52.0,385.0,895.0,420.0,702.0,255.0,54.0,332.0,805.0,357.0,598.0,265.0,70.0,353.0,916.0,390.0,606.0,238.0
201,30 AV,40.7668516,-73.921313,474.0,2591.0,3936.0,4811.0,2872.0,1417.0,359.0,1632.0,3037.0,3438.0,2291.0,726.0,1266.0,8708.0,3114.0,7755.0,4907.0,1125.0,1622.0,10749.0,3015.0,9046.0,6074.0,1301.0,1768.0,10908.0,3137.0,8618.0,6244.0,1355.0,1653.0,10959.0,4203.0,7513.0,5971.0,2068.0,1597.0,10237.0,4282.0,8745.0,4807.0
202,121 ST,40.7006094,-73.8281286,10.0,4.0,7.0,3.0,0.0,1.0,0.0,0.0,0.0,0.0,25.0,39.0,268.0,439.0,259.0,451.0,176.0,65.0,280.0,563.0,264.0,583.0,253.0,59.0,298.0,650.0,381.0,824.0,332.0,98.0,310.0,754.0,465.0,808.0,370.0,112.0,348.0,777.0,456.0,921.0,390.0
203,75 ST-ELDERTS,40.69143649999999,-73.8665512,14.0,0.0,0.0,0.0,0.0,0.0,0.0,0.0,0.0,0.0,48.0,106.0,679.0,1291.0,736.0,1143.0,563.0,142.0,853.0,2176.0,800.0,1735.0,715.0,151.0,907.0,2190.0,944.0,1770.0,740.0,166.0,875.0,2162.0,849.0,1614.0,718.0,186.0,838.0,2072.0,890.0,1512.0,676.0
204,AVENUE X,40.589682200000006,-73.9742509,235.0,783.0,621.0,863.0,435.0,135.0,156.0,622.0,647.0,699.0,411.0,101.0,364.0,1203.0,690.0,1066.0,609.0,123.0,521.0,1614.0,758.0,1290.0,648.0,117.0,525.0,1733.0,714.0,1372.0,707.0,133.0,474.0,1638.0,777.0,1303.0,687.0,139.0,484.0,1506.0,766.0,1170.0,595.0
205,AVENUE P,40.6087814,-73.97290840000001,159.0,679.0,470.0,584.0,270.0,122.0,117.0,647.0,612.0,533.0,255.0,89.0,311.0,1211.0,456.0,771.0,328.0,86.0,369.0,1494.0,479.0,797.0,368.0,82.0,357.0,1450.0,476.0,820.0,386.0,94.0,349.0,1427.0,479.0,743.0,384.0,78.0,385.0,1369.0,538.0,729.0,318.0
206,85 ST-FOREST PK,40.6924861,-73.8590708,29.0,5.0,0.0,0.0,0.0,0.0,0.0,0.0,0.0,1.0,31.0,118.0,750.0,1385.0,865.0,1090.0,610.0,140.0,877.0,1993.0,897.0,1350.0,659.0,165.0,943.0,1934.0,914.0,1393.0,727.0,161.0,959.0,1968.0,844.0,1391.0,697.0,165.0,848.0,1928.0,875.0,1385.0,630.0
207,WOODHAVEN BLVD,40.6939097,-73.85139269999998,23.0,31.0,18.0,9.0,6.0,1.0,1.0,2.0,6.0,0.0,61.0,161.0,784.0,1709.0,1000.0,1529.0,723.0,188.0,896.0,2563.0,1148.0,1974.0,738.0,217.0,952.0,2621.0,1053.0,1968.0,775.0,196.0,934.0,2519.0,1065.0,1835.0,740.0,222.0,900.0,2412.0,1093.0,1805.0,790.0
208,METROPOLITAN AV,40.712132700000005,-73.889276,195.0,786.0,1126.0,1145.0,564.0,172.0,118.0,520.0,870.0,1055.0,457.0,133.0,534.0,1555.0,1074.0,1846.0,662.0,122.0,780.0,2159.0,969.0,2553.0,822.0,131.0,785.0,2339.0,1177.0,2453.0,879.0,147.0,765.0,2241.0,1055.0,2166.0,809.0,158.0,631.0,2084.0,1062.0,2396.0,820.0
209,GREENPOINT AV,40.7301618,-73.9540458,332.0,1826.0,3382.0,4211.0,2283.0,744.0,185.0,1234.0,2872.0,3106.0,1417.0,379.0,716.0,4748.0,2432.0,4744.0,2352.0,344.0,967.0,6044.0,2535.0,5635.0,3074.0,419.0,951.0,5926.0,2808.0,5703.0,3029.0,467.0,914.0,6053.0,2733.0,5923.0,3224.0,636.0,985.0,6064.0,3032.0,5892.0,3207.0
