,StationName,Latitude,Longitude,2019-02-09 03:00:00,2019-02-09 07:00:00,2019-02-09 11:00:00,2019-02-09 15:00:00,2019-02-09 19:00:00,2019-02-09 23:00:00,2019-02-10 03:00:00,2019-02-10 07:00:00,2019-02-10 11:00:00,2019-02-10 15:00:00,2019-02-10 19:00:00,2019-02-10 23:00:00,2019-02-11 03:00:00,2019-02-11 07:00:00,2019-02-11 11:00:00,2019-02-11 15:00:00,2019-02-11 19:00:00,2019-02-11 23:00:00,2019-02-12 03:00:00,2019-02-12 07:00:00,2019-02-12 11:00:00,2019-02-12 15:00:00,2019-02-12 19:00:00,2019-02-12 23:00:00,2019-02-13 03:00:00,2019-02-13 07:00:00,2019-02-13 11:00:00,2019-02-13 15:00:00,2019-02-13 19:00:00,2019-02-13 23:00:00,2019-02-14 03:00:00,2019-02-14 07:00:00,2019-02-14 11:00:00,2019-02-14 15:00:00,2019-02-14 19:00:00,2019-02-14 23:00:00,2019-02-15 03:00:00,2019-02-15 07:00:00,2019-02-15 11:00:00,2019-02-15 15:00:00,2019-02-15 19:00:00
0,34 ST-HERALD SQ,40.748897899999996,-73.98878859999998,3008.0,15610.0,30684.0,40004.0,25910.0,7240.0,2173.0,11020.0,24061.0,31788.0,17604.0,3057.0,6881.0,62238.0,36822.0,82021.0,32190.0,2637.0,5926.0,30491.0,33571.0,74739.0,28106.0,4567.0,7018.0,64478.0,40528.0,85698.0,39305.0,4993.0,7235.0,64049.0,41796.0,88824.0,36561.0,6766.0,6908.0,57151.0,43277.0,82786.0,37139.0
1,TIMES SQ-42 ST,40.7545563,-73.98667370000001,2649.0,13876.0,27159.0,37506.0,26922.0,9062.0,1815.0,9584.0,22985.0,28678.0,16535.0,4205.0,5925.0,49783.0,26977.0,60867.0,26229.0,5086.0,5942.0,47061.0,24919.0,56845.0,25353.0,4794.0,6058.0,51695.0,31532.0,65520.0,30773.0,5999.0,6142.0,48276.0,30239.0,70338.0,34963.0,8569.0,5966.0,46185.0,32382.0,63753.0,34667.0
2,34 ST-PENN STA,40.751056,-73.99031020000001,4104.0,18629.0,32383.0,37672.0,23272.0,6804.0,2639.0,12720.0,26149.0,32195.0,17717.0,3263.0,11658.0,73117.0,31788.0,80878.0,27751.0,4194.0,11315.0,50539.0,25282.0,73784.0,25248.0,4997.0,11687.0,73947.0,33880.0,84348.0,34641.0,4696.0,11519.0,72493.0,269741.0,85401.0,29799.0,6025.0,10842.0,63638.0,37173.0,76445.0,28869.0
3,59 ST COLUMBUS,40.7684839,-73.98180699999999,1693.0,11834.0,21474.0,24701.0,13662.0,4297.0,1266.0,7840.0,17073.0,18694.0,9094.0,2289.0,4499.0,35412.0,24958.0,45151.0,20775.0,2835.0,4232.0,30165.0,20483.0,36691.0,16086.0,3115.0,4573.0,36801.0,27438.0,47076.0,23401.0,3474.0,4651.0,36798.0,27548.0,48552.0,23253.0,4646.0,4430.0,31351.0,25713.0,43074.0,19893.0
4,86 ST,40.7795016,-73.95557240000001,1615.0,11265.0,19979.0,23794.0,11773.0,2829.0,1179.0,7766.0,15762.0,16894.0,7273.0,328538.0,4910.0,34469.0,20014.0,39502.0,15569.0,1738.0,5040.0,32913.0,19669.0,36203.0,13550.0,1642.0,5027.0,35685.0,21808.0,39722.0,17146.0,2030.0,5085.0,35126.0,21948.0,40621.0,15836.0,2406.0,5018.0,32061.0,22503.0,38537.0,14677.0
5,GRD CNTRL-42 ST,40.75216470000001,-73.97715339999998,1663.0,9446.0,17742.0,19950.0,10088.0,2996.0,932.0,6346.0,13876.0,15197.0,7158.0,1365.0,6354.0,49240.0,21863.0,50942.0,16931.0,2143.0,6231.0,43585.0,20554.0,45906.0,14857.0,2067.0,6201.0,49885.0,23621.0,52471.0,19079.0,2439.0,6300.0,49540.0,24857.0,55018.0,17400.0,2962.0,5854.0,43019.0,24409.0,49101.0,17140.0
6,59 ST,40.6415685,-74.0176783,1429.0,10952.0,17328.0,20457.0,9707.0,3127.0,1415.0,7832.0,13812.0,15228.0,7373.0,1875.0,5530.0,36285.0,20217.0,41012.0,14772.0,2311.0,3412.0,18169.0,18732.0,38083.0,13011.0,2234.0,5665.0,37754.0,22535.0,42836.0,16071.0,2699.0,5581.0,37648.0,23037.0,43977.0,15562.0,3317.0,5422.0,34135.0,22741.0,39914.0,14138.0
7,FLUSHING-MAIN,40.75955820000001,-73.82992209999998,2863.0,15593.0,19081.0,19790.0,12747.0,3492.0,1808.0,10273.0,14449.0,15696.0,9856.0,2257.0,8058.0,30285.0,16639.0,29029.0,16778.0,2643.0,7836.0,26342.0,13600.0,25038.0,13128.0,2336.0,7931.0,30572.0,16387.0,29729.0,17058.0,2873.0,8065.0,30829.0,16406.0,31026.0,17367.0,3475.0,7813.0,28973.0,15966.0,31100.0,17675.0
8,ATL AV-BARCLAY,40.6837598,-73.97875739999998,2502.0,11021.0,19958.0,22444.0,11094.0,3805.0,1309.0,7347.0,16219.0,19348.0,8050.0,2069.0,3210.0,25023.0,12622.0,28220.0,10928.0,1837.0,2918.0,21787.0,11215.0,25097.0,9240.0,1944.0,2819.0,21391.0,13202.0,28864.0,12179.0,2242.0,3055.0,24255.0,12475.0,26793.0,12021.0,2914.0,2908.0,22094.0,14982.0,29845.0,14848.0
9,23 ST,40.7413626,-73.9891335,1137.0,8526.0,17701.0,21501.0,11785.0,3995.0,856.0,5351.0,13562.0,15616.0,7449.0,1456.0,2534.0,33311.0,21415.0,44844.0,20303.0,2134.0,2653.0,32741.0,19429.0,41949.0,17645.0,2120.0,2639.0,35237.0,23385.0,47215.0,22681.0,2503.0,2710.0,34601.0,22884.0,49194.0,20983.0,3141.0,2517.0,30726.0,22592.0,33072.0,14458.0
10,42 ST-PORT AUTH,40.7578346,-73.99146259999998,2489.0,14183.0,16603.0,19379.0,12901.0,3470.0,1324.0,9032.0,13482.0,15688.0,10174.0,2023.0,9735.0,40811.0,15793.0,37439.0,16786.0,2112.0,3485.0,16057.0,15318.0,35642.0,13982.0,1987.0,9134.0,41395.0,16523.0,38062.0,17982.0,2520.0,9767.0,40858.0,16386.0,39013.0,17095.0,2979.0,8849.0,36403.0,17214.0,36030.0,18542.0
11,14 ST,40.73747540000001,-73.9970975,1159.0,6414.0,14105.0,18326.0,11225.0,3666.0,896.0,4586.0,12751.0,14316.0,7126.0,1507.0,1656.0,18549.0,12217.0,24634.0,12303.0,1768.0,1852.0,17937.0,11004.0,21979.0,11021.0,1784.0,1843.0,19000.0,13178.0,25610.0,13884.0,2256.0,1795.0,18606.0,12849.0,26134.0,13388.0,2900.0,1758.0,16828.0,13689.0,24981.0,10257.0
12,JKSN HT-ROOSVLT,40.746739,-73.89099859999999,3352.0,12088.0,14644.0,17880.0,10636.0,5258.0,2514.0,8499.0,11803.0,14199.0,9061.0,3220.0,6124.0,23302.0,14326.0,24547.0,12969.0,3359.0,6196.0,21142.0,11573.0,20492.0,10570.0,3168.0,6314.0,23711.0,14527.0,24284.0,13160.0,3677.0,6358.0,23684.0,14528.0,25488.0,13708.0,4277.0,6338.0,22889.0,14822.0,26175.0,13633.0
13,BEDFORD AV,40.717354,-73.956972,4.0,11.0,41.0,64.0,39.0,17.0,35.0,53.0,49.0,24.0,30.0,28.0,1237.0,14305.0,7270.0,16189.0,9761.0,239.0,1406.0,14128.0,6601.0,14534.0,8815.0,277.0,1476.0,15030.0,8409.0,16287.0,11671.0,350.0,1387.0,14837.0,8404.0,18491.0,12258.0,375.0,1389.0,13673.0,9076.0,16754.0,12139.0
14,47-50 STS ROCK,40.75885,-73.98118610000002,1005.0,4155.0,8173.0,10748.0,5902.0,2186.0,555.0,2925.0,6012.0,7366.0,3592.0,917.0,4100.0,42512.0,17036.0,43663.0,12506.0,1902.0,4331.0,43297.0,17211.0,43988.0,12269.0,1982.0,4281.0,44588.0,19355.0,45834.0,15984.0,2236.0,4138.0,44309.0,19974.0,47897.0,15188.0,2787.0,4037.0,38978.0,19932.0,41373.0,13609.0
15,34 ST-HUDSON YD,40.7549713,-74.0010084,692.0,1693.0,2475.0,2671.0,1085.0,345.0,342.0,1022.0,1988.0,2175.0,967.0,191.0,2443.0,6321.0,3415.0,7472.0,2021.0,309.0,2468.0,6069.0,3177.0,6779.0,1863.0,305.0,2456.0,6395.0,3775.0,7727.0,2190.0,377.0,2580.0,6467.0,3872.0,8190.0,2078.0,442.0,2393.0,6007.0,4273.0,7638.0,2108.0
16,CHAMBERS ST,40.7155134,-74.00922270000001,863.0,7059.0,12484.0,12772.0,5916.0,1919.0,583.0,4536.0,9455.0,8942.0,4046.0,770.0,3088.0,33019.0,21456.0,42976.0,13884.0,1440.0,3029.0,26360.0,14704.0,32330.0,9260.0,1469.0,3306.0,34376.0,23292.0,42015.0,15008.0,1722.0,3386.0,33240.0,23112.0,44465.0,14085.0,2120.0,3025.0,29768.0,22251.0,38220.0,11124.0
17,125 ST,40.8043863,-73.9374292,1537.0,7918.0,12273.0,14286.0,9231.0,3005.0,1285.0,5798.0,10857.0,11464.0,6461.0,1578.0,3151.0,18780.0,12272.0,21544.0,9753.0,1931.0,3178.0,17077.0,10308.0,18025.0,8221.0,1869.0,3241.0,19268.0,12811.0,21874.0,10969.0,2236.0,3177.0,18177.0,12722.0,23110.0,11672.0,2801.0,3210.0,18094.0,13489.0,21863.0,11606.0
18,57 ST-7 AV,40.765564000000005,-73.9803309,842.0,5462.0,9517.0,11938.0,7287.0,2308.0,645.0,3891.0,7348.0,8686.0,4726.0,1210.0,1927.0,16655.0,9484.0,21098.0,9802.0,1573.0,2015.0,16796.0,8972.0,20032.0,8410.0,1573.0,1984.0,17976.0,10583.0,21483.0,10548.0,1882.0,2006.0,17698.0,10504.0,22882.0,10907.0,2443.0,1880.0,15882.0,10513.0,20673.0,10146.0
19,GRAND ST,40.7182003,-73.9935756,0.0,0.0,0.0,2.0,3.0,2.0,0.0,1.0,0.0,5.0,0.0,1.0,1450.0,15060.0,11022.0,16781.0,7146.0,1069.0,1755.0,14293.0,8471.0,13889.0,6218.0,975.0,1830.0,14690.0,10781.0,16311.0,8201.0,1288.0,1756.0,15154.0,10867.0,17245.0,8897.0,1561.0,1792.0,14377.0,11821.0,18025.0,9734.0
20,145 ST,40.8240532,-73.94476230000001,1889.0,8033.0,11287.0,12474.0,8237.0,3780.0,1535.0,5940.0,9424.0,10548.0,6480.0,2192.0,3469.0,19240.0,12000.0,19526.0,11571.0,2587.0,3501.0,16301.0,8835.0,15760.0,8559.0,2476.0,3583.0,18356.0,11465.0,19689.0,12383.0,2792.0,3665.0,19797.0,11799.0,20742.0,12104.0,3403.0,3452.0,17952.0,11573.0,19130.0,10831.0
21,42 ST-BRYANT PK,40.75483679999999,-73.9841215,746.0,3333.0,6750.0,8922.0,5000.0,1711.0,510.0,2147.0,5154.0,6320.0,3289.0,894.0,2313.0,24414.0,12245.0,29761.0,10496.0,1493.0,2379.0,24025.0,11379.0,27777.0,9391.0,1453.0,2363.0,25411.0,13325.0,30870.0,12047.0,1721.0,2395.0,25313.0,14214.0,32849.0,11950.0,2243.0,2293.0,22816.0,14423.0,29598.0,11479.0
22,2 AV,40.723412700000004,-73.9902885,844.0,3385.0,6991.0,10167.0,9046.0,4006.0,850.0,2677.0,6449.0,7856.0,4545.0,1083.0,995.0,8098.0,4888.0,9896.0,6162.0,885.0,949.0,8306.0,4678.0,9625.0,5761.0,829.0,917.0,8662.0,5143.0,10554.0,7072.0,981.0,967.0,8554.0,5398.0,12026.0,8136.0,1303.0,915.0,7689.0,5680.0,11052.0,8135.0
23,50 ST,40.7620363,-73.98632909999998,1726.0,8042.0,14159.0,18100.0,12473.0,5513.0,1571.0,6719.0,12473.0,13994.0,8280.0,2290.0,3445.0,26916.0,13260.0,30512.0,12908.0,2498.0,3103.0,22987.0,13209.0,29774.0,13312.0,2544.0,3276.0,26985.0,15338.0,32223.0,16276.0,3148.0,3363.0,26494.0,15187.0,33936.0,16624.0,4139.0,3205.0,24060.0,15566.0,30160.0,7651.0
24,CHURCH AV,40.6495233,-73.96328390000001,560.0,2488.0,2619.0,3163.0,1947.0,807.0,436.0,2027.0,2531.0,2757.0,1584.0,462.0,3142.0,15900.0,7955.0,14412.0,7966.0,1326.0,3319.0,14920.0,6990.0,13568.0,6677.0,1290.0,3373.0,16374.0,7971.0,14886.0,8082.0,1519.0,3329.0,16031.0,8120.0,15064.0,7860.0,1607.0,3168.0,15091.0,8713.0,14553.0,7521.0
25,PRINCE ST,40.7242353,-73.99780600000001,281.0,2652.0,8134.0,11000.0,4761.0,1033.0,229.0,1915.0,6439.0,7901.0,2547.0,317.0,415.0,5107.0,4778.0,9045.0,3530.0,356.0,371.0,5384.0,4362.0,8148.0,3364.0,329.0,378.0,5437.0,5388.0,10112.0,4082.0,418.0,444.0,5562.0,5543.0,10830.0,4207.0,546.0,380.0,5036.0,5835.0,10563.0,4206.0
26,SPRING ST,40.7257799,-74.00395209999998,393.0,2716.0,7807.0,11006.0,5770.0,1634.0,314.0,1988.0,6891.0,8480.0,3262.0,552.0,762.0,7812.0,6839.0,15141.0,6528.0,868.0,681.0,7983.0,6502.0,14051.0,6388.0,890.0,749.0,8341.0,7851.0,16268.0,7680.0,1062.0,796.0,8080.0,8235.0,16836.0,4059.0,711.0,764.0,7466.0,8272.0,15183.0,7414.0
27,LEXINGTON AV/63,40.764629,-73.96611299999998,691.0,4143.0,6728.0,7946.0,4009.0,1297.0,460.0,2683.0,5387.0,5651.0,2636.0,636.0,1978.0,13730.0,8193.0,15013.0,6230.0,762.0,1748.0,12222.0,5591.0,10782.0,4373.0,699.0,1937.0,13007.0,7984.0,14798.0,6653.0,856.0,1954.0,14220.0,8682.0,15214.0,6528.0,970.0,1708.0,12830.0,8616.0,13606.0,5321.0
28,NOSTRAND AV,40.6697362,-73.95050890000002,914.0,4784.0,7045.0,7233.0,4885.0,1753.0,675.0,3452.0,5412.0,5693.0,3786.0,1004.0,1935.0,11842.0,6056.0,10578.0,6127.0,1185.0,1993.0,11489.0,5204.0,9402.0,5187.0,1158.0,1938.0,12306.0,6513.0,10268.0,6760.0,1382.0,1977.0,12248.0,6357.0,10887.0,6497.0,1487.0,1901.0,11580.0,6782.0,10464.0,6503.0
29,JAY ST-METROTEC,40.6922507,-73.9872792,708.0,4816.0,8944.0,10051.0,4970.0,1612.0,543.0,3232.0,6809.0,7084.0,3308.0,804.0,1863.0,19765.0,14781.0,25746.0,9021.0,1057.0,1908.0,16369.0,10585.0,20753.0,6386.0,1036.0,1884.0,20191.0,16622.0,27342.0,9885.0,1200.0,1880.0,19659.0,15838.0,28573.0,9190.0,1363.0,1895.0,17185.0,15157.0,24163.0,7711.0
30,1 AV,40.7312776,-73.9823439,40.0,41.0,18.0,0.0,0.0,9.0,11.0,13.0,3.0,8.0,5.0,8.0,1133.0,11541.0,6817.0,12940.0,7309.0,295.0,1517.0,12089.0,6623.0,13644.0,7417.0,258.0,1503.0,12325.0,7226.0,13781.0,8591.0,354.0,1505.0,12110.0,7172.0,14303.0,9061.0,333.0,1396.0,11170.0,7656.0,12736.0,9278.0
31,STEINWAY ST,40.756691700000005,-73.92064090000001,419.0,2420.0,3674.0,4115.0,2228.0,677.0,320.0,1569.0,2964.0,3172.0,1585.0,329.0,1207.0,7602.0,4514.0,7764.0,3934.0,616.0,1203.0,7384.0,3722.0,6648.0,3330.0,556.0,1236.0,7965.0,4747.0,7759.0,4074.0,738.0,1229.0,7958.0,4722.0,8257.0,4128.0,918.0,1213.0,7536.0,4818.0,8285.0,4372.0
32,JUNCTION BLVD,40.749203,-73.8693365,2169.0,5643.0,5643.0,7151.0,3730.0,1831.0,1216.0,3884.0,4831.0,5337.0,3254.0,1109.0,4222.0,10307.0,5297.0,12126.0,4938.0,1426.0,3916.0,9588.0,4639.0,10023.0,4131.0,1484.0,4210.0,10720.0,5550.0,12191.0,5229.0,1611.0,4348.0,10629.0,5357.0,12380.0,5153.0,1861.0,4274.0,10509.0,5501.0,13061.0,5514.0
33,DEKALB AV,40.68982020000001,-73.9811611,462.0,2125.0,2947.0,3431.0,1691.0,597.0,297.0,1332.0,2564.0,2536.0,1202.0,308.0,2335.0,16539.0,7934.0,13521.0,5838.0,633.0,2401.0,15772.0,7188.0,12018.0,4866.0,642.0,2504.0,16978.0,8273.0,14002.0,6109.0,778.0,2516.0,16952.0,8409.0,14707.0,6117.0,938.0,2339.0,15460.0,8197.0,13327.0,5734.0
34,BOROUGH HALL,40.6931492,-73.9900883,476.0,3795.0,7063.0,7442.0,3607.0,1048.0,303.0,2254.0,5240.0,5394.0,2112.0,452.0,1557.0,18195.0,12920.0,21448.0,7036.0,665.0,1556.0,16152.0,9908.0,17474.0,5392.0,574.0,1543.0,18684.0,14001.0,21592.0,7421.0,679.0,1623.0,18383.0,12970.0,21607.0,6989.0,877.0,1469.0,16436.0,13049.0,19269.0,5834.0
35,CROWN HTS-UTICA,40.6689469,-73.93183379999998,1452.0,5325.0,6071.0,6790.0,4654.0,1752.0,1020.0,3665.0,4972.0,5603.0,3593.0,1198.0,3945.0,14794.0,6915.0,12669.0,6693.0,1516.0,3959.0,13923.0,5849.0,11143.0,5772.0,1418.0,3937.0,15036.0,7454.0,12576.0,7222.0,1812.0,4018.0,15033.0,7430.0,12723.0,7268.0,1985.0,3901.0,13991.0,7661.0,12570.0,6667.0
36,8 ST-NYU,40.7306065,-73.99244159999998,338.0,2622.0,6211.0,8425.0,6359.0,1984.0,245.0,1798.0,5189.0,6185.0,3805.0,595.0,497.0,7194.0,4677.0,10144.0,5617.0,741.0,539.0,7423.0,4809.0,10242.0,5541.0,724.0,523.0,7699.0,5261.0,10982.0,6272.0,929.0,512.0,7528.0,5188.0,11685.0,6696.0,1335.0,496.0,6550.0,5031.0,10425.0,6034.0
37,CANAL ST,40.722713899999995,-74.00630600000001,464.0,3418.0,6985.0,8412.0,4064.0,1152.0,330.0,2438.0,5848.0,5769.0,2627.0,544.0,1347.0,10555.0,6635.0,14858.0,5444.0,829.0,1332.0,9754.0,5964.0,13146.0,5211.0,939.0,1378.0,11159.0,7255.0,15722.0,6309.0,1127.0,1402.0,10736.0,6849.0,15427.0,5360.0,1334.0,1277.0,9628.0,7020.0,14014.0,5318.0
38,QUEENSBORO PLZ,40.7505127,-73.9398439,446.0,2016.0,3138.0,3138.0,1754.0,616.0,322.0,1371.0,2563.0,2461.0,1242.0,350.0,773.0,5406.0,3135.0,6384.0,2054.0,411.0,787.0,5192.0,1308.0,2933.0,1839.0,402.0,897.0,5486.0,3175.0,6434.0,2337.0,517.0,869.0,5438.0,3247.0,6544.0,2269.0,608.0,872.0,5263.0,3377.0,6242.0,2293.0
39,MYRTLE-WYCKOFF,40.699686,-73.9117713,1168.0,3573.0,3768.0,4118.0,2349.0,988.0,636.0,2355.0,3021.0,3041.0,1937.0,651.0,2599.0,9496.0,4958.0,8017.0,4606.0,750.0,2601.0,9220.0,4235.0,7103.0,3970.0,782.0,2707.0,10035.0,5123.0,7994.0,4836.0,896.0,2729.0,10178.0,5187.0,8354.0,4911.0,1020.0,2647.0,9516.0,5158.0,7840.0,4790.0
40,51 ST,40.757135,-73.97191190000001,640.0,2681.0,4160.0,4999.0,2715.0,982.0,452.0,1976.0,3613.0,3922.0,1655.0,428.0,1469.0,14658.0,7032.0,14395.0,5009.0,938.0,1534.0,14733.0,6870.0,14113.0,4742.0,881.0,1489.0,15245.0,8079.0,15227.0,5571.0,1008.0,1427.0,14852.0,8022.0,15393.0,5150.0,1132.0,1395.0,13549.0,7966.0,13978.0,4680.0
41,COURT SQ,40.7467885,-73.944548,671.0,2346.0,3867.0,4608.0,2434.0,924.0,339.0,1523.0,3204.0,3276.0,1757.0,405.0,2043.0,12362.0,5110.0,12339.0,4229.0,619.0,1981.0,10573.0,3756.0,10062.0,3574.0,555.0,2085.0,12546.0,5284.0,12358.0,4637.0,803.0,2088.0,12281.0,5515.0,12817.0,4451.0,924.0,2049.0,10374.0,5014.0,3016.0,3785.0
42,JAMAICA CENTER,40.702144700000005,-73.8008771,2269.0,5724.0,5602.0,6653.0,4187.0,1730.0,1504.0,3716.0,4087.0,4924.0,3524.0,1406.0,7951.0,19440.0,11356.0,20113.0,9128.0,1841.0,7734.0,16598.0,8511.0,16503.0,7000.0,1768.0,8029.0,19911.0,11351.0,20306.0,9388.0,2038.0,8011.0,19651.0,11119.0,20511.0,9407.0,2308.0,7816.0,17738.0,10731.0,18899.0,8244.0
43,49 ST,40.7598372,-73.98418249999999,739.0,3653.0,6265.0,8905.0,6094.0,2351.0,537.0,2844.0,5607.0,7372.0,4203.0,914.0,1368.0,11081.0,5948.0,14884.0,6289.0,1197.0,1492.0,11477.0,5872.0,15489.0,6584.0,1192.0,1415.0,11918.0,6871.0,16028.0,7820.0,1506.0,1456.0,11724.0,7232.0,17519.0,8163.0,1945.0,1384.0,10680.0,6929.0,15025.0,7289.0
44,BOWLING GREEN,40.7048108,-74.0144596,534.0,3168.0,4677.0,5077.0,1798.0,593.0,332.0,1768.0,1906.0,1858.0,1408.0,359.0,2148.0,17940.0,8512.0,20649.0,4795.0,734.0,2248.0,16257.0,6960.0,17640.0,3844.0,654.0,2276.0,18780.0,9644.0,20515.0,5372.0,780.0,2281.0,18706.0,10029.0,21078.0,4541.0,886.0,2181.0,16507.0,9805.0,18557.0,4031.0
45,BLEECKER ST,40.7259346,-73.9946724,356.0,1537.0,4007.0,5899.0,3529.0,1636.0,318.0,1078.0,3190.0,4360.0,2152.0,601.0,503.0,5244.0,3146.0,6802.0,4040.0,779.0,498.0,5249.0,3015.0,6169.0,3545.0,840.0,541.0,5729.0,3564.0,7339.0,4445.0,964.0,545.0,5431.0,3506.0,7982.0,4310.0,1281.0,566.0,5606.0,3977.0,7900.0,4552.0
46,VERNON-JACKSON,40.7426713,-73.9537248,316.0,2072.0,3988.0,4315.0,2705.0,879.0,180.0,1506.0,3316.0,3333.0,1700.0,243.0,1143.0,9562.0,3214.0,7136.0,3340.0,420.0,1157.0,9177.0,3032.0,6568.0,3058.0,466.0,1128.0,9848.0,3826.0,7171.0,3799.0,637.0,1170.0,9888.0,3677.0,7926.0,3727.0,700.0,1127.0,9044.0,3841.0,7501.0,3769.0
47,28 ST,40.7470686,-73.99350919999998,351.0,2704.0,4735.0,5852.0,3350.0,1101.0,279.0,1818.0,3405.0,3864.0,1892.0,364.0,620.0,7608.0,4753.0,9635.0,3818.0,556.0,639.0,7871.0,5022.0,9986.0,3795.0,535.0,676.0,7913.0,5476.0,10334.0,4493.0,737.0,663.0,7907.0,5302.0,10815.0,4276.0,815.0,596.0,7041.0,5405.0,9608.0,3866.0
48,SUTPHIN-ARCHER,40.700572799999996,-73.8077071,1577.0,4396.0,4559.0,5599.0,3426.0,1421.0,1206.0,2867.0,3973.0,4378.0,3261.0,1170.0,4509.0,11486.0,7574.0,12580.0,6140.0,1390.0,4294.0,10209.0,6193.0,10784.0,4885.0,1285.0,4392.0,11530.0,7348.0,12415.0,6232.0,1394.0,4380.0,11605.0,7274.0,13445.0,6401.0,1698.0,4427.0,11060.0,7653.0,13146.0,6270.0
49,FORDHAM RD,40.8614886,-73.8905408,1368.0,3962.0,4734.0,4855.0,2985.0,969.0,969.0,2622.0,3419.0,3819.0,2119.0,741.0,3030.0,8234.0,5508.0,8454.0,3706.0,949.0,2917.0,7577.0,4325.0,6692.0,2661.0,823.0,3117.0,8666.0,5758.0,8619.0,3822.0,914.0,3191.0,8584.0,5436.0,8739.0,3798.0,1020.0,3043.0,8128.0,5713.0,8463.0,3454.0
50,HIGH ST,40.6993673,-73.99126559999998,190.0,1771.0,3580.0,4036.0,1440.0,513.0,120.0,1235.0,3330.0,3268.0,1060.0,231.0,717.0,6398.0,3262.0,6463.0,2671.0,397.0,762.0,6099.0,2540.0,5255.0,2171.0,383.0,734.0,6782.0,3898.0,6583.0,2737.0,499.0,675.0,6001.0,3780.0,7405.0,2666.0,546.0,683.0,5790.0,3598.0,6181.0,2688.0
51,BROOKLYN BRIDGE,40.6993673,-73.99126559999998,300.0,1807.0,3546.0,4159.0,1388.0,659.0,231.0,1183.0,2648.0,3075.0,1129.0,291.0,1254.0,11042.0,7300.0,12511.0,3552.0,468.0,1287.0,9258.0,5579.0,8747.0,2244.0,449.0,1401.0,11544.0,7808.0,12443.0,3774.0,559.0,1375.0,11317.0,8063.0,13202.0,3677.0,596.0,1237.0,9954.0,7715.0,11611.0,3116.0
52,103 ST-CORONA,40.7498268,-73.862746,2217.0,5835.0,5302.0,6285.0,3680.0,1687.0,1249.0,4056.0,4596.0,4893.0,3039.0,1174.0,4514.0,9496.0,5014.0,9366.0,4491.0,1478.0,4331.0,8918.0,4469.0,8516.0,3905.0,1430.0,4596.0,9712.0,5186.0,9418.0,4675.0,1576.0,4697.0,9673.0,4951.0,9653.0,4691.0,1860.0,4683.0,9329.0,4984.0,9243.0,4816.0
53,GRAND-NEWTOWN,40.736835,-73.87758840000001,916.0,4061.0,3671.0,3947.0,2210.0,719.0,485.0,2651.0,2956.0,3119.0,1967.0,443.0,2760.0,10303.0,4617.0,7389.0,3644.0,761.0,2751.0,9481.0,3919.0,6601.0,3179.0,686.0,2803.0,10527.0,4643.0,7655.0,3814.0,712.0,2885.0,10394.0,4758.0,7461.0,3827.0,1139.0,2666.0,9982.0,4676.0,7348.0,3726.0
54,181 ST,40.84913,-73.93372889999998,802.0,3247.0,4355.0,4951.0,2940.0,1397.0,579.0,2153.0,3641.0,4225.0,2604.0,908.0,1401.0,6209.0,4653.0,7252.0,3530.0,1040.0,1366.0,5679.0,3882.0,6351.0,2936.0,935.0,1394.0,6266.0,4777.0,7566.0,3921.0,1105.0,1444.0,6258.0,4756.0,7580.0,3916.0,1176.0,1380.0,6055.0,4555.0,7521.0,3778.0
55,167 ST,40.835598,-73.9213791,1337.0,3585.0,3346.0,4004.0,2712.0,1169.0,560.0,77458.0,1527.0,3474.0,2228.0,934.0,3007.0,8722.0,4520.0,8702.0,3704.0,1258.0,2947.0,8000.0,4015.0,7156.0,2992.0,1051.0,3137.0,8833.0,4849.0,8428.0,3967.0,1127.0,3206.0,8842.0,4774.0,8527.0,3961.0,1221.0,3075.0,8376.0,4825.0,8553.0,3924.0
56,82 ST-JACKSON H,40.7477145,-73.8839373,942.0,4174.0,6700.0,7253.0,3831.0,1369.0,651.0,2648.0,4972.0,5512.0,2926.0,876.0,1810.0,7398.0,6661.0,10739.0,4730.0,1059.0,1735.0,6934.0,5597.0,9050.0,3892.0,1024.0,1777.0,7433.0,6783.0,10487.0,4999.0,1174.0,1853.0,7388.0,6523.0,10682.0,5049.0,1382.0,1845.0,6931.0,6383.0,11188.0,5067.0
57,KINGS HWY,40.60867440000001,-73.9578059,986.0,4095.0,3780.0,3618.0,1812.0,603.0,512.0,2492.0,3182.0,3167.0,1537.0,409.0,2463.0,12267.0,6007.0,11719.0,5381.0,607.0,2531.0,11138.0,5166.0,10724.0,4334.0,534.0,2548.0,12244.0,6222.0,11911.0,5551.0,678.0,2473.0,12292.0,6192.0,11658.0,5449.0,780.0,2351.0,11359.0,6904.0,10632.0,4458.0
58,3 AV-149 ST,40.816129,-73.917811,1183.0,4305.0,4902.0,4655.0,2530.0,840.0,820.0,2716.0,3448.0,3645.0,1933.0,667.0,2734.0,9607.0,6735.0,9897.0,3284.0,751.0,2642.0,8746.0,6128.0,7854.0,2544.0,722.0,2690.0,9701.0,6979.0,9612.0,3591.0,804.0,2756.0,9690.0,7003.0,9856.0,3594.0,781.0,2660.0,9211.0,7501.0,9561.0,3591.0
59,EAST BROADWAY,40.714402899999996,-73.98991880000001,429.0,2949.0,4727.0,5272.0,3280.0,1026.0,293.0,2259.0,4363.0,3358.0,1780.0,516.0,920.0,6188.0,4282.0,6870.0,2996.0,359.0,960.0,5892.0,3635.0,6275.0,2683.0,301.0,838.0,6249.0,4234.0,6752.0,3473.0,439.0,952.0,6083.0,4227.0,6789.0,3555.0,425.0,932.0,5778.0,4292.0,6683.0,3834.0
60,72 ST,40.778453000000006,-73.98196999999998,84.0,734.0,1530.0,1846.0,880.0,275.0,77.0,579.0,1619.0,1763.0,540.0,153.0,269.0,3978.0,2641.0,4641.0,1804.0,184.0,307.0,4091.0,2644.0,4594.0,1833.0,158.0,287.0,4182.0,2830.0,4807.0,2083.0,184.0,243.0,4282.0,2945.0,5167.0,2093.0,260.0,270.0,3670.0,3153.0,4833.0,1561.0
61,WALL ST,40.706396500000004,-74.0094441,334.0,2328.0,4103.0,4640.0,2786.0,896.0,163.0,1486.0,3123.0,3350.0,1645.0,316.0,1571.0,18532.0,5972.0,18061.0,4636.0,492.0,1579.0,16961.0,5546.0,16945.0,4474.0,590.0,1556.0,18557.0,6535.0,18813.0,5276.0,548.0,1574.0,17941.0,6742.0,19048.0,4493.0,782.0,1414.0,15620.0,6812.0,15730.0,4106.0
62,21 ST-QNSBRIDGE,40.75417770000001,-73.94247419999998,492.0,2136.0,2358.0,2657.0,1673.0,601.0,362.0,1497.0,1952.0,2081.0,1242.0,402.0,1309.0,5011.0,2962.0,5109.0,2179.0,476.0,1245.0,4843.0,2560.0,3933.0,1904.0,387.0,1278.0,5283.0,3112.0,5145.0,2386.0,531.0,1286.0,5195.0,3011.0,5047.0,2307.0,475.0,1174.0,4913.0,3199.0,5228.0,2442.0
63,HOYT-SCHER,40.688828799999996,-73.98531249999998,301.0,2017.0,4054.0,4820.0,2521.0,777.0,167.0,1480.0,3577.0,3921.0,1721.0,347.0,655.0,5768.0,4189.0,6896.0,3066.0,529.0,621.0,4775.0,3543.0,5959.0,2711.0,532.0,760.0,5375.0,4128.0,6896.0,3373.0,630.0,764.0,5260.0,4356.0,7280.0,,,707.0,4797.0,4209.0,6750.0,3264.0
64,FRANKLIN AV,40.7190056,-74.0066801,405.0,2482.0,4104.0,4260.0,2633.0,1020.0,338.0,1805.0,3352.0,3533.0,1763.0,431.0,1048.0,8057.0,3307.0,5766.0,3714.0,559.0,1092.0,7349.0,2411.0,4736.0,2949.0,539.0,1109.0,8250.0,3466.0,5825.0,4000.0,744.0,1086.0,8102.0,3405.0,6119.0,3796.0,755.0,1034.0,7441.0,3518.0,5473.0,3547.0
65,168 ST,40.841041,-73.939971,842.0,3472.0,4722.0,2816.0,1583.0,1003.0,607.0,2825.0,3773.0,3361.0,2082.0,606.0,1897.0,10305.0,5707.0,10368.0,3440.0,582.0,1899.0,10305.0,5411.0,10371.0,3146.0,575.0,1957.0,10830.0,5880.0,11119.0,3512.0,662.0,1958.0,10566.0,5935.0,11147.0,3522.0,746.0,1859.0,10053.0,5792.0,9989.0,3580.0
66,NEVINS ST,40.6882963,-73.98052059999999,283.0,2234.0,3676.0,4276.0,2051.0,718.0,242.0,1306.0,2653.0,3012.0,1195.0,382.0,868.0,6274.0,3789.0,6959.0,2533.0,387.0,925.0,5808.0,3109.0,5778.0,2187.0,441.0,921.0,6285.0,3997.0,7061.0,2845.0,443.0,914.0,6235.0,4203.0,7603.0,2916.0,527.0,876.0,5724.0,4289.0,6932.0,2660.0
67,5 AVE,40.760216299999996,-73.975543,204.0,1246.0,2470.0,3303.0,1352.0,289.0,96.0,736.0,1788.0,2407.0,919.0,135.0,717.0,7078.0,3610.0,8996.0,3205.0,368.0,792.0,6640.0,3441.0,8679.0,2765.0,391.0,788.0,7177.0,3826.0,9295.0,3579.0,474.0,788.0,7021.0,3711.0,9464.0,3334.0,521.0,700.0,5977.0,4009.0,8397.0,3190.0
68,PROSPECT PARK,40.66087879999999,-73.9621109,290.0,1160.0,1696.0,1807.0,1140.0,305.0,211.0,849.0,1354.0,1458.0,700.0,254.0,888.0,5711.0,2776.0,5271.0,3458.0,497.0,917.0,5690.0,2364.0,4951.0,2877.0,523.0,1038.0,5990.0,2955.0,5458.0,3716.0,586.0,947.0,5948.0,2803.0,5825.0,3616.0,879.0,881.0,5701.0,3044.0,5480.0,3375.0
69,CENTRAL PK N110,40.798737599999995,-73.9522934,423.0,2106.0,3172.0,3224.0,2056.0,851.0,342.0,1533.0,2612.0,2749.0,1585.0,498.0,937.0,5069.0,2605.0,4980.0,2227.0,516.0,994.0,4787.0,2354.0,4222.0,1872.0,500.0,920.0,5410.0,2654.0,4785.0,2403.0,591.0,899.0,5165.0,2570.0,5089.0,2346.0,680.0,924.0,4882.0,2926.0,4927.0,2412.0
70,LEXINGTON AV/53,40.757698100000006,-73.96907420000001,831.0,4643.0,7067.0,8668.0,5318.0,1829.0,488.0,3079.0,5935.0,6402.0,3454.0,805.0,3150.0,32411.0,11904.0,31214.0,10600.0,1476.0,3223.0,31151.0,12249.0,30401.0,9900.0,1485.0,3164.0,33756.0,13380.0,32770.0,11757.0,1777.0,3529.0,32835.0,13649.0,33804.0,10701.0,2143.0,3231.0,29305.0,14009.0,29734.0,10061.0
71,63 DR-REGO PARK,40.7301359,-73.86236729999999,432.0,2499.0,3393.0,3616.0,1836.0,521.0,335.0,1769.0,2901.0,3122.0,1520.0,264.0,1531.0,7976.0,3838.0,5702.0,2292.0,291.0,1574.0,7475.0,2973.0,4733.0,1892.0,255.0,1550.0,8069.0,3943.0,5723.0,2295.0,271.0,1587.0,8167.0,3947.0,5746.0,2395.0,383.0,1506.0,7567.0,3828.0,5438.0,2362.0
72,3 AV,40.733135299999994,-73.98675829999998,4.0,13.0,9.0,2.0,6.0,6.0,2.0,2.0,2.0,4.0,5.0,6.0,311.0,3125.0,2076.0,4019.0,2579.0,55.0,396.0,3135.0,2087.0,3993.0,2427.0,68.0,388.0,3254.0,2237.0,4217.0,2977.0,93.0,341.0,3278.0,2165.0,4468.0,3192.0,91.0,347.0,2981.0,2288.0,4113.0,3073.0
73,175 ST,40.847916600000005,-73.9394823,506.0,2462.0,3081.0,3471.0,1911.0,670.0,361.0,1632.0,2589.0,2590.0,1533.0,347.0,1329.0,6479.0,2858.0,5372.0,2460.0,422.0,1476.0,5357.0,2469.0,4749.0,1863.0,427.0,1478.0,6485.0,3141.0,5513.0,2574.0,503.0,1463.0,6392.0,3076.0,5717.0,2631.0,572.0,1463.0,5891.0,3178.0,5682.0,2651.0
74,53 ST,40.760216299999996,-73.975543,574.0,2448.0,2880.0,3280.0,1965.0,888.0,494.0,1847.0,2520.0,2708.0,1671.0,549.0,1369.0,5327.0,3137.0,5786.0,2880.0,630.0,1342.0,5211.0,2701.0,5370.0,2273.0,647.0,1444.0,5712.0,3141.0,6023.0,2760.0,725.0,1455.0,5626.0,3052.0,5836.0,2764.0,779.0,1428.0,5257.0,3154.0,5752.0,2570.0
75,110 ST,40.798737599999995,-73.9522934,492.0,2439.0,2992.0,3212.0,2066.0,744.0,417.0,1636.0,2392.0,2533.0,1554.0,514.0,1094.0,6344.0,3471.0,6139.0,2764.0,634.0,1092.0,6198.0,3398.0,5729.0,2311.0,581.0,1155.0,6809.0,3885.0,6251.0,2875.0,676.0,1266.0,6802.0,3729.0,6331.0,2859.0,800.0,1156.0,6333.0,3992.0,6254.0,2748.0
76,BEDFORD-NOSTRAN,40.6898534,-73.9516398,257.0,1498.0,2324.0,2276.0,1549.0,568.0,208.0,1144.0,2014.0,1942.0,1014.0,306.0,679.0,5285.0,1892.0,3259.0,1977.0,358.0,720.0,5134.0,1804.0,3202.0,1834.0,365.0,725.0,5484.0,2038.0,3346.0,2163.0,414.0,723.0,5344.0,2109.0,3473.0,2039.0,506.0,676.0,4896.0,2308.0,3410.0,2052.0
77,GRAHAM AV,40.714526299999996,-73.94438180000002,1.0,0.0,1.0,0.0,0.0,1.0,0.0,2.0,2.0,2.0,3.0,2.0,568.0,5653.0,2422.0,4180.0,2731.0,214.0,592.0,5578.0,2195.0,3853.0,2334.0,70.0,594.0,5883.0,2594.0,4166.0,2585.0,116.0,620.0,5779.0,2537.0,4427.0,2597.0,144.0,583.0,5403.0,2805.0,4221.0,2788.0
78,46 ST BLISS ST,40.7430691,-73.91824030000002,829.0,3149.0,3704.0,4388.0,2504.0,960.0,337.0,1410.0,2976.0,3377.0,1978.0,606.0,1558.0,6704.0,3636.0,6283.0,3174.0,736.0,1615.0,6563.0,3054.0,5641.0,3055.0,695.0,1658.0,7015.0,3728.0,6088.0,3387.0,831.0,1663.0,7023.0,3564.0,6315.0,3563.0,941.0,1567.0,6690.0,3722.0,6235.0,3403.0
79,CHRISTOPHER ST,40.733578400000006,-74.00287279999998,349.0,1500.0,3916.0,4961.0,4179.0,2160.0,378.0,1094.0,3299.0,3990.0,2378.0,674.0,385.0,3952.0,2815.0,5230.0,3179.0,472.0,384.0,4215.0,2659.0,5136.0,,480.0,,4309.0,3272.0,5831.0,3708.0,594.0,387.0,4323.0,3228.0,6102.0,4096.0,863.0,389.0,3828.0,3160.0,6125.0,4902.0
80,191 ST,40.855738,-73.9306512,534.0,2011.0,2542.0,3078.0,2122.0,945.0,438.0,1433.0,2242.0,2675.0,1872.0,539.0,1033.0,4670.0,2628.0,4965.0,2549.0,754.0,1023.0,4410.0,2490.0,4509.0,2255.0,697.0,1060.0,4863.0,2862.0,5091.0,2972.0,811.0,1034.0,4826.0,2778.0,5153.0,3072.0,833.0,1002.0,4415.0,2626.0,4876.0,2585.0
81,ROOSEVELT ISLND,40.7591362,-73.9533215,143.0,1296.0,2239.0,2707.0,1528.0,535.0,143.0,971.0,2098.0,2150.0,1228.0,250.0,531.0,4272.0,2123.0,3900.0,2232.0,265.0,521.0,4148.0,1797.0,3056.0,1814.0,236.0,539.0,4308.0,2331.0,3831.0,2428.0,326.0,511.0,4533.0,2395.0,4205.0,2356.0,417.0,544.0,4116.0,2260.0,4173.0,2224.0
82,BROADWAY JCT,40.6789137,-73.9039,1282.0,3785.0,3811.0,4437.0,3166.0,1446.0,882.0,2648.0,2916.0,3599.0,2726.0,957.0,1648.0,4228.0,2736.0,4431.0,2162.0,1023.0,1623.0,3974.0,2121.0,3766.0,1709.0,936.0,1609.0,4597.0,2816.0,4481.0,2375.0,1107.0,1663.0,4474.0,2767.0,4716.0,2457.0,1312.0,1650.0,4250.0,3067.0,4603.0,2526.0
83,HOYT ST,40.688828799999996,-73.98531249999998,175.0,1336.0,3099.0,3592.0,1867.0,421.0,115.0,1060.0,2630.0,2684.0,1120.0,158.0,398.0,4316.0,2833.0,5098.0,1748.0,180.0,405.0,3606.0,2315.0,4457.0,1533.0,163.0,438.0,4031.0,3062.0,5234.0,2039.0,180.0,426.0,4055.0,3038.0,5332.0,1949.0,290.0,410.0,3657.0,3062.0,4935.0,1800.0
84,135 ST,40.817894,-73.947647,453.0,2641.0,3166.0,3281.0,2061.0,859.0,391.0,1798.0,2678.0,2597.0,1445.0,479.0,1123.0,6225.0,3372.0,5221.0,2504.0,555.0,1165.0,6029.0,2909.0,4809.0,1980.0,503.0,1100.0,6478.0,3375.0,5148.0,2565.0,570.0,1111.0,6563.0,3398.0,5572.0,2578.0,711.0,1077.0,5895.0,3600.0,5023.0,2553.0
85,ELMHURST AV,40.74244789999999,-73.88198440000001,544.0,2599.0,2383.0,2225.0,1134.0,293.0,390.0,1946.0,2002.0,1775.0,934.0,156.0,1650.0,6589.0,2797.0,3490.0,1445.0,280.0,1606.0,6188.0,2343.0,3111.0,1207.0,301.0,1691.0,6779.0,2732.0,3407.0,1553.0,297.0,1690.0,6733.0,2711.0,3613.0,1568.0,387.0,1625.0,6422.0,2679.0,3519.0,1532.0
86,RECTOR ST,40.7078954,-74.01363649999998,214.0,1723.0,2804.0,3111.0,1425.0,569.0,186.0,1231.0,2366.0,2145.0,962.0,245.0,617.0,7443.0,3519.0,8167.0,2343.0,284.0,634.0,7016.0,3192.0,7415.0,2158.0,308.0,630.0,7614.0,4091.0,8743.0,2456.0,337.0,653.0,7382.0,4005.0,8603.0,2243.0,364.0,596.0,6669.0,4255.0,7939.0,2252.0
87,4AV-9 ST,40.6701803,-73.98929150000002,269.0,1692.0,2631.0,2940.0,1678.0,502.0,167.0,1115.0,2328.0,2458.0,1136.0,245.0,682.0,5615.0,2449.0,4472.0,2118.0,304.0,698.0,5465.0,2044.0,4172.0,1857.0,316.0,733.0,5822.0,2483.0,4615.0,2278.0,370.0,699.0,5814.0,2444.0,4829.0,2146.0,474.0,684.0,5232.0,2557.0,4486.0,2263.0
88,96 ST,40.7858701,-73.95093469999998,107.0,956.0,1662.0,1955.0,1024.0,293.0,102.0,764.0,1689.0,1997.0,768.0,153.0,511.0,5759.0,3192.0,6632.0,2272.0,199.0,529.0,5631.0,2977.0,6178.0,2002.0,174.0,525.0,5736.0,3248.0,6545.0,2581.0,230.0,510.0,5681.0,3239.0,6652.0,2198.0,249.0,440.0,5235.0,3196.0,5903.0,1876.0
89,JAMAICA 179 ST,40.71264420000001,-73.7838184,1377.0,3325.0,2871.0,3104.0,1894.0,705.0,931.0,2095.0,2190.0,2201.0,1472.0,500.0,5214.0,11932.0,4284.0,6568.0,3338.0,584.0,5140.0,10221.0,3244.0,5676.0,2738.0,588.0,5084.0,12338.0,3991.0,6669.0,3325.0,696.0,5339.0,11858.0,3994.0,6815.0,3353.0,767.0,4861.0,10867.0,4091.0,6409.0,3057.0
90,BRIGHTON BEACH,40.5776648,-73.96127690000002,379.0,1939.0,2099.0,2342.0,1307.0,352.0,246.0,1476.0,1882.0,2168.0,1236.0,262.0,1347.0,6312.0,4595.0,6480.0,2758.0,369.0,1304.0,5309.0,2794.0,4251.0,1864.0,290.0,1344.0,5983.0,4232.0,5175.0,2477.0,334.0,1308.0,6079.0,4351.0,6292.0,2777.0,398.0,1266.0,5205.0,3574.0,5069.0,2248.0
91,CARROLL ST,40.679331299999994,-73.9954833,170.0,1567.0,2665.0,3155.0,1887.0,603.0,141.0,446.0,908.0,2178.0,1032.0,190.0,554.0,6942.0,2275.0,5095.0,2014.0,207.0,568.0,7060.0,2234.0,5104.0,1904.0,257.0,552.0,7246.0,2590.0,5275.0,2188.0,271.0,541.0,7100.0,2493.0,5438.0,2134.0,316.0,467.0,6346.0,2667.0,4918.0,2235.0
92,149/GRAND CONC,40.8183248,-73.9274121,895.0,3109.0,3306.0,3397.0,1816.0,915.0,672.0,2000.0,2455.0,2649.0,1571.0,596.0,1363.0,6140.0,5243.0,6631.0,2807.0,732.0,1282.0,4445.0,3050.0,4350.0,1438.0,645.0,1308.0,6191.0,5615.0,6873.0,2944.0,822.0,1327.0,6014.0,5187.0,6861.0,2863.0,880.0,1324.0,4765.0,5186.0,5506.0,2495.0
93,UNION ST,40.6771729,-73.98324670000001,202.0,1148.0,1998.0,2516.0,1810.0,783.0,174.0,867.0,1700.0,1948.0,1188.0,229.0,523.0,4171.0,1732.0,3748.0,2266.0,289.0,335.0,3385.0,1647.0,1625.0,692.0,348.0,548.0,4329.0,1779.0,3970.0,2328.0,429.0,534.0,3919.0,1432.0,4006.0,2494.0,568.0,470.0,3264.0,1279.0,3693.0,960.0
94,111 ST,40.75172999999999,-73.855334,1250.0,3251.0,2835.0,3238.0,1853.0,923.0,691.0,2255.0,2328.0,2725.0,1605.0,649.0,2657.0,5349.0,2456.0,4731.0,2322.0,787.0,2553.0,4988.0,2384.0,4345.0,2140.0,673.0,2663.0,5364.0,2664.0,4884.0,2371.0,909.0,2733.0,5379.0,2543.0,4790.0,2393.0,1042.0,2703.0,5276.0,2528.0,4806.0,2589.0
95,MONTROSE AV,40.7077716,-73.93986329999998,11.0,9.0,5.0,2.0,4.0,2.0,0.0,0.0,0.0,2.0,1.0,1.0,443.0,3424.0,1682.0,2744.0,1839.0,65.0,518.0,3333.0,1593.0,2549.0,1639.0,51.0,542.0,3426.0,1780.0,2696.0,1864.0,80.0,537.0,3471.0,1746.0,2886.0,1827.0,82.0,476.0,3242.0,1959.0,2686.0,1982.0
96,MORGAN AV,40.70607589999999,-73.93370999999998,0.0,6.0,4.0,0.0,5.0,1.0,1.0,3.0,3.0,3.0,0.0,1.0,421.0,3285.0,1833.0,2923.0,1531.0,36.0,495.0,3167.0,1609.0,2751.0,1423.0,40.0,507.0,3336.0,1938.0,2835.0,1802.0,113.0,510.0,3395.0,1775.0,3031.0,1846.0,39.0,512.0,3140.0,1942.0,2930.0,2020.0
97,90 ST-ELMHURST,40.748436700000006,-73.87652890000001,1348.0,4320.0,3963.0,4118.0,2113.0,814.0,858.0,2940.0,3331.0,3363.0,1799.0,512.0,2971.0,7430.0,3923.0,5985.0,2873.0,741.0,2842.0,6686.0,3474.0,5296.0,2435.0,716.0,2977.0,7641.0,3885.0,6045.0,3030.0,824.0,3147.0,7464.0,3980.0,6043.0,2969.0,912.0,2975.0,7124.0,3748.0,6055.0,3055.0
98,6 AV,40.7373653,-73.99684529999998,103.0,452.0,1007.0,1454.0,1001.0,248.0,63.0,236.0,649.0,955.0,618.0,86.0,241.0,2097.0,1498.0,3150.0,1682.0,145.0,218.0,2117.0,1577.0,3021.0,1511.0,131.0,237.0,2237.0,1740.0,3254.0,1982.0,183.0,252.0,2218.0,1702.0,3190.0,1811.0,152.0,221.0,1984.0,1622.0,3189.0,1989.0
99,BOWERY,40.720166799999994,-73.99353470000001,179.0,1156.0,1990.0,2340.0,1467.0,663.0,136.0,853.0,1582.0,1828.0,939.0,280.0,245.0,1847.0,1328.0,2133.0,1127.0,484.0,249.0,1660.0,1031.0,1836.0,1088.0,509.0,251.0,1858.0,1405.0,2202.0,1393.0,597.0,299.0,1789.0,1344.0,2388.0,1400.0,774.0,267.0,1706.0,1509.0,2511.0,1390.0
100,BURNSIDE AV,40.85345299999999,-73.90768400000002,863.0,2301.0,2307.0,2487.0,1559.0,615.0,637.0,1609.0,1774.0,1948.0,1290.0,439.0,1505.0,4343.0,3435.0,4493.0,2069.0,589.0,1465.0,3608.0,2293.0,3190.0,1360.0,475.0,1556.0,4485.0,3494.0,4540.0,2090.0,578.0,1593.0,4471.0,3373.0,4687.0,2162.0,666.0,1474.0,4032.0,3383.0,4048.0,1870.0
101,45 ST,40.6493588,-74.00959069999998,448.0,1876.0,2134.0,2290.0,1399.0,539.0,270.0,1348.0,1894.0,1927.0,995.0,292.0,1029.0,4110.0,2038.0,3584.0,1631.0,344.0,1001.0,3879.0,1768.0,3365.0,1344.0,348.0,1061.0,4256.0,2050.0,3503.0,1669.0,357.0,1053.0,4230.0,1934.0,3688.0,1743.0,436.0,984.0,3947.0,2046.0,3378.0,1571.0
102,170 ST,40.840050399999996,-73.9133477,487.0,1143.0,1257.0,1546.0,927.0,459.0,312.0,799.0,864.0,1156.0,853.0,394.0,1406.0,3818.0,1745.0,4092.0,1775.0,557.0,1334.0,3415.0,1846.0,3434.0,1325.0,492.0,1441.0,3734.0,1744.0,4149.0,1856.0,570.0,1458.0,3833.0,1754.0,4287.0,2001.0,597.0,1368.0,3564.0,1646.0,4076.0,1854.0
103,169 ST,40.7104152,-73.79374600000001,616.0,1688.0,1947.0,2416.0,1305.0,525.0,406.0,1132.0,1400.0,1811.0,1120.0,384.0,1301.0,4439.0,2667.0,4757.0,2366.0,432.0,1267.0,3896.0,2259.0,4186.0,1875.0,410.0,1335.0,4475.0,2873.0,4839.0,2388.0,466.0,1350.0,4469.0,2762.0,4955.0,2448.0,529.0,1300.0,4143.0,2705.0,4895.0,2136.0
104,74 ST-BROADWAY,40.746941899999996,-73.89146020000001,172.0,952.0,1575.0,1803.0,1173.0,432.0,175.0,651.0,1268.0,1607.0,1034.0,255.0,270.0,1369.0,1571.0,2523.0,1371.0,315.0,234.0,1135.0,1074.0,1871.0,1031.0,257.0,250.0,1327.0,1479.0,2431.0,1447.0,296.0,268.0,1352.0,1497.0,2387.0,1503.0,383.0,283.0,1332.0,1539.0,2597.0,1562.0
105,40 ST LOWERY ST,40.7438729,-73.92423409999998,429.0,2115.0,2704.0,2962.0,1784.0,705.0,292.0,1333.0,2188.0,2321.0,1399.0,351.0,987.0,5730.0,3044.0,5555.0,2800.0,486.0,,,2570.0,5053.0,2409.0,450.0,995.0,5755.0,3189.0,5495.0,2979.0,574.0,1046.0,5691.0,3056.0,5806.0,2764.0,705.0,976.0,5352.0,3429.0,5264.0,2827.0
106,CASTLE HILL AV,40.83429599999999,-73.85168399999998,575.0,1595.0,1783.0,2074.0,1212.0,623.0,443.0,1127.0,1354.0,1693.0,1190.0,452.0,1478.0,3729.0,2137.0,4024.0,1980.0,610.0,1375.0,3343.0,1710.0,3539.0,1512.0,506.0,1451.0,3856.0,2135.0,4217.0,1999.0,720.0,1544.0,3774.0,2182.0,4057.0,2095.0,704.0,1426.0,3546.0,2310.0,4001.0,1937.0
107,HALSEY ST,40.69577750000001,-73.9044092,15.0,34.0,30.0,20.0,18.0,6.0,3.0,8.0,16.0,12.0,12.0,5.0,1035.0,4094.0,1763.0,3355.0,1841.0,98.0,1079.0,3903.0,1644.0,3258.0,1622.0,104.0,1162.0,4246.0,1918.0,3458.0,1979.0,94.0,1110.0,4172.0,1930.0,3411.0,1970.0,96.0,1070.0,3986.0,2029.0,3304.0,2089.0
108,CLARK ST,40.6974878,-73.99314090000001,99.0,983.0,1944.0,2171.0,1124.0,291.0,66.0,773.0,1857.0,1899.0,791.0,119.0,293.0,2713.0,1397.0,2625.0,1359.0,158.0,285.0,2776.0,1340.0,2602.0,1309.0,173.0,313.0,2805.0,1546.0,2539.0,1499.0,163.0,329.0,2819.0,1622.0,2934.0,1438.0,237.0,309.0,2548.0,1668.0,2679.0,1331.0
109,SUTTER AV-RUTLD,40.664992100000006,-73.92290849999998,473.0,1429.0,1852.0,2173.0,1406.0,509.0,325.0,1112.0,1392.0,1551.0,1093.0,414.0,1308.0,4130.0,2490.0,4426.0,2128.0,502.0,1256.0,3913.0,1966.0,4028.0,1722.0,495.0,1346.0,4190.0,2432.0,4564.0,2140.0,588.0,1378.0,4188.0,2417.0,4615.0,2325.0,583.0,1298.0,4038.0,2600.0,4219.0,2207.0
110,EASTN PKWY-MUSM,40.671993799999996,-73.96420649999999,98.0,1057.0,2765.0,2806.0,924.0,369.0,86.0,599.0,2201.0,2330.0,616.0,128.0,266.0,2564.0,1702.0,2366.0,1138.0,176.0,255.0,2597.0,1365.0,2184.0,1040.0,199.0,277.0,2707.0,1896.0,2583.0,1263.0,203.0,242.0,2626.0,1896.0,3024.0,1927.0,234.0,231.0,2439.0,2107.0,2704.0,1011.0
111,BAY RIDGE AV,40.634968,-74.023376,327.0,1571.0,1943.0,1882.0,1267.0,343.0,249.0,1126.0,1655.0,1528.0,944.0,250.0,982.0,4526.0,2179.0,3167.0,1631.0,285.0,980.0,4564.0,2217.0,3115.0,1389.0,235.0,1006.0,4848.0,2163.0,3198.0,1733.0,335.0,993.0,4791.0,2140.0,3555.0,1693.0,343.0,947.0,4250.0,2073.0,3115.0,1631.0
112,OZONE PK LEFFRT,40.685956700000006,-73.8257601,717.0,1676.0,1646.0,1963.0,1081.0,408.0,454.0,1078.0,1237.0,1351.0,998.0,304.0,2211.0,4130.0,1935.0,3256.0,2395.0,415.0,2162.0,3595.0,1542.0,3224.0,1567.0,413.0,2289.0,4225.0,1972.0,3600.0,2244.0,410.0,2343.0,4125.0,1796.0,3559.0,2278.0,437.0,2148.0,3807.0,1860.0,3678.0,1845.0
113,JEFFERSON ST,40.7065868,-73.922872,6.0,2.0,1.0,1.0,2.0,1.0,0.0,0.0,0.0,0.0,0.0,0.0,545.0,2924.0,1356.0,2268.0,957.0,41.0,498.0,2934.0,1281.0,2227.0,971.0,51.0,592.0,3169.0,1492.0,2141.0,1356.0,61.0,593.0,3044.0,1517.0,2418.0,1310.0,59.0,578.0,2829.0,1520.0,2382.0,1377.0
114,MORISN AV/SNDVW,40.8294898,-73.8746754,658.0,1679.0,1661.0,1793.0,1169.0,651.0,419.0,1077.0,1378.0,1498.0,998.0,488.0,1539.0,3485.0,1947.0,3060.0,1637.0,619.0,1447.0,3082.0,1659.0,2682.0,1377.0,531.0,1502.0,3406.0,1830.0,2950.0,1715.0,670.0,1598.0,3473.0,1896.0,3146.0,1728.0,686.0,1490.0,3259.0,1964.0,3030.0,1650.0
115,207 ST,40.8676635,-73.9212009,352.0,1454.0,1713.0,1799.0,989.0,391.0,278.0,967.0,1402.0,1515.0,853.0,233.0,707.0,2805.0,1773.0,2693.0,1179.0,305.0,696.0,2545.0,1404.0,2106.0,899.0,224.0,760.0,2913.0,1897.0,2765.0,1270.0,299.0,736.0,2828.0,1752.0,2748.0,1290.0,304.0,728.0,2833.0,1765.0,2744.0,1426.0
116,EUCLID AV,40.6754013,-73.8719033,682.0,2092.0,1925.0,1768.0,1137.0,427.0,458.0,1473.0,1483.0,1406.0,929.0,294.0,1624.0,5026.0,2409.0,2884.0,1415.0,331.0,1598.0,4697.0,1998.0,2590.0,1100.0,289.0,1724.0,5206.0,2512.0,2866.0,1350.0,322.0,1697.0,5136.0,2477.0,3037.0,1434.0,359.0,1620.0,4862.0,2516.0,3080.0,1420.0
117,GRAND ARMY PLAZ,40.6752403,-73.97104159999998,108.0,1351.0,2770.0,2720.0,1366.0,413.0,66.0,1009.0,2261.0,2126.0,956.0,141.0,279.0,4175.0,1511.0,2961.0,1290.0,146.0,285.0,4037.0,1422.0,2760.0,1169.0,172.0,281.0,4254.0,1558.0,2985.0,1479.0,177.0,306.0,4178.0,1585.0,2980.0,1256.0,246.0,254.0,3711.0,1701.0,2702.0,1136.0
118,PARSONS BLVD,40.707714,-73.8028238,725.0,1671.0,1648.0,1949.0,1241.0,646.0,442.0,1119.0,1412.0,1640.0,1170.0,417.0,1359.0,4000.0,2370.0,4337.0,2129.0,476.0,1358.0,3660.0,2025.0,3891.0,1660.0,468.0,1308.0,4072.0,2457.0,4648.0,1993.0,493.0,1419.0,4193.0,2389.0,4521.0,2059.0,570.0,1387.0,3867.0,2518.0,4059.0,2017.0
119,231 ST,40.87899229999999,-73.904939,385.0,1492.0,1798.0,1818.0,847.0,263.0,261.0,1076.0,1518.0,1466.0,736.0,147.0,1274.0,4286.0,1899.0,2795.0,1123.0,218.0,1153.0,3894.0,1462.0,2160.0,761.0,160.0,1178.0,4598.0,1995.0,2738.0,1166.0,210.0,1245.0,4637.0,1971.0,3087.0,1179.0,227.0,1209.0,4133.0,1934.0,2793.0,1215.0
120,SMITH-9 ST,40.6746048,-73.99703970000002,274.0,1367.0,1880.0,1950.0,1066.0,337.0,125.0,650.0,1301.0,1480.0,749.0,162.0,632.0,3342.0,1693.0,3245.0,1188.0,222.0,637.0,3175.0,1546.0,2899.0,1175.0,216.0,646.0,3380.0,1850.0,3273.0,1312.0,224.0,633.0,,1721.0,,1367.0,254.0,612.0,3058.0,1869.0,3156.0,1499.0
121,4 AV-9 ST,40.6701803,-73.98929150000002,157.0,782.0,1330.0,1897.0,1094.0,494.0,118.0,578.0,1162.0,1663.0,766.0,169.0,341.0,2207.0,1136.0,2960.0,1727.0,248.0,329.0,2164.0,1051.0,2675.0,1434.0,242.0,325.0,2288.0,1139.0,2979.0,1684.0,225.0,333.0,2183.0,1097.0,3043.0,1486.0,333.0,345.0,2039.0,1222.0,2756.0,1411.0
122,67 AV,40.7263823,-73.8515929,220.0,1303.0,1467.0,1366.0,848.0,294.0,137.0,969.0,1218.0,1078.0,680.0,151.0,1022.0,5559.0,2062.0,3498.0,1712.0,191.0,1050.0,5358.0,1875.0,3267.0,1523.0,182.0,,5803.0,702.0,3490.0,571.0,56.0,1026.0,3932.0,1977.0,3558.0,1720.0,250.0,915.0,5411.0,2096.0,3155.0,1461.0
123,ROCKAWAY AV,40.6625632,-73.9089054,390.0,1139.0,1404.0,1631.0,1040.0,478.0,314.0,841.0,1031.0,1302.0,859.0,314.0,835.0,3083.0,1895.0,3194.0,1423.0,397.0,843.0,2753.0,1558.0,2727.0,1112.0,398.0,874.0,3013.0,1909.0,3026.0,1410.0,460.0,847.0,2970.0,1581.0,2816.0,1502.0,481.0,841.0,2904.0,2079.0,2982.0,1538.0
124,PELHAM BAY PARK,40.852930799999996,-73.8270555,423.0,1270.0,1329.0,1499.0,906.0,369.0,267.0,836.0,1156.0,1317.0,719.0,270.0,1455.0,4050.0,1501.0,2612.0,1122.0,320.0,1438.0,3595.0,1284.0,2223.0,929.0,298.0,1493.0,4120.0,1566.0,2545.0,1169.0,341.0,1563.0,4039.0,1654.0,2726.0,1201.0,405.0,1425.0,3677.0,1728.0,2595.0,1181.0
125,CLASSON AV,40.688873,-73.96007,200.0,1106.0,1865.0,2158.0,1495.0,492.0,143.0,749.0,1574.0,1822.0,997.0,258.0,466.0,3378.0,1456.0,3147.0,2057.0,306.0,469.0,3320.0,1361.0,3113.0,1846.0,296.0,489.0,3598.0,1636.0,3109.0,2207.0,409.0,488.0,3673.0,1560.0,3363.0,1946.0,430.0,440.0,3226.0,1647.0,3194.0,2111.0
126,NEW LOTS AV,40.6663015,-73.88371579999998,491.0,1239.0,1347.0,1678.0,1163.0,571.0,365.0,976.0,1119.0,1337.0,890.0,457.0,1306.0,3301.0,1930.0,3687.0,1619.0,593.0,1308.0,2949.0,1536.0,3229.0,1408.0,529.0,1365.0,3304.0,2037.0,3371.0,1845.0,618.0,1335.0,3337.0,1928.0,3555.0,1856.0,680.0,1303.0,3127.0,2058.0,3536.0,1711.0
127,GRANT AV,40.6768777,-73.86534619999998,524.0,1470.0,1398.0,1645.0,1061.0,495.0,352.0,1022.0,1171.0,1292.0,889.0,416.0,974.0,3481.0,1610.0,2865.0,1724.0,468.0,1015.0,2957.0,1410.0,2640.0,1267.0,417.0,1090.0,3372.0,1737.0,3177.0,1652.0,468.0,1080.0,3438.0,1808.0,3055.0,1647.0,542.0,1058.0,3230.0,1883.0,2927.0,1646.0
128,STERLING ST,40.6632908,-73.951044,250.0,1145.0,1731.0,1896.0,1109.0,441.0,172.0,876.0,1471.0,1486.0,750.0,254.0,643.0,3366.0,1582.0,2877.0,1490.0,273.0,588.0,3226.0,1406.0,2592.0,1384.0,275.0,603.0,3454.0,1722.0,2787.0,1615.0,326.0,632.0,3446.0,1652.0,2855.0,1533.0,340.0,612.0,3170.0,1870.0,2733.0,1433.0
129,PROSPECT AV,40.66541369999999,-73.99292590000002,229.0,1056.0,1481.0,1607.0,930.0,407.0,148.0,665.0,1195.0,1273.0,646.0,157.0,584.0,4070.0,1495.0,3135.0,1432.0,332.0,577.0,4044.0,1384.0,3116.0,1258.0,234.0,593.0,4375.0,1560.0,3172.0,1479.0,371.0,536.0,4305.0,1521.0,3155.0,1304.0,363.0,504.0,3830.0,1622.0,3098.0,1339.0
130,18 ST,40.74122390000001,-73.9980319,160.0,893.0,2493.0,2967.0,1554.0,939746118.0,117.0,629.0,1965.0,2242.0,827.0,145.0,261.0,3853.0,2702.0,5549.0,1798.0,202.0,276.0,3660.0,2543.0,5078.0,1937.0,219.0,251.0,3326.0,2783.0,5318.0,2169.0,243.0,248.0,3997.0,3031.0,6001.0,2021.0,316.0,258.0,3463.0,2871.0,5118.0,2108.0
131,SARATOGA AV,40.669094,-73.91828199999998,415.0,1107.0,1198.0,1412.0,1017.0,417.0,274.0,843.0,952.0,1124.0,819.0,301.0,1196.0,3209.0,1588.0,3234.0,1801.0,350.0,1154.0,2940.0,1462.0,2987.0,1378.0,339.0,1239.0,3251.0,1658.0,3265.0,1752.0,444.0,1245.0,3174.0,1634.0,3386.0,1727.0,456.0,1138.0,3038.0,1680.0,3047.0,1701.0
132,WILSON AV,40.6887823,-73.90467240000001,2.0,0.0,0.0,0.0,0.0,2.0,2.0,4.0,1.0,0.0,0.0,0.0,467.0,2496.0,1304.0,2330.0,1516.0,78.0,533.0,2411.0,1222.0,2254.0,1276.0,94.0,522.0,2590.0,1316.0,2437.0,1656.0,107.0,508.0,2629.0,1419.0,2361.0,1667.0,113.0,493.0,2445.0,1512.0,2385.0,1595.0
133,V.CORTLANDT PK,40.89642429999999,-73.8852842,443.0,1340.0,1524.0,1592.0,846.0,366.0,260.0,835.0,1162.0,1081.0,642.0,184.0,1423.0,3739.0,1407.0,2674.0,1145.0,250.0,1316.0,2999.0,1008.0,1767.0,778.0,190.0,1418.0,3797.0,1446.0,2632.0,1244.0,274.0,1429.0,3793.0,1461.0,2759.0,1263.0,350.0,1362.0,3402.0,1481.0,2864.0,1253.0
134,WESTCHESTER SQ,40.840124700000004,-73.84282579999999,423.0,1310.0,1415.0,1562.0,862.0,343.0,308.0,777.0,962.0,1117.0,656.0,260.0,1060.0,3843.0,2352.0,3706.0,1473.0,406.0,1035.0,3283.0,1898.0,3089.0,1119.0,337.0,1066.0,3718.0,2239.0,3653.0,1521.0,432.0,1098.0,3613.0,2119.0,3655.0,1468.0,444.0,1077.0,3472.0,2325.0,3494.0,1280.0
135,FAR ROCKAWAY,40.6077527,-73.7517548,522.0,1029.0,1100.0,1287.0,851.0,350.0,384.0,857.0,897.0,1121.0,804.0,299.0,1294.0,2230.0,1307.0,2746.0,1311.0,377.0,1256.0,2044.0,1266.0,2359.0,1108.0,383.0,1313.0,2380.0,1449.0,2947.0,1321.0,379.0,1366.0,2390.0,1443.0,2903.0,1395.0,429.0,1258.0,2222.0,1544.0,2840.0,1252.0
136,WOODLAWN,40.88603699999999,-73.878751,408.0,952.0,943.0,1164.0,745.0,303.0,235.0,592.0,780.0,901.0,608.0,191.0,1470.0,2614.0,1122.0,2016.0,789.0,269.0,1389.0,1943.0,978.0,1488.0,596.0,216.0,1332.0,2695.0,1265.0,1933.0,811.0,278.0,1464.0,2597.0,1323.0,2203.0,976.0,397.0,1395.0,2452.0,1205.0,1926.0,862.0
137,CORTELYOU RD,40.6412697,-73.9639694,0.0,1.0,1.0,0.0,3.0,0.0,0.0,1.0,0.0,0.0,0.0,0.0,689.0,3457.0,1301.0,1803.0,741.0,113.0,733.0,3229.0,1155.0,1584.0,631.0,105.0,763.0,3681.0,1441.0,1856.0,811.0,122.0,757.0,3676.0,1421.0,1858.0,856.0,164.0,691.0,3476.0,1531.0,1734.0,912.0
138,BERGEN ST,40.686083200000006,-73.9909074,87.0,933.0,1938.0,2111.0,1146.0,423.0,99.0,635.0,1635.0,1689.0,700.0,132.0,183.0,2659.0,961.0,1879.0,937.0,86.0,203.0,2553.0,804.0,1877.0,919.0,126.0,197.0,2722.0,932.0,1960.0,1141.0,123.0,178.0,2757.0,1010.0,2125.0,1118.0,159.0,176.0,2477.0,958.0,2133.0,1098.0
139,BEDFORD PK BLVD,40.8732636,-73.8871965,395.0,1084.0,1024.0,1361.0,862.0,250.0,250.0,710.0,873.0,845.0,600.0,257.0,853.0,2660.0,1830.0,3356.0,1457.0,281.0,815.0,1974.0,1064.0,2346.0,922.0,278.0,866.0,2686.0,1758.0,3470.0,1456.0,329.0,912.0,2711.0,1728.0,3379.0,1531.0,369.0,852.0,2437.0,1780.0,2707.0,1125.0
140,HARLEM 148 ST,40.8240504,-73.9369385,190.0,952.0,1194.0,1396.0,921.0,369.0,144.0,632.0,920.0,1122.0,664.0,230.0,487.0,2712.0,1284.0,2138.0,1103.0,162.0,457.0,2540.0,1145.0,2266.0,971.0,171.0,471.0,2763.0,1350.0,2148.0,1147.0,214.0,445.0,2677.0,1237.0,2417.0,1126.0,235.0,408.0,2564.0,1255.0,2188.0,1164.0
141,BAY RIDGE-95 ST,40.6167174,-74.0308527,244.0,1099.0,1226.0,1268.0,736.0,257.0,156.0,733.0,990.0,1015.0,486.0,170.0,875.0,3595.0,1362.0,2536.0,1286.0,215.0,882.0,3325.0,1018.0,2024.0,1029.0,182.0,894.0,3747.0,1465.0,2640.0,1289.0,246.0,887.0,3566.0,1392.0,2652.0,1206.0,272.0,841.0,3302.0,1374.0,2532.0,1077.0
142,CLINTON-WASH AV,40.683498900000004,-73.9668944,,,,,,,,,,,,,,,,,,,,,,,,,,,,,,,,,,,,,,,,,
143,KINGSTON-THROOP,40.679826500000004,-73.94112940000001,348.0,1478.0,2127.0,2203.0,1464.0,828.0,266.0,1038.0,1776.0,1732.0,1138.0,433.0,703.0,3923.0,1978.0,3134.0,1944.0,527.0,666.0,3755.0,1717.0,3067.0,1825.0,613.0,690.0,4032.0,2036.0,3268.0,2100.0,711.0,685.0,,,3373.0,1947.0,865.0,653.0,3682.0,2315.0,3561.0,2280.0
144,ST LAWRENCE AV,40.8315326,-73.8672593,425.0,1053.0,1044.0,1249.0,836.0,477.0,327.0,757.0,871.0,1051.0,688.0,321.0,926.0,2176.0,1262.0,2233.0,1020.0,410.0,879.0,2010.0,1121.0,1944.0,968.0,353.0,944.0,2332.0,1257.0,2232.0,1056.0,508.0,977.0,2211.0,1261.0,2169.0,1124.0,534.0,921.0,2147.0,1230.0,2096.0,1132.0
145,176 ST,40.8484597,-73.9117411,288.0,707.0,725.0,826.0,571.0,215.0,175.0,438.0,529.0,589.0,545.0,264.0,937.0,2703.0,1046.0,2398.0,981.0,337.0,896.0,2489.0,1094.0,2049.0,823.0,231.0,935.0,2733.0,1093.0,2490.0,1006.0,311.0,955.0,2727.0,1066.0,2492.0,1101.0,324.0,923.0,2530.0,1071.0,2342.0,1052.0
146,FULTON ST,40.709893,-74.0079818,153.0,745.0,1682.0,2275.0,1236.0,367.0,85.0,542.0,1553.0,2078.0,902.0,160.0,259.0,2178.0,1485.0,2779.0,1182.0,205.0,254.0,2165.0,1347.0,2641.0,1151.0,196.0,263.0,2206.0,1537.0,2868.0,1324.0,227.0,263.0,2200.0,1587.0,3070.0,1384.0,328.0,256.0,1896.0,1593.0,2774.0,1398.0
147,AVENUE J,40.6252684,-73.9607296,9.0,10.0,4.0,8.0,2.0,0.0,1.0,1.0,5.0,11.0,1.0,2.0,600.0,3186.0,1600.0,2706.0,1174.0,143.0,637.0,2917.0,1410.0,2332.0,1016.0,140.0,667.0,3233.0,1641.0,2642.0,1240.0,131.0,672.0,3237.0,1673.0,2695.0,1209.0,172.0,626.0,2946.0,1962.0,2147.0,850.0
148,183 ST,40.8583924,-73.90397810000002,542.0,1315.0,1280.0,1360.0,819.0,343.0,368.0,915.0,967.0,1070.0,726.0,262.0,1106.0,2690.0,1593.0,2366.0,1117.0,399.0,1081.0,2487.0,1282.0,2039.0,858.0,311.0,1109.0,2793.0,1593.0,2401.0,1146.0,357.0,1111.0,2837.0,1529.0,2397.0,1099.0,381.0,1098.0,2603.0,1506.0,2242.0,1162.0
149,18 AV,40.6201053,-73.9894661,511.0,2226.0,2071.0,2197.0,1076.0,414.0,370.0,2026.0,2081.0,2135.0,1051.0,253.0,1435.0,5427.0,2401.0,3947.0,1505.0,260.0,1317.0,5028.0,1928.0,3410.0,1220.0,271.0,1414.0,5415.0,2215.0,3929.0,1528.0,288.0,1438.0,5523.0,2434.0,4052.0,1314.0,262.0,1364.0,5297.0,2610.0,3655.0,1233.0
150,KINGSTON AV,40.669284499999996,-73.9422927,181.0,823.0,1076.0,1127.0,963.0,424.0,177.0,854.0,1224.0,1233.0,779.0,253.0,434.0,2746.0,1343.0,2335.0,1374.0,325.0,431.0,2607.0,1275.0,2227.0,1135.0,296.0,441.0,2790.0,1412.0,2260.0,1456.0,374.0,447.0,2759.0,1502.0,2449.0,1419.0,431.0,461.0,2551.0,2092.0,2118.0,1114.0
151,BEVERLEY ROAD,40.644229100000004,-73.96449799999998,10.0,1.0,0.0,0.0,0.0,2.0,0.0,0.0,0.0,0.0,0.0,0.0,339.0,2027.0,865.0,1694.0,1109.0,202.0,398.0,1909.0,750.0,1763.0,1674.0,215.0,408.0,2181.0,922.0,1804.0,1280.0,222.0,396.0,2143.0,876.0,1794.0,1210.0,193.0,370.0,1989.0,925.0,1635.0,1068.0
152,71 ST,40.619621200000005,-73.99877699999998,294.0,1361.0,1012.0,950.0,502.0,181.0,213.0,1082.0,819.0,774.0,442.0,103.0,956.0,3335.0,1100.0,1631.0,816.0,132.0,890.0,2910.0,755.0,1472.0,648.0,120.0,955.0,3169.0,756.0,1529.0,886.0,117.0,952.0,3269.0,952.0,1639.0,830.0,162.0,932.0,3100.0,1001.0,1655.0,825.0
153,ST. GEORGE,40.64400390000001,-74.07332480000001,273.0,790.0,777.0,956.0,579.0,269.0,165.0,415.0,621.0,699.0,477.0,145.0,1505.0,4894.0,1485.0,5309.0,1341.0,267.0,1478.0,4001.0,1275.0,4672.0,,,1498.0,4896.0,1478.0,4989.0,1735.0,284.0,1517.0,4530.0,1422.0,5310.0,1306.0,328.0,1373.0,4190.0,1610.0,4774.0,1362.0
154,MT EDEN AV,40.844528499999996,-73.9146157,274.0,675.0,721.0,724.0,633.0,203.0,181.0,504.0,,,514.0,252.0,930.0,2418.0,1015.0,2351.0,999.0,371.0,875.0,2215.0,1088.0,1990.0,792.0,332.0,905.0,2418.0,1208.0,2388.0,1040.0,366.0,945.0,2457.0,1121.0,2358.0,1046.0,400.0,913.0,2359.0,1065.0,2230.0,1104.0
155,MARBLE HILL-225,40.8743487,-73.91043309999998,251.0,891.0,998.0,1116.0,556.0,161.0,143.0,616.0,907.0,931.0,482.0,100.0,635.0,2244.0,997.0,1754.0,697.0,109.0,651.0,2018.0,,1455.0,583.0,103.0,,2340.0,1176.0,1826.0,752.0,143.0,675.0,2384.0,1073.0,1825.0,739.0,140.0,600.0,2201.0,1104.0,1831.0,734.0
156,174-175 STS,40.846524,-73.90972690000001,347.0,1164.0,1117.0,1097.0,669.0,264.0,243.0,808.0,891.0,902.0,506.0,204.0,660.0,2348.0,1424.0,1891.0,715.0,211.0,650.0,2174.0,1270.0,1887.0,578.0,192.0,669.0,2561.0,1557.0,2076.0,709.0,180.0,701.0,2392.0,1462.0,1908.0,704.0,210.0,639.0,2232.0,1256.0,1681.0,733.0
157,33 ST-RAWSON ST,40.744587,-73.93099699999998,283.0,1084.0,1455.0,1334.0,480.0,172.0,215.0,527.0,933.0,886.0,372.0,157.0,891.0,6049.0,4717.0,6913.0,2117.0,198.0,913.0,4519.0,2635.0,4984.0,1010.0,194.0,933.0,6365.0,5068.0,6761.0,2309.0,212.0,967.0,6168.0,4789.0,6884.0,1919.0,209.0,938.0,5015.0,3622.0,5451.0,1192.0
158,CITY HALL,40.7135245,-74.00671009999998,60.0,373.0,850.0,1006.0,342.0,142.0,41.0,272.0,530.0,615.0,271.0,48.0,192.0,2476.0,1882.0,4062.0,1083.0,95.0,241.0,2257.0,1587.0,3287.0,760.0,84.0,219.0,2636.0,2176.0,4076.0,1128.0,97.0,217.0,2548.0,2001.0,4258.0,992.0,169.0,200.0,2323.0,2018.0,3635.0,975.0
159,182-183 STS,40.8560934,-73.90102949999998,391.0,1137.0,1134.0,991.0,689.0,302.0,281.0,696.0,840.0,,,234.0,892.0,2188.0,1246.0,1516.0,690.0,264.0,856.0,1988.0,1079.0,1462.0,656.0,242.0,948.0,2230.0,1236.0,1696.0,819.0,248.0,951.0,2299.0,1175.0,1567.0,805.0,308.0,929.0,2045.0,1284.0,1583.0,842.0
160,PRESIDENT ST,40.668158500000004,-73.95065859999998,153.0,826.0,1237.0,1247.0,754.0,330.0,144.0,459.0,841.0,1015.0,607.0,175.0,385.0,3127.0,1444.0,2951.0,1394.0,244.0,389.0,2720.0,1126.0,2419.0,1107.0,186.0,396.0,3228.0,1704.0,2836.0,1554.0,255.0,395.0,3140.0,1513.0,2943.0,1447.0,319.0,343.0,2741.0,1471.0,2648.0,1113.0
161,77 ST,40.7736346,-73.95982939999998,182.0,958.0,1055.0,1066.0,604.0,162.0,115.0,636.0,876.0,775.0,438.0,91.0,754.0,3292.0,1152.0,1851.0,857.0,122.0,715.0,3174.0,1060.0,1807.0,734.0,109.0,759.0,3495.0,1169.0,1823.0,935.0,120.0,787.0,3363.0,1152.0,1800.0,893.0,167.0,687.0,3022.0,1146.0,1825.0,804.0
162,GUN HILL RD,40.87773920000001,-73.86630459999998,279.0,750.0,717.0,634.0,431.0,108.0,183.0,498.0,541.0,458.0,310.0,128.0,1407.0,2738.0,1172.0,1233.0,518.0,164.0,1323.0,2206.0,946.0,1072.0,435.0,107.0,1325.0,2767.0,1166.0,1304.0,558.0,137.0,1353.0,2735.0,1123.0,1317.0,631.0,128.0,1309.0,2567.0,1142.0,1291.0,671.0
163,79 ST,40.783934,-73.979917,327.0,1477.0,1026.0,898.0,397.0,113.0,203.0,1238.0,907.0,700.0,389.0,103.0,963.0,3782.0,1291.0,1530.0,633.0,124.0,934.0,3470.0,1057.0,1374.0,530.0,110.0,983.0,3803.0,965.0,1398.0,648.0,122.0,971.0,3892.0,1296.0,1554.0,649.0,115.0,987.0,3659.0,1243.0,1523.0,634.0
164,190 ST,40.858887700000004,-73.93422159999999,104.0,816.0,1179.0,1006.0,503.0,124.0,80.0,566.0,929.0,721.0,294.0,53.0,449.0,2678.0,837.0,1388.0,497.0,74.0,444.0,2540.0,784.0,1400.0,421.0,76.0,444.0,2770.0,1107.0,1252.0,585.0,86.0,440.0,2783.0,924.0,1463.0,626.0,108.0,415.0,2567.0,958.0,1387.0,548.0
165,20 AV,40.617271,-73.9847709,246.0,1067.0,882.0,903.0,491.0,91.0,151.0,865.0,880.0,712.0,379.0,74.0,809.0,2580.0,963.0,1338.0,655.0,91.0,774.0,2347.0,766.0,1243.0,561.0,89.0,831.0,2612.0,966.0,1386.0,760.0,133.0,832.0,2629.0,964.0,1589.0,730.0,143.0,805.0,2505.0,892.0,1404.0,697.0
166,25 ST,40.6604039,-73.99810550000001,205.0,813.0,1092.0,1028.0,646.0,305.0,126.0,535.0,799.0,884.0,516.0,146.0,402.0,2205.0,979.0,1885.0,919.0,203.0,438.0,2163.0,1016.0,1841.0,757.0,224.0,428.0,2293.0,1044.0,1877.0,936.0,287.0,455.0,2229.0,1058.0,1856.0,950.0,296.0,421.0,2187.0,1151.0,1885.0,838.0
167,BRIARWOOD,40.7093666,-73.81988539999998,191.0,793.0,792.0,764.0,421.0,155.0,129.0,516.0,627.0,600.0,346.0,88.0,754.0,2841.0,1296.0,1849.0,895.0,152.0,750.0,2675.0,1180.0,1606.0,794.0,194.0,749.0,2910.0,1268.0,1892.0,938.0,152.0,742.0,2866.0,1344.0,2013.0,946.0,206.0,712.0,2625.0,1352.0,1754.0,863.0
168,AQUEDUCT RACETR,40.6721498,-73.8356843,189.0,66.0,345.0,888.0,513.0,244.0,150.0,60.0,351.0,785.0,423.0,141.0,136.0,148.0,304.0,503.0,297.0,100.0,131.0,147.0,217.0,374.0,178.0,101.0,115.0,150.0,259.0,506.0,325.0,108.0,130.0,188.0,446.0,656.0,433.0,157.0,144.0,150.0,359.0,837.0,501.0
169,PENNSYLVANIA AV,40.6646911,-73.8941747,279.0,882.0,969.0,1000.0,625.0,227.0,199.0,616.0,779.0,800.0,522.0,155.0,702.0,2403.0,1256.0,2049.0,781.0,220.0,728.0,2273.0,1099.0,1722.0,627.0,209.0,766.0,2474.0,1262.0,1919.0,874.0,211.0,808.0,2411.0,1292.0,1982.0,946.0,222.0,703.0,2347.0,1333.0,1863.0,812.0
170,AVENUE M,40.6180725,-73.9593745,11.0,11.0,5.0,10.0,4.0,3.0,3.0,17.0,33.0,0.0,0.0,0.0,513.0,3404.0,1638.0,2358.0,745.0,71.0,550.0,3199.0,1518.0,1959.0,662.0,80.0,524.0,3493.0,1759.0,2367.0,837.0,85.0,543.0,3578.0,1809.0,2487.0,901.0,114.0,490.0,3240.0,1973.0,1895.0,598.0
171,OCEAN PKWY,40.5762935,-73.9684997,99.0,570.0,623.0,603.0,353.0,81.0,86.0,426.0,602.0,554.0,285.0,60.0,350.0,1552.0,983.0,1357.0,595.0,120.0,341.0,1384.0,848.0,1192.0,487.0,74.0,363.0,1525.0,944.0,1267.0,566.0,103.0,373.0,1488.0,998.0,1461.0,499.0,95.0,342.0,1429.0,1057.0,1146.0,470.0
172,AVENUE H,40.6297445,-73.96166170000001,13.0,5.0,7.0,9.0,0.0,2.0,3.0,3.0,0.0,9.0,0.0,2.0,309.0,2293.0,1382.0,2211.0,1089.0,132.0,346.0,1635.0,773.0,1324.0,692.0,107.0,342.0,2270.0,1468.0,2104.0,1109.0,113.0,365.0,2304.0,1417.0,2051.0,1005.0,172.0,362.0,1754.0,1130.0,1461.0,683.0
173,JUNIUS ST,40.67504,-73.904496,164.0,549.0,612.0,780.0,455.0,175.0,131.0,430.0,468.0,570.0,376.0,147.0,355.0,1482.0,878.0,1619.0,644.0,190.0,325.0,1341.0,694.0,1447.0,522.0,165.0,363.0,1443.0,865.0,1561.0,661.0,182.0,385.0,1464.0,759.0,1640.0,746.0,209.0,341.0,1436.0,930.0,1492.0,701.0
174,NECK RD,40.595153100000005,-73.9550266,160.0,852.0,611.0,576.0,262.0,80.0,102.0,559.0,532.0,501.0,239.0,61.0,585.0,2643.0,717.0,1351.0,606.0,86.0,574.0,2409.0,614.0,1297.0,566.0,76.0,575.0,2686.0,830.0,1351.0,658.0,78.0,617.0,2686.0,832.0,1358.0,645.0,89.0,572.0,2514.0,809.0,1386.0,573.0
175,VAN SICLEN AV,40.67274219999999,-73.8903155,243.0,637.0,779.0,866.0,703.0,258.0,161.0,451.0,584.0,680.0,499.0,197.0,576.0,1747.0,982.0,1790.0,862.0,264.0,605.0,1619.0,767.0,1536.0,688.0,228.0,573.0,1824.0,958.0,1752.0,946.0,262.0,639.0,1780.0,906.0,1838.0,953.0,282.0,543.0,1719.0,979.0,1684.0,901.0
176,138/GRAND CONC,40.8132249,-73.9298111,348.0,725.0,576.0,703.0,402.0,184.0,238.0,339.0,363.0,488.0,301.0,169.0,768.0,1610.0,1025.0,1742.0,573.0,207.0,733.0,1484.0,968.0,1433.0,442.0,199.0,742.0,1765.0,1122.0,1851.0,632.0,234.0,758.0,1640.0,1058.0,1850.0,617.0,245.0,738.0,1658.0,1159.0,1726.0,628.0
177,BEVERLY RD,40.8322067,-73.3848891,277.0,873.0,947.0,874.0,467.0,124.0,183.0,601.0,724.0,586.0,351.0,87.0,669.0,2386.0,856.0,904.0,404.0,100.0,668.0,2235.0,734.0,863.0,450.0,144.0,714.0,2498.0,925.0,1072.0,486.0,131.0,716.0,2440.0,917.0,1027.0,514.0,140.0,647.0,2258.0,868.0,983.0,572.0
178,75 AV,40.718331,-73.837324,65.0,455.0,658.0,568.0,296.0,59.0,43.0,266.0,458.0,384.0,185.0,22.0,273.0,2095.0,722.0,939.0,460.0,54.0,289.0,2038.0,630.0,902.0,402.0,46.0,291.0,2149.0,693.0,902.0,517.0,75.0,296.0,2115.0,733.0,1033.0,504.0,84.0,268.0,1925.0,731.0,909.0,452.0
179,BUSHWICK AV,40.7002958,-73.94116439999998,0.0,5.0,5.0,0.0,1.0,0.0,1.0,0.0,1.0,2.0,4.0,2.0,228.0,1037.0,540.0,916.0,591.0,17.0,219.0,1087.0,532.0,924.0,545.0,7.0,273.0,1157.0,633.0,1004.0,624.0,62.0,240.0,1106.0,639.0,975.0,699.0,46.0,219.0,1081.0,703.0,929.0,648.0
180,BEACH 67 ST,40.5909714,-73.79631690000001,213.0,425.0,500.0,512.0,362.0,153.0,136.0,317.0,393.0,470.0,335.0,123.0,557.0,919.0,562.0,822.0,522.0,150.0,512.0,955.0,484.0,812.0,422.0,126.0,578.0,1093.0,626.0,934.0,513.0,196.0,568.0,1124.0,562.0,936.0,595.0,174.0,547.0,959.0,632.0,907.0,524.0
181,WHITLOCK AV,40.82674420000001,-73.88634559999998,216.0,504.0,485.0,596.0,370.0,172.0,140.0,320.0,401.0,470.0,310.0,148.0,382.0,1272.0,609.0,1147.0,514.0,172.0,382.0,1102.0,622.0,1056.0,471.0,141.0,400.0,1234.0,,,510.0,158.0,400.0,1211.0,607.0,1234.0,524.0,182.0,390.0,1186.0,724.0,1192.0,557.0
182,W 8 ST-AQUARIUM,40.57612779999999,-73.97596539999998,45.0,324.0,533.0,475.0,169.0,49.0,31.0,293.0,475.0,463.0,160.0,43.0,226.0,1191.0,837.0,844.0,280.0,46.0,243.0,1030.0,702.0,723.0,228.0,35.0,225.0,1130.0,824.0,859.0,253.0,39.0,234.0,1056.0,802.0,906.0,273.0,46.0,224.0,1074.0,889.0,847.0,298.0
183,PARK PLACE,40.7132422,-74.0092559,41.0,277.0,525.0,656.0,246.0,57.0,38.0,180.0,462.0,528.0,188.0,36.0,167.0,2013.0,949.0,2426.0,620.0,55.0,192.0,1760.0,858.0,2073.0,581.0,56.0,176.0,1955.0,1235.0,2362.0,715.0,70.0,195.0,1991.0,1094.0,2504.0,613.0,76.0,172.0,1779.0,1070.0,2210.0,538.0
184,215 ST,40.8695946,-73.9153019,70.0,338.0,450.0,430.0,123.0,59.0,36.0,225.0,327.0,407.0,193.0,56.0,137.0,744.0,638.0,761.0,260.0,59.0,142.0,719.0,464.0,,,67.0,146.0,837.0,646.0,733.0,294.0,83.0,135.0,772.0,520.0,726.0,308.0,111.0,128.0,661.0,508.0,704.0,311.0
185,HOWARD BCH JFK,40.660476,-73.83030099999998,125.0,234.0,374.0,425.0,385.0,177.0,92.0,225.0,372.0,426.0,425.0,205.0,368.0,775.0,519.0,633.0,396.0,194.0,366.0,603.0,332.0,574.0,373.0,198.0,378.0,701.0,408.0,634.0,412.0,196.0,364.0,633.0,454.0,591.0,401.0,197.0,357.0,650.0,416.0,652.0,403.0
186,BEACH 25 ST,40.59946790000001,-73.7618536,178.0,364.0,399.0,457.0,330.0,202.0,122.0,289.0,308.0,349.0,312.0,136.0,553.0,913.0,547.0,1037.0,609.0,188.0,504.0,996.0,518.0,935.0,501.0,214.0,531.0,1099.0,559.0,1099.0,633.0,204.0,540.0,1082.0,592.0,1066.0,680.0,229.0,531.0,999.0,591.0,1008.0,553.0
187,BEACH 60 ST,40.59244,-73.78928300000003,217.0,444.0,448.0,473.0,378.0,149.0,150.0,352.0,336.0,387.0,316.0,122.0,610.0,1031.0,548.0,861.0,472.0,148.0,543.0,922.0,493.0,853.0,363.0,113.0,562.0,1060.0,552.0,892.0,492.0,155.0,550.0,1017.0,625.0,939.0,482.0,182.0,557.0,938.0,615.0,963.0,492.0
188,ATLANTIC AV,40.675554,-73.90305759999998,28.0,170.0,183.0,192.0,128.0,41.0,34.0,108.0,132.0,122.0,107.0,29.0,231.0,1015.0,411.0,801.0,277.0,20.0,249.0,924.0,338.0,741.0,226.0,40.0,286.0,1025.0,691.0,822.0,313.0,33.0,255.0,997.0,480.0,797.0,317.0,37.0,261.0,1008.0,420.0,817.0,313.0
189,BEACH 36 ST,40.595532,-73.7681238,86.0,233.0,219.0,251.0,203.0,88.0,76.0,147.0,200.0,226.0,196.0,71.0,329.0,638.0,258.0,517.0,327.0,104.0,251.0,430.0,234.0,450.0,264.0,68.0,264.0,522.0,283.0,590.0,325.0,81.0,269.0,525.0,312.0,582.0,357.0,121.0,262.0,462.0,321.0,538.0,298.0
190,55 ST,40.6315514,-73.9956328,62.0,248.0,245.0,239.0,153.0,63.0,44.0,351.0,392.0,436.0,215.0,44.0,178.0,1060.0,629.0,1121.0,384.0,59.0,167.0,1023.0,657.0,1095.0,322.0,64.0,190.0,1032.0,628.0,1076.0,375.0,66.0,174.0,1052.0,594.0,1120.0,390.0,67.0,178.0,1016.0,721.0,924.0,217.0
191,104 ST,40.695145600000004,-73.8443046,154.0,325.0,242.0,280.0,143.0,49.0,71.0,214.0,193.0,199.0,140.0,126.0,1229.0,2536.0,1143.0,1911.0,940.0,189.0,1188.0,2272.0,1047.0,1625.0,702.0,215.0,1228.0,2641.0,1177.0,1956.0,963.0,230.0,1234.0,2618.0,1134.0,1858.0,878.0,238.0,1185.0,2395.0,1130.0,1879.0,884.0
192,BEACH 44 ST,40.592920899999996,-73.77594839999998,85.0,154.0,192.0,216.0,164.0,80.0,61.0,106.0,167.0,144.0,159.0,84.0,217.0,393.0,221.0,418.0,266.0,93.0,226.0,362.0,184.0,401.0,210.0,77.0,248.0,421.0,224.0,444.0,234.0,90.0,228.0,355.0,239.0,498.0,231.0,99.0,234.0,347.0,270.0,433.0,248.0
193,WORLD TRADE CTR,40.712645200000004,-74.00989799999998,253.0,1462.0,3249.0,3658.0,1422.0,451.0,215.0,1053.0,2486.0,2699.0,969.0,180.0,1151.0,9770.0,4517.0,11961.0,3423.0,407.0,1245.0,8425.0,3869.0,10759.0,3147.0,436.0,1261.0,10048.0,4579.0,12249.0,3793.0,507.0,1319.0,9464.0,4654.0,12661.0,3751.0,630.0,1236.0,8635.0,5010.0,11297.0,3411.0
194,NASSAU AV,40.7238944,-73.9506777,414.0,2308.0,4335.0,5647.0,3528.0,1395.0,260.0,1428.0,3557.0,4107.0,2093.0,512.0,986.0,6148.0,2723.0,5741.0,2959.0,468.0,979.0,6130.0,2498.0,5761.0,3051.0,509.0,985.0,6538.0,2818.0,6288.0,3292.0,640.0,1037.0,6406.0,2656.0,6479.0,3401.0,910.0,991.0,5827.0,2839.0,5943.0,3192.0
195,39 AV,40.752689700000005,-73.9328056,140.0,475.0,682.0,816.0,452.0,219.0,116.0,305.0,524.0,574.0,348.0,105.0,258.0,1291.0,448.0,1161.0,689.0,117.0,251.0,1303.0,579.0,1222.0,550.0,127.0,257.0,1351.0,510.0,1309.0,759.0,140.0,250.0,1371.0,400.0,1353.0,756.0,157.0,248.0,1244.0,446.0,1331.0,744.0
196,36 AV,40.7668516,-73.921313,281.0,1358.0,2129.0,2388.0,1379.0,597.0,219.0,883.0,1671.0,1817.0,1107.0,316.0,657.0,4165.0,1568.0,3996.0,2012.0,435.0,675.0,4051.0,1820.0,3707.0,1847.0,381.0,692.0,4164.0,1544.0,3986.0,2374.0,468.0,652.0,4142.0,1616.0,4208.0,2241.0,528.0,612.0,3866.0,1441.0,4034.0,2028.0
197,BROADWAY,40.7623472,-73.9256595,349.0,1937.0,3376.0,3775.0,2552.0,1117.0,275.0,1341.0,2686.0,3141.0,1947.0,507.0,830.0,6132.0,1939.0,5676.0,3621.0,571.0,849.0,5921.0,2099.0,5785.0,3221.0,633.0,881.0,6448.0,2147.0,5876.0,4174.0,701.0,882.0,6442.0,2185.0,6465.0,3823.0,937.0,813.0,6029.0,2013.0,5979.0,3606.0
198,COURT SQ-23 ST,40.748050799999994,-73.94704779999998,160.0,905.0,1164.0,1218.0,638.0,140.0,94.0,538.0,910.0,881.0,409.0,81.0,497.0,2780.0,1496.0,2752.0,950.0,176.0,502.0,2904.0,1440.0,2747.0,1019.0,144.0,548.0,2973.0,1493.0,2931.0,942.0,191.0,587.0,2965.0,1493.0,2930.0,918.0,203.0,514.0,2689.0,1557.0,,963.0
199,ASTORIA DITMARS,40.7750119,-73.91211,639.0,2889.0,4235.0,4758.0,2942.0,1355.0,393.0,1934.0,,,2223.0,678.0,1707.0,9280.0,3695.0,7683.0,4801.0,920.0,1691.0,8736.0,3348.0,6947.0,3884.0,868.0,1738.0,9538.0,3949.0,7349.0,5069.0,1109.0,1772.0,9372.0,3857.0,7885.0,4895.0,1235.0,1611.0,8798.0,3887.0,7607.0,4526.0
200,CYPRESS HILLS,40.68994860000001,-73.87257310000003,15.0,8.0,7.0,2.0,8.0,1.0,5.0,1.0,2.0,1.0,20.0,34.0,334.0,799.0,335.0,678.0,215.0,71.0,313.0,736.0,307.0,606.0,202.0,48.0,351.0,837.0,366.0,664.0,242.0,57.0,339.0,824.0,393.0,672.0,275.0,70.0,337.0,769.0,417.0,634.0,243.0
201,30 AV,40.7668516,-73.921313,514.0,2446.0,3852.0,4413.0,2826.0,1279.0,398.0,1639.0,3164.0,3560.0,2045.0,557.0,1234.0,8065.0,2641.0,6834.0,4137.0,810.0,1233.0,7885.0,2978.0,6915.0,3667.0,810.0,1282.0,8469.0,2794.0,6689.0,4530.0,950.0,1325.0,8278.0,2734.0,7764.0,4334.0,1061.0,1159.0,7722.0,2603.0,6957.0,3963.0
202,121 ST,40.7006094,-73.8281286,16.0,11.0,6.0,1.0,1.0,0.0,0.0,0.0,0.0,0.0,36.0,79.0,386.0,1267.0,584.0,1115.0,404.0,86.0,397.0,1081.0,456.0,1013.0,411.0,113.0,408.0,1204.0,709.0,1238.0,528.0,136.0,454.0,1239.0,618.0,1225.0,509.0,153.0,408.0,1102.0,646.0,1141.0,436.0
203,75 ST-ELDERTS,40.69143649999999,-73.8665512,15.0,0.0,0.0,2.0,1.0,0.0,0.0,0.0,0.0,0.0,49.0,115.0,838.0,1845.0,712.0,1744.0,720.0,152.0,781.0,1946.0,791.0,1652.0,544.0,154.0,829.0,2198.0,956.0,1713.0,768.0,153.0,844.0,2121.0,841.0,1712.0,674.0,175.0,767.0,2000.0,854.0,1489.0,637.0
204,AVENUE X,40.589682200000006,-73.9742509,143.0,636.0,497.0,645.0,362.0,127.0,99.0,473.0,491.0,490.0,343.0,76.0,453.0,1546.0,743.0,1111.0,597.0,82.0,416.0,1335.0,533.0,1094.0,476.0,104.0,411.0,1588.0,693.0,1220.0,616.0,89.0,438.0,1607.0,745.0,1178.0,578.0,106.0,415.0,1418.0,674.0,1105.0,427.0
205,AVENUE P,40.6087814,-73.97290840000001,118.0,511.0,437.0,525.0,309.0,115.0,82.0,431.0,468.0,417.0,226.0,72.0,335.0,1473.0,406.0,800.0,402.0,85.0,360.0,1304.0,352.0,771.0,340.0,54.0,371.0,1434.0,409.0,867.0,333.0,72.0,368.0,1435.0,428.0,826.0,360.0,75.0,372.0,1277.0,434.0,770.0,281.0
206,85 ST-FOREST PK,40.6924861,-73.8590708,18.0,0.0,0.0,0.0,0.0,0.0,0.0,1.0,0.0,0.0,41.0,100.0,810.0,1874.0,908.0,1280.0,664.0,133.0,733.0,1650.0,697.0,1264.0,487.0,130.0,836.0,1924.0,893.0,1310.0,639.0,130.0,860.0,1926.0,814.0,1280.0,649.0,155.0,787.0,1753.0,869.0,1322.0,643.0
207,WOODHAVEN BLVD,40.6939097,-73.85139269999998,13.0,7.0,14.0,6.0,3.0,0.0,0.0,3.0,7.0,3.0,52.0,133.0,797.0,2403.0,971.0,1810.0,726.0,193.0,772.0,2092.0,903.0,1687.0,595.0,173.0,828.0,2386.0,1043.0,1875.0,814.0,176.0,821.0,2413.0,1017.0,1956.0,746.0,198.0,790.0,2235.0,1046.0,1835.0,792.0
208,METROPOLITAN AV,40.712132700000005,-73.889276,174.0,648.0,861.0,1094.0,476.0,116.0,106.0,391.0,701.0,778.0,407.0,87.0,714.0,2241.0,1080.0,2468.0,791.0,141.0,750.0,2026.0,957.0,2119.0,640.0,133.0,741.0,2223.0,1178.0,2317.0,839.0,122.0,751.0,2216.0,1128.0,2422.0,815.0,133.0,710.0,2062.0,1174.0,2359.0,712.0
209,GREENPOINT AV,40.7301618,-73.9540458,276.0,1630.0,3063.0,3746.0,2175.0,707.0,186.0,974.0,2298.0,2555.0,1268.0,243.0,836.0,5255.0,2357.0,5070.0,2543.0,271.0,839.0,5445.0,2315.0,5216.0,2686.0,322.0,813.0,5732.0,2606.0,5465.0,2864.0,355.0,817.0,5532.0,2622.0,5625.0,2876.0,583.0,786.0,5003.0,2701.0,5191.0,2695.0
