,StationName,Latitude,Longitude,2018-10-27 00:00:00,2018-10-27 04:00:00,2018-10-27 08:00:00,2018-10-27 12:00:00,2018-10-27 16:00:00,2018-10-27 20:00:00,2018-10-28 00:00:00,2018-10-28 04:00:00,2018-10-28 08:00:00,2018-10-28 12:00:00,2018-10-28 16:00:00,2018-10-28 20:00:00,2018-10-29 00:00:00,2018-10-29 04:00:00,2018-10-29 08:00:00,2018-10-29 12:00:00,2018-10-29 16:00:00,2018-10-29 20:00:00,2018-10-30 00:00:00,2018-10-30 04:00:00,2018-10-30 08:00:00,2018-10-30 12:00:00,2018-10-30 16:00:00,2018-10-30 20:00:00,2018-10-31 00:00:00,2018-10-31 04:00:00,2018-10-31 08:00:00,2018-10-31 12:00:00,2018-10-31 16:00:00,2018-10-31 20:00:00,2018-11-01 00:00:00,2018-11-01 04:00:00,2018-11-01 08:00:00,2018-11-01 12:00:00,2018-11-01 16:00:00,2018-11-01 20:00:00,2018-11-02 00:00:00,2018-11-02 04:00:00,2018-11-02 08:00:00,2018-11-02 12:00:00,2018-11-02 16:00:00
0,34 ST-HERALD SQ,40.748897899999996,-73.98878859999998,5709.0,4689.0,19010.0,33278.0,37532.0,20300.0,5191.0,3868.0,17957.0,32625.0,37203.0,17210.0,1959.0,17378.0,64309.0,44462.0,89119.0,26232.0,2447.0,18222.0,55552.0,27749.0,50652.0,28614.0,2828.0,14728.0,64673.0,46992.0,85944.0,29549.0,4023.0,17492.0,65647.0,46778.0,89813.0,28762.0,3414.0,16512.0,63127.0,51705.0,90455.0
1,TIMES SQ-42 ST,40.7545563,-73.98667370000001,6592.0,4371.0,16737.0,28881.0,34027.0,22913.0,5913.0,3586.0,15394.0,27729.0,34063.0,18494.0,2935.0,14453.0,49954.0,33789.0,68494.0,24216.0,3455.0,15306.0,51748.0,35758.0,74682.0,28479.0,4144.0,14502.0,50280.0,37144.0,69360.0,34431.0,6144.0,14886.0,44064.0,31586.0,73176.0,29906.0,4674.0,13759.0,50293.0,40022.0,70847.0
2,34 ST-PENN STA,40.751056,-73.99031020000001,4803.0,6540.0,21830.0,32565.0,33890.0,18903.0,5386.0,4662.0,20855.0,30804.0,36777.0,17211.0,2248.0,27588.0,65785.0,39464.0,84855.0,22617.0,2347.0,28199.0,67273.0,40905.0,86212.0,23740.0,1707.0,25838.0,26607.0,29034.0,51029.0,16896.0,2569.0,19103.0,46397.0,29764.0,55885.0,15846.0,1920.0,16332.0,37612.0,32491.0,54342.0
3,59 ST COLUMBUS,40.7684839,-73.98180699999999,3020.0,2935.0,13206.0,20973.0,20830.0,11941.0,2838.0,2754.0,13836.0,21854.0,21370.0,8355.0,1264.0,11354.0,35982.0,30632.0,46972.0,15929.0,1619.0,12038.0,37390.0,32842.0,49203.0,18153.0,1757.0,11530.0,36509.0,33103.0,47406.0,17572.0,2296.0,11831.0,36664.0,33783.0,49499.0,18997.0,2210.0,10481.0,33169.0,32810.0,45579.0
4,86 ST,40.7795016,-73.95557240000001,2072.0,3321.0,14484.0,22912.0,23479.0,9761.0,2132.0,2438.0,11530.0,19818.0,17976.0,6679.0,937.0,13448.0,31003.0,25992.0,39022.0,10211.0,916.0,14400.0,32067.0,26322.0,40361.0,11712.0,994.0,13969.0,31788.0,26814.0,38496.0,11281.0,1400.0,14410.0,32095.0,27321.0,39623.0,11896.0,1124.0,13476.0,31689.0,29874.0,38750.0
5,GRD CNTRL-42 ST,40.75216470000001,-73.97715339999998,2518.0,2513.0,10721.0,16719.0,15998.0,6840.0,1703.0,1652.0,10450.0,15250.0,14576.0,6129.0,771.0,15887.0,43884.0,24906.0,51906.0,11275.0,1475.0,16343.0,45861.0,26348.0,54063.0,12221.0,1636.0,15829.0,41917.0,26178.0,48631.0,11881.0,1985.0,15826.0,45016.0,27122.0,54462.0,13956.0,1764.0,14273.0,41119.0,29134.0,52773.0
6,59 ST,40.6415685,-74.0176783,2372.0,4884.0,14651.0,16658.0,19346.0,9209.0,1724.0,3476.0,13971.0,19769.0,18472.0,7033.0,1221.0,13941.0,34470.0,25484.0,42649.0,10936.0,1383.0,14518.0,36042.0,26938.0,44536.0,11985.0,1540.0,14041.0,35198.0,26898.0,41107.0,11052.0,1890.0,14207.0,35889.0,27783.0,44435.0,12406.0,1760.0,13695.0,34354.0,27597.0,41199.0
7,FLUSHING-MAIN,40.75955820000001,-73.82992209999998,2213.0,5260.0,14130.0,13849.0,15308.0,9791.0,2010.0,3593.0,12606.0,15488.0,15501.0,8683.0,1397.0,17475.0,25136.0,19526.0,31915.0,12778.0,1652.0,18214.0,25242.0,19002.0,30734.0,14063.0,1759.0,17925.0,24677.0,19209.0,31717.0,13702.0,2096.0,18163.0,25382.0,19150.0,32030.0,13922.0,1749.0,17399.0,24370.0,19414.0,29026.0
8,ATL AV-BARCLAY,40.6837598,-73.97875739999998,2795.0,2275.0,6998.0,13139.0,16123.0,10670.0,2342.0,1947.0,6996.0,14558.0,20858.0,6557.0,955.0,9279.0,21115.0,16942.0,28747.0,8140.0,1013.0,9372.0,22171.0,17741.0,30886.0,9339.0,1261.0,9127.0,20560.0,18245.0,31888.0,12839.0,1495.0,9409.0,21002.0,16975.0,32282.0,13070.0,1266.0,8544.0,20792.0,18256.0,33471.0
9,23 ST,40.7413626,-73.9891335,2135.0,1684.0,8375.0,14172.0,15704.0,8120.0,2371.0,1290.0,7017.0,12999.0,13082.0,5800.0,723.0,5317.0,22445.0,18361.0,34242.0,10487.0,759.0,5814.0,24300.0,19430.0,36429.0,11344.0,847.0,5504.0,23314.0,19168.0,33827.0,12904.0,1541.0,5706.0,23699.0,19846.0,35425.0,11413.0,1057.0,5123.0,22302.0,20276.0,33625.0
10,42 ST-PORT AUTH,40.7578346,-73.99146259999998,1973.0,4807.0,14541.0,16034.0,16477.0,10208.0,1863.0,2832.0,12772.0,14557.0,16821.0,9709.0,1016.0,19840.0,33620.0,17707.0,36427.0,11305.0,971.0,20582.0,33397.0,17575.0,38633.0,12438.0,1052.0,19576.0,30779.0,18411.0,35401.0,13347.0,1495.0,20016.0,32407.0,18335.0,36251.0,12885.0,1258.0,19040.0,31743.0,19676.0,36561.0
11,14 ST,40.73747540000001,-73.9970975,3118.0,1815.0,8634.0,16100.0,18060.0,10301.0,3143.0,1542.0,8000.0,17831.0,17327.0,6933.0,1036.0,5661.0,22708.0,17939.0,31862.0,10772.0,1158.0,6165.0,23665.0,19085.0,34141.0,11855.0,1355.0,5682.0,22829.0,19265.0,37576.0,27633.0,2752.0,6089.0,23487.0,19272.0,33091.0,12248.0,1470.0,5639.0,22027.0,19725.0,31726.0
12,JKSN HT-ROOSVLT,40.746739,-73.89099859999999,3656.0,5366.0,11641.0,13986.0,14624.0,8860.0,3377.0,3986.0,10825.0,14155.0,14525.0,8467.0,2346.0,12949.0,20660.0,17034.0,24613.0,10621.0,2636.0,13379.0,21070.0,17130.0,25664.0,11289.0,2935.0,12835.0,20681.0,17231.0,25191.0,12143.0,3794.0,13213.0,20827.0,17112.0,25035.0,11619.0,3456.0,12814.0,20818.0,17464.0,26338.0
13,BEDFORD AV,40.717354,-73.956972,19.0,,,32.0,49.0,8.0,6.0,13.0,29.0,26.0,29.0,28.0,5.0,4220.0,13720.0,9519.0,19231.0,7230.0,6.0,4587.0,14480.0,10008.0,20372.0,7906.0,1.0,4362.0,14169.0,10304.0,20349.0,9849.0,763.0,4475.0,14457.0,10347.0,19889.0,8627.0,1.0,4076.0,13921.0,11241.0,20773.0
14,47-50 STS ROCK,40.75885,-73.98118610000002,1839.0,1989.0,6918.0,11413.0,11466.0,5612.0,1518.0,1362.0,6349.0,9976.0,11011.0,4670.0,753.0,10001.0,41159.0,20116.0,45908.0,8673.0,1350.0,10931.0,43566.0,21194.0,47744.0,9956.0,1400.0,10374.0,43140.0,22336.0,44792.0,9092.0,1615.0,10602.0,42513.0,22188.0,46694.0,10715.0,1586.0,9760.0,41188.0,24021.0,43803.0
15,34 ST-HUDSON YD,40.7549713,-74.0010084,74.0,26.0,36.0,45.0,21.0,13.0,2.0,15.0,11.0,30.0,7.0,30.0,9.0,3531.0,6186.0,5457.0,6608.0,1275.0,188.0,3721.0,6668.0,6077.0,7154.0,1585.0,193.0,3686.0,5943.0,5512.0,5891.0,1425.0,278.0,3643.0,8239.0,9478.0,12186.0,2291.0,231.0,3438.0,9400.0,13013.0,13855.0
16,CHAMBERS ST,40.7155134,-74.00922270000001,1665.0,1887.0,8784.0,12779.0,11269.0,6217.0,1722.0,1441.0,8471.0,13056.0,11752.0,4584.0,626.0,9947.0,33518.0,27736.0,42151.0,9804.0,749.0,10661.0,35044.0,28976.0,44525.0,10246.0,857.0,10328.0,32884.0,28599.0,38898.0,9700.0,1136.0,10262.0,33926.0,29292.0,37843.0,9187.0,1019.0,9197.0,29835.0,28360.0,37442.0
17,125 ST,40.8043863,-73.9374292,2561.0,2359.0,7390.0,10931.0,11527.0,6862.0,2380.0,2058.0,8409.0,11924.0,2909.0,1538.0,1202.0,7850.0,15891.0,13797.0,20957.0,8011.0,1355.0,8360.0,16780.0,14393.0,22691.0,8734.0,1453.0,7992.0,16937.0,16574.0,21175.0,9481.0,2006.0,8093.0,16724.0,14741.0,5019.0,9351.0,1563.0,7779.0,16305.0,15672.0,21648.0
18,57 ST-7 AV,40.765564000000005,-73.9803309,1557.0,1558.0,5345.0,8278.0,9449.0,5770.0,1289.0,1270.0,5468.0,8143.0,8455.0,4010.0,573.0,4658.0,16717.0,12345.0,23417.0,8098.0,926.0,5115.0,17804.0,13128.0,25088.0,10220.0,1090.0,5141.0,17245.0,13399.0,23503.0,9706.0,1242.0,4925.0,17541.0,13578.0,24987.0,10517.0,1334.0,4718.0,16388.0,13896.0,23859.0
19,GRAND ST,40.7182003,-73.9935756,2.0,2.0,5.0,4.0,0.0,0.0,0.0,2.0,2.0,1.0,0.0,2.0,2.0,5120.0,14072.0,12367.0,16348.0,4907.0,330.0,5356.0,14564.0,12077.0,16855.0,5593.0,552.0,4783.0,13504.0,12269.0,15674.0,5872.0,760.0,5500.0,14305.0,12227.0,17112.0,5779.0,460.0,5076.0,14315.0,12858.0,18624.0
20,145 ST,40.8240532,-73.94476230000001,3099.0,2758.0,7347.0,9619.0,10356.0,7398.0,2931.0,2479.0,7286.0,10051.0,9783.0,5749.0,1510.0,8304.0,15977.0,12856.0,19226.0,7717.0,1248.0,8328.0,16308.0,12751.0,19944.0,8599.0,1449.0,8124.0,16314.0,13970.0,19856.0,8934.0,1961.0,8343.0,16372.0,13352.0,19628.0,8778.0,1604.0,7757.0,15384.0,13358.0,18535.0
21,42 ST-BRYANT PK,40.75483679999999,-73.9841215,1860.0,1574.0,5734.0,9478.0,10549.0,6191.0,1829.0,1246.0,4884.0,8949.0,9297.0,5080.0,825.0,5701.0,24514.0,14451.0,32019.0,7683.0,1068.0,6323.0,25529.0,15130.0,33633.0,8740.0,1139.0,5989.0,25315.0,16217.0,32315.0,8843.0,1472.0,6035.0,25559.0,16314.0,33346.0,9248.0,1240.0,5722.0,24408.0,16624.0,32450.0
22,2 AV,40.723412700000004,-73.9902885,2393.0,987.0,3455.0,6536.0,7939.0,5964.0,2688.0,912.0,3489.0,6520.0,6729.0,3709.0,590.0,2865.0,7282.0,5768.0,10160.0,4692.0,679.0,2992.0,7874.0,6042.0,10844.0,5399.0,662.0,2742.0,7691.0,6253.0,9887.0,6345.0,1653.0,2867.0,7733.0,6080.0,10810.0,6091.0,911.0,2733.0,7733.0,6532.0,12194.0
23,50 ST,40.7620363,-73.98632909999998,3823.0,2386.0,10160.0,15487.0,17343.0,12441.0,3935.0,2332.0,9491.0,14082.0,15757.0,8328.0,1471.0,8252.0,25593.0,16404.0,31250.0,10618.0,1499.0,8620.0,19112.0,13395.0,33315.0,12878.0,1833.0,7997.0,24657.0,17418.0,31590.0,14175.0,2927.0,8389.0,25325.0,17657.0,33194.0,13207.0,2184.0,7509.0,23860.0,18596.0,33472.0
24,CHURCH AV,40.6495233,-73.96328390000001,1021.0,1880.0,4237.0,4700.0,4992.0,2628.0,973.0,1464.0,4096.0,4849.0,4618.0,2462.0,696.0,8594.0,12324.0,9322.0,14322.0,5403.0,951.0,8791.0,12726.0,9230.0,14998.0,5973.0,1057.0,8650.0,12535.0,9583.0,14362.0,5757.0,1401.0,8670.0,12715.0,9447.0,14219.0,6025.0,1204.0,8252.0,12141.0,10210.0,13697.0
25,PRINCE ST,40.7242353,-73.99780600000001,684.0,565.0,4267.0,9859.0,10525.0,4006.0,832.0,456.0,3641.0,9731.0,10042.0,2602.0,212.0,1019.0,6353.0,6299.0,11139.0,2373.0,149.0,1026.0,6621.0,7140.0,11736.0,2559.0,171.0,1077.0,6511.0,6529.0,12069.0,5249.0,297.0,1043.0,6444.0,6773.0,11674.0,2818.0,235.0,869.0,6525.0,7633.0,12790.0
26,SPRING ST,40.7257799,-74.00395209999998,1055.0,576.0,3596.0,7806.0,8528.0,4183.0,1139.0,494.0,3078.0,7754.0,8141.0,2671.0,332.0,1831.0,8347.0,8810.0,15811.0,4492.0,378.0,1837.0,8806.0,8956.0,16727.0,4966.0,489.0,1843.0,8537.0,9431.0,12024.0,5684.0,764.0,1867.0,8561.0,9549.0,16569.0,5109.0,507.0,510.0,2899.0,10379.0,16789.0
27,LEXINGTON AV/63,40.764629,-73.96611299999998,750.0,662.0,2725.0,4566.0,4760.0,2289.0,752.0,544.0,2709.0,4733.0,4351.0,1734.0,285.0,4923.0,13229.0,9592.0,15522.0,4671.0,473.0,5173.0,14125.0,10784.0,16246.0,4908.0,496.0,4925.0,13628.0,10162.0,15053.0,4707.0,618.0,5233.0,14143.0,11349.0,16507.0,5292.0,587.0,4962.0,13484.0,10691.0,13858.0
28,NOSTRAND AV,40.6697362,-73.95050890000002,1356.0,1485.0,5051.0,6236.0,6460.0,2772.0,1068.0,1270.0,4518.0,6087.0,6040.0,3164.0,689.0,5092.0,10477.0,6680.0,10778.0,4704.0,746.0,5351.0,10859.0,6856.0,11092.0,5018.0,906.0,5155.0,10855.0,7181.0,11455.0,5084.0,1155.0,5348.0,10973.0,7205.0,11096.0,5740.0,1014.0,4849.0,10778.0,7744.0,11292.0
29,JAY ST-METROTEC,40.6922507,-73.9872792,1543.0,1439.0,5905.0,9441.0,8420.0,4418.0,1389.0,1099.0,6590.0,9748.0,7930.0,3361.0,541.0,5171.0,19587.0,18168.0,25455.0,6548.0,688.0,5636.0,20094.0,18434.0,26724.0,7167.0,752.0,5273.0,18956.0,18569.0,24495.0,6954.0,982.0,5516.0,19792.0,18201.0,26918.0,7203.0,874.0,4925.0,18188.0,17578.0,22946.0
30,1 AV,40.7312776,-73.9823439,1.0,4.0,4.0,1.0,0.0,1.0,13.0,11.0,12.0,18.0,55.0,5.0,5.0,4533.0,10240.0,8453.0,12824.0,4764.0,5.0,4869.0,10716.0,8710.0,13630.0,5826.0,4.0,4713.0,10338.0,9040.0,13620.0,7592.0,575.0,4872.0,10657.0,8757.0,13618.0,6102.0,0.0,4288.0,10588.0,9378.0,14496.0
31,STEINWAY ST,40.756691700000005,-73.92064090000001,831.0,1040.0,3234.0,4220.0,4658.0,2618.0,765.0,727.0,2845.0,4266.0,4281.0,2165.0,351.0,3576.0,7316.0,5340.0,8116.0,3371.0,365.0,3716.0,7496.0,5519.0,8340.0,3282.0,322.0,3562.0,7669.0,5961.0,8272.0,3506.0,438.0,3583.0,7678.0,5861.0,7918.0,3384.0,339.0,3409.0,7724.0,6064.0,8649.0
32,JUNCTION BLVD,40.749203,-73.8693365,1263.0,3407.0,5053.0,5483.0,5958.0,3228.0,1175.0,2002.0,4437.0,5607.0,5502.0,2778.0,832.0,8043.0,7295.0,6916.0,11911.0,4133.0,1095.0,8743.0,7563.0,6645.0,12017.0,4171.0,1200.0,8496.0,7456.0,6801.0,12007.0,4541.0,1259.0,8603.0,7643.0,6622.0,11765.0,4282.0,1268.0,8481.0,7754.0,7129.0,11607.0
33,DEKALB AV,40.68982020000001,-73.9811611,552.0,666.0,1813.0,2718.0,2605.0,1434.0,396.0,530.0,1722.0,2914.0,2468.0,1077.0,225.0,6653.0,13715.0,9558.0,13406.0,4047.0,366.0,6931.0,14873.0,9657.0,14057.0,4529.0,343.0,6672.0,14787.0,10087.0,13586.0,4637.0,688.0,6729.0,14575.0,9841.0,13574.0,4443.0,407.0,6248.0,13929.0,9842.0,12620.0
34,BOROUGH HALL,40.6931492,-73.9900883,896.0,824.0,3907.0,5507.0,4917.0,2325.0,506.0,577.0,3510.0,5800.0,4747.0,1701.0,220.0,3614.0,18660.0,15404.0,21545.0,4592.0,383.0,5147.0,19855.0,16136.0,21780.0,5184.0,388.0,5081.0,18788.0,16169.0,20313.0,4849.0,429.0,4930.0,19856.0,15992.0,21918.0,5190.0,464.0,4481.0,18130.0,15782.0,18529.0
35,CROWN HTS-UTICA,40.6689469,-73.93183379999998,1379.0,2136.0,4151.0,4940.0,4810.0,3092.0,1084.0,1543.0,3856.0,4730.0,4630.0,2660.0,820.0,9118.0,11212.0,8032.0,12872.0,5112.0,1064.0,,,8490.0,13383.0,5338.0,1086.0,8875.0,11638.0,8475.0,13014.0,5268.0,1160.0,8830.0,11752.0,8445.0,12747.0,5534.0,1226.0,8438.0,11209.0,8744.0,12369.0
36,8 ST-NYU,40.7306065,-73.99244159999998,1486.0,584.0,3856.0,7433.0,9066.0,6321.0,1543.0,568.0,3594.0,7418.0,8383.0,4232.0,480.0,1452.0,7349.0,5637.0,10980.0,3736.0,267.0,1625.0,7781.0,6241.0,12655.0,4264.0,303.0,1539.0,7396.0,5401.0,11251.0,6969.0,540.0,1474.0,7027.0,6169.0,11729.0,4064.0,324.0,1275.0,7061.0,5487.0,10152.0
37,CANAL ST,40.722713899999995,-74.00630600000001,908.0,799.0,3217.0,5754.0,6182.0,3277.0,1024.0,586.0,3186.0,5942.0,6120.0,2250.0,298.0,2968.0,10888.0,7982.0,14811.0,3432.0,360.0,3118.0,10912.0,8203.0,15511.0,3868.0,629.0,2894.0,10449.0,8246.0,21984.0,8486.0,611.0,3139.0,10858.0,8384.0,15730.0,3819.0,468.0,2801.0,10235.0,8845.0,14797.0
38,QUEENSBORO PLZ,40.7505127,-73.9398439,888.0,1166.0,3287.0,3662.0,3916.0,2161.0,755.0,922.0,3338.0,3526.0,3088.0,1705.0,493.0,2214.0,5707.0,4200.0,5967.0,1700.0,344.0,2284.0,5719.0,4303.0,6415.0,1845.0,398.0,,,4626.0,5995.0,1987.0,441.0,2320.0,,4563.0,6403.0,2057.0,,2191.0,5439.0,4439.0,6318.0
39,MYRTLE-WYCKOFF,40.699686,-73.9117713,931.0,1605.0,3491.0,3617.0,3676.0,2175.0,891.0,1074.0,2811.0,3441.0,3270.0,1758.0,460.0,5696.0,8082.0,5606.0,8291.0,3729.0,459.0,5871.0,8266.0,5846.0,9728.0,4157.0,541.0,5803.0,8289.0,6122.0,8400.0,4423.0,999.0,5898.0,8405.0,5947.0,8500.0,4059.0,509.0,5733.0,8336.0,6088.0,8284.0
40,51 ST,40.757135,-73.97191190000001,827.0,1021.0,3224.0,4861.0,4751.0,2454.0,597.0,766.0,3149.0,4185.0,4178.0,1716.0,274.0,3443.0,14773.0,8071.0,15103.0,3538.0,532.0,3938.0,15282.0,8607.0,15797.0,3896.0,601.0,3719.0,15144.0,8900.0,15093.0,3822.0,711.0,3504.0,15152.0,9271.0,15899.0,4226.0,628.0,3505.0,14826.0,9585.0,15937.0
41,COURT SQ,40.7467885,-73.944548,940.0,1223.0,2896.0,4009.0,4130.0,2525.0,1127.0,687.0,2549.0,3912.0,3647.0,1788.0,370.0,4509.0,11610.0,6918.0,13006.0,3180.0,399.0,4948.0,11915.0,7039.0,13363.0,3576.0,499.0,4809.0,11409.0,7147.0,16954.0,3397.0,609.0,4953.0,11886.0,7629.0,13268.0,3702.0,546.0,4420.0,10536.0,6952.0,11422.0
42,JAMAICA CENTER,40.702144700000005,-73.8008771,1688.0,3684.0,5182.0,5830.0,5940.0,3491.0,1241.0,582.0,814.0,4999.0,5635.0,3446.0,1144.0,15384.0,15584.0,13055.0,20490.0,7166.0,694.0,15598.0,15914.0,13516.0,21081.0,7535.0,819.0,15084.0,15280.0,13291.0,19958.0,6908.0,900.0,15128.0,15953.0,13367.0,21145.0,7584.0,821.0,14746.0,14578.0,12828.0,18972.0
43,49 ST,40.7598372,-73.98418249999999,1557.0,1338.0,4725.0,7820.0,9750.0,6614.0,1610.0,1073.0,4566.0,7301.0,8905.0,4737.0,673.0,3562.0,11592.0,7754.0,16717.0,5026.0,438.0,3519.0,12173.0,8402.0,18082.0,6156.0,485.0,3406.0,11562.0,8621.0,16887.0,5402.0,668.0,3452.0,12013.0,8219.0,17717.0,5796.0,602.0,3164.0,11535.0,8620.0,17837.0
44,BOWLING GREEN,40.7048108,-74.0144596,573.0,858.0,2870.0,3667.0,2847.0,1240.0,474.0,480.0,3722.0,4747.0,3754.0,1074.0,202.0,5764.0,19109.0,11867.0,20572.0,3082.0,424.0,6084.0,20359.0,12095.0,21833.0,3488.0,561.0,6102.0,18783.0,12340.0,19296.0,2968.0,595.0,6077.0,18070.0,11917.0,21152.0,3476.0,473.0,5534.0,17364.0,12053.0,18121.0
45,BLEECKER ST,40.7259346,-73.9946724,978.0,367.0,1546.0,3264.0,3779.0,2248.0,1052.0,361.0,1358.0,2930.0,3805.0,1634.0,286.0,1294.0,4949.0,3715.0,7029.0,2761.0,426.0,1419.0,5153.0,3992.0,7659.0,3266.0,538.0,1376.0,5141.0,4125.0,7338.0,4274.0,847.0,1396.0,5465.0,4265.0,7782.0,3430.0,574.0,1258.0,5036.0,4740.0,8400.0
46,VERNON-JACKSON,40.7426713,-73.9537248,110.0,14.0,7.0,18.0,2.0,0.0,0.0,3.0,2.0,12.0,7.0,0.0,0.0,3204.0,8253.0,3967.0,7549.0,2494.0,236.0,3494.0,8680.0,4133.0,7711.0,2741.0,289.0,3394.0,8436.0,4436.0,7726.0,2953.0,404.0,3408.0,8559.0,4356.0,7700.0,3109.0,304.0,3191.0,6935.0,4069.0,7615.0
47,28 ST,40.7470686,-73.99350919999998,905.0,911.0,3727.0,5483.0,5599.0,3237.0,790.0,593.0,3035.0,4671.0,4529.0,2048.0,291.0,1808.0,9172.0,5892.0,11276.0,2650.0,206.0,1997.0,9327.0,6574.0,12246.0,3014.0,237.0,1943.0,8961.0,6234.0,10735.0,2638.0,333.0,1822.0,9096.0,6633.0,11865.0,3006.0,292.0,1691.0,8525.0,6882.0,11876.0
48,SUTPHIN-ARCHER,40.700572799999996,-73.8077071,1305.0,2610.0,4274.0,5283.0,5413.0,3246.0,1074.0,1881.0,3552.0,4790.0,5404.0,3525.0,906.0,8633.0,9704.0,8642.0,12699.0,4952.0,586.0,7832.0,9251.0,8516.0,12605.0,5027.0,593.0,8108.0,9274.0,8797.0,12314.0,5007.0,745.0,8394.0,9466.0,8994.0,12916.0,5314.0,728.0,8022.0,9226.0,9622.0,13535.0
49,FORDHAM RD,40.8614886,-73.8905408,900.0,2223.0,3588.0,4388.0,4410.0,2368.0,946.0,1631.0,3137.0,4493.0,4094.0,1987.0,666.0,5853.0,6728.0,6301.0,8028.0,2717.0,650.0,6108.0,6833.0,6416.0,8235.0,2865.0,762.0,5924.0,6485.0,6523.0,7578.0,2566.0,883.0,6155.0,6703.0,6298.0,7849.0,2781.0,728.0,5858.0,6742.0,6390.0,7556.0
50,HIGH ST,40.6993673,-73.99126559999998,435.0,404.0,1688.0,2744.0,2804.0,1593.0,433.0,334.0,3554.0,6032.0,5302.0,1681.0,156.0,1874.0,7319.0,5064.0,8038.0,2110.0,161.0,1988.0,7831.0,5274.0,8474.0,2357.0,226.0,1913.0,7295.0,5205.0,6693.0,1907.0,216.0,1805.0,7511.0,5371.0,8674.0,2460.0,240.0,1845.0,6294.0,5097.0,7220.0
51,BROOKLYN BRIDGE,40.6993673,-73.99126559999998,468.0,558.0,2057.0,2772.0,2853.0,1588.0,467.0,413.0,2476.0,4332.0,4362.0,1364.0,221.0,3525.0,12010.0,9516.0,13147.0,2864.0,274.0,3678.0,12413.0,10200.0,13639.0,3056.0,370.0,3682.0,11691.0,9856.0,12097.0,2802.0,396.0,3827.0,11670.0,10366.0,3224.0,446.0,303.0,3394.0,10574.0,9486.0,11258.0
52,103 ST-CORONA,40.7498268,-73.862746,1421.0,3394.0,4976.0,4871.0,5519.0,3137.0,1339.0,1988.0,4304.0,4970.0,5119.0,2696.0,925.0,8411.0,6931.0,5614.0,8976.0,3814.0,1138.0,8770.0,6961.0,5803.0,9140.0,4002.0,1219.0,8604.0,6918.0,5751.0,9134.0,4155.0,1226.0,8767.0,6976.0,5857.0,9181.0,4078.0,1109.0,8575.0,6953.0,6130.0,9169.0
53,GRAND-NEWTOWN,40.736835,-73.87758840000001,703.0,1785.0,4170.0,3995.0,3881.0,2161.0,626.0,1167.0,3669.0,4398.0,3654.0,1946.0,384.0,6129.0,8158.0,5297.0,7552.0,2748.0,319.0,6204.0,8435.0,5353.0,7852.0,2947.0,318.0,6132.0,8168.0,5429.0,7244.0,2839.0,363.0,6036.0,8291.0,5180.0,7248.0,2694.0,372.0,5868.0,8141.0,5348.0,7521.0
54,181 ST,40.84913,-73.93372889999998,1131.0,1289.0,2774.0,3805.0,3886.0,2614.0,944.0,965.0,2520.0,3988.0,4191.0,2303.0,573.0,3213.0,5036.0,5221.0,6962.0,1817.0,8.0,3251.0,5342.0,5378.0,7192.0,1856.0,13.0,3132.0,5146.0,5178.0,6537.0,1904.0,21.0,3245.0,5244.0,5217.0,6943.0,1857.0,23.0,2951.0,5147.0,5373.0,6803.0
55,167 ST,40.835598,-73.9213791,982.0,1507.0,2164.0,2772.0,3089.0,2052.0,762.0,1138.0,1980.0,2684.0,2962.0,1738.0,613.0,4242.0,4486.0,3917.0,6207.0,2419.0,830.0,4468.0,4500.0,3808.0,6636.0,2737.0,767.0,4073.0,4440.0,4123.0,6153.0,2791.0,817.0,4403.0,4542.0,4030.0,6395.0,2696.0,858.0,4259.0,4602.0,4327.0,6296.0
56,82 ST-JACKSON H,40.7477145,-73.8839373,968.0,1455.0,3980.0,5563.0,5144.0,2735.0,830.0,993.0,3090.0,5190.0,4942.0,2247.0,554.0,4046.0,6781.0,7569.0,10773.0,3795.0,774.0,4198.0,6782.0,7521.0,10524.0,3935.0,887.0,4122.0,6563.0,7138.0,11183.0,4344.0,1100.0,4158.0,6646.0,7345.0,10498.0,3827.0,873.0,4009.0,6412.0,7774.0,10431.0
57,KINGS HWY,40.60867440000001,-73.9578059,454.0,905.0,2477.0,2786.0,2766.0,1362.0,343.0,751.0,2691.0,3351.0,3031.0,1216.0,217.0,6644.0,9499.0,7362.0,11968.0,3363.0,403.0,6642.0,9685.0,7544.0,12078.0,3856.0,469.0,6473.0,9500.0,7531.0,11554.0,3838.0,592.0,6612.0,9662.0,7523.0,11993.0,3777.0,528.0,6278.0,9047.0,7936.0,10273.0
58,3 AV-149 ST,40.816129,-73.917811,784.0,1743.0,3432.0,4042.0,3649.0,1982.0,647.0,1331.0,2977.0,3824.0,3514.0,1688.0,518.0,5685.0,7912.0,7655.0,8327.0,2312.0,546.0,5843.0,8208.0,7626.0,8710.0,2445.0,636.0,5598.0,7958.0,7749.0,7763.0,2386.0,624.0,5771.0,8087.0,7924.0,8467.0,2440.0,578.0,5469.0,7965.0,8365.0,8319.0
59,EAST BROADWAY,40.714402899999996,-73.98991880000001,548.0,681.0,2996.0,3764.0,3779.0,2356.0,688.0,659.0,3120.0,5549.0,3914.0,1733.0,344.0,2385.0,5881.0,5246.0,6168.0,2202.0,266.0,2358.0,5328.0,4628.0,6482.0,2215.0,246.0,2418.0,5674.0,4568.0,5780.0,2227.0,392.0,2261.0,5359.0,4531.0,6424.0,2368.0,375.0,2218.0,5158.0,4734.0,6262.0
60,72 ST,40.778453000000006,-73.98196999999998,212.0,154.0,1281.0,2472.0,2258.0,918.0,245.0,325.0,2029.0,3602.0,3243.0,588.0,90.0,947.0,3709.0,3471.0,5235.0,1129.0,128.0,1067.0,3764.0,3570.0,5289.0,1353.0,112.0,1014.0,3924.0,4056.0,6280.0,1457.0,168.0,1042.0,4063.0,4541.0,5500.0,1413.0,200.0,1047.0,4264.0,4275.0,5923.0
61,WALL ST,40.706396500000004,-74.0094441,589.0,675.0,2813.0,3753.0,3386.0,2232.0,585.0,559.0,2878.0,4292.0,3839.0,1507.0,196.0,4375.0,16701.0,6972.0,18420.0,2724.0,251.0,4851.0,17061.0,7469.0,18985.0,3079.0,326.0,4609.0,15938.0,7733.0,17216.0,2911.0,348.0,4764.0,16466.0,7396.0,18634.0,3473.0,366.0,4042.0,14629.0,7981.0,16311.0
62,21 ST-QNSBRIDGE,40.75417770000001,-73.94247419999998,422.0,507.0,1589.0,1588.0,1643.0,1046.0,371.0,408.0,1298.0,1374.0,1450.0,1024.0,214.0,2798.0,4762.0,3385.0,4917.0,1766.0,421.0,2880.0,4833.0,3645.0,5124.0,1910.0,384.0,2784.0,4995.0,3842.0,4860.0,2128.0,490.0,2934.0,4910.0,3905.0,4883.0,2150.0,415.0,2702.0,4873.0,3791.0,5112.0
63,HOYT-SCHER,40.688828799999996,-73.98531249999998,637.0,465.0,2191.0,4007.0,4144.0,2229.0,758.0,413.0,2377.0,4200.0,3897.0,1628.0,252.0,1610.0,5423.0,4465.0,6718.0,2062.0,279.0,1668.0,5351.0,4663.0,7038.0,2395.0,449.0,1656.0,5476.0,4647.0,6682.0,2278.0,353.0,1648.0,5567.0,4830.0,6980.0,2517.0,338.0,1510.0,5268.0,5091.0,6905.0
64,FRANKLIN AV,40.7190056,-74.0066801,771.0,659.0,2280.0,3286.0,3004.0,1810.0,703.0,504.0,2005.0,2983.0,2701.0,1325.0,285.0,2849.0,6816.0,3534.0,6146.0,2675.0,341.0,2897.0,7152.0,3735.0,6073.0,2918.0,332.0,2970.0,7036.0,3771.0,6086.0,2927.0,586.0,2836.0,7094.0,3932.0,5853.0,3039.0,459.0,2729.0,6710.0,3900.0,5853.0
65,168 ST,40.841041,-73.939971,1133.0,1876.0,4006.0,5332.0,4997.0,3323.0,1011.0,1479.0,3592.0,5156.0,4890.0,2669.0,628.0,5829.0,12188.0,9249.0,12876.0,3315.0,642.0,6036.0,12589.0,9334.0,13705.0,3511.0,639.0,5707.0,12251.0,9509.0,13067.0,3690.0,634.0,5771.0,9837.0,9229.0,13323.0,3549.0,621.0,5594.0,11328.0,7193.0,9786.0
66,NEVINS ST,40.6882963,-73.98052059999999,410.0,463.0,1612.0,2550.0,2389.0,1212.0,400.0,353.0,1359.0,2267.0,2239.0,913.0,216.0,2431.0,5584.0,4676.0,6710.0,1711.0,228.0,2543.0,5672.0,4834.0,7060.0,2114.0,258.0,2460.0,5525.0,4759.0,7017.0,2125.0,359.0,2445.0,5789.0,4921.0,7126.0,2155.0,290.0,2275.0,5628.0,5162.0,6660.0
67,5 AVE,40.760216299999996,-73.975543,241.0,161.0,520.0,1042.0,1057.0,463.0,90.0,92.0,414.0,1028.0,1475.0,516.0,58.0,1514.0,6441.0,4379.0,9168.0,2300.0,219.0,1762.0,6698.0,4461.0,9434.0,2542.0,270.0,1657.0,6357.0,4415.0,8977.0,2341.0,306.0,1593.0,6507.0,4575.0,9413.0,2659.0,318.0,1487.0,6154.0,4800.0,9066.0
68,PROSPECT PARK,40.66087879999999,-73.9621109,527.0,805.0,1376.0,1212.0,1083.0,677.0,378.0,900.0,2469.0,3099.0,1258.0,511.0,112.0,2585.0,5017.0,3216.0,5866.0,2575.0,456.0,2686.0,5365.0,3624.0,5952.0,2895.0,499.0,2671.0,5266.0,3705.0,6190.0,2616.0,548.0,2650.0,5321.0,3610.0,5914.0,2708.0,555.0,2459.0,5085.0,3618.0,5716.0
69,CENTRAL PK N110,40.798737599999995,-73.9522934,639.0,752.0,2009.0,2508.0,2593.0,1645.0,592.0,640.0,2211.0,3139.0,5634.0,1575.0,313.0,2326.0,4314.0,3238.0,4503.0,1742.0,381.0,2433.0,4526.0,3360.0,4767.0,2025.0,376.0,2528.0,4437.0,3885.0,4627.0,2037.0,449.0,2514.0,4601.0,3544.0,4795.0,1927.0,419.0,2420.0,4273.0,3578.0,4602.0
70,LEXINGTON AV/53,40.757698100000006,-73.96907420000001,1669.0,1898.0,6031.0,8121.0,8912.0,5110.0,1352.0,1282.0,5539.0,7581.0,7342.0,3807.0,568.0,8806.0,29935.0,14117.0,31734.0,6757.0,817.0,8967.0,31269.0,15407.0,33222.0,7478.0,873.0,8826.0,29114.0,8324.0,15164.0,7437.0,997.0,8927.0,30260.0,15554.0,32754.0,7660.0,1029.0,8314.0,28600.0,16819.0,31625.0
71,63 DR-REGO PARK,40.7301359,-73.86236729999999,256.0,869.0,2378.0,3024.0,2841.0,1311.0,233.0,643.0,2254.0,3349.0,3012.0,972.0,162.0,3933.0,6518.0,4227.0,5664.0,1521.0,266.0,4102.0,6863.0,4348.0,5936.0,1625.0,270.0,3990.0,6814.0,4161.0,5512.0,1623.0,335.0,4017.0,6800.0,4393.0,5702.0,1801.0,317.0,3796.0,6463.0,4230.0,5682.0
72,3 AV,40.733135299999994,-73.98675829999998,84.0,20.0,97.0,70.0,18.0,11.0,8.0,1.0,1.0,2.0,0.0,1.0,2.0,1053.0,2949.0,2631.0,4303.0,1984.0,1.0,1133.0,3013.0,2700.0,4603.0,2295.0,17.0,1089.0,2872.0,2929.0,4732.0,3076.0,294.0,1137.0,2904.0,2610.0,4325.0,2363.0,25.0,1000.0,2953.0,2778.0,4667.0
73,175 ST,40.847916600000005,-73.9394823,484.0,832.0,2310.0,2732.0,2835.0,1789.0,427.0,602.0,2114.0,2690.0,2542.0,1400.0,315.0,3322.0,5575.0,3413.0,5538.0,1732.0,359.0,3415.0,5638.0,3316.0,5687.0,1975.0,379.0,3144.0,5494.0,3487.0,5442.0,2093.0,559.0,3259.0,5711.0,3659.0,5600.0,1969.0,479.0,3155.0,5145.0,3624.0,5505.0
74,53 ST,40.760216299999996,-73.975543,623.0,1048.0,2124.0,2359.0,2574.0,1457.0,581.0,697.0,1749.0,2274.0,2147.0,1213.0,232.0,3102.0,3969.0,3590.0,5315.0,1966.0,378.0,3250.0,4153.0,3611.0,5227.0,2139.0,346.0,3125.0,3976.0,3637.0,5386.0,2054.0,446.0,3162.0,4157.0,3470.0,4842.0,2079.0,390.0,3049.0,4030.0,3728.0,5163.0
75,110 ST,40.798737599999995,-73.9522934,682.0,870.0,2317.0,2834.0,2837.0,1800.0,638.0,657.0,2043.0,2725.0,3833.0,1482.0,378.0,2951.0,5026.0,4075.0,5698.0,2081.0,398.0,3109.0,5109.0,4180.0,5971.0,2224.0,451.0,2954.0,3879.0,3795.0,5307.0,2352.0,575.0,3059.0,4946.0,4308.0,5666.0,2307.0,509.0,2889.0,4976.0,4535.0,5693.0
76,BEDFORD-NOSTRAN,40.6898534,-73.9516398,422.0,418.0,1582.0,2040.0,2090.0,1396.0,530.0,352.0,1561.0,2132.0,1823.0,897.0,204.0,1968.0,4552.0,2248.0,3647.0,1488.0,229.0,2072.0,4787.0,2318.0,3709.0,1676.0,296.0,1982.0,4644.0,2403.0,1949.0,1739.0,375.0,1942.0,4671.0,2362.0,3599.0,1718.0,280.0,1831.0,4510.0,2416.0,3564.0
77,GRAHAM AV,40.714526299999996,-73.94438180000002,9.0,17.0,25.0,28.0,0.0,2.0,0.0,0.0,1.0,0.0,0.0,0.0,0.0,1752.0,5171.0,2792.0,4300.0,1827.0,8.0,1844.0,5418.0,2739.0,4726.0,2180.0,15.0,1742.0,5379.0,2819.0,4645.0,2555.0,179.0,1813.0,5376.0,2818.0,4571.0,2284.0,12.0,1694.0,5251.0,2896.0,4637.0
78,46 ST BLISS ST,40.7430691,-73.91824030000002,718.0,1221.0,2458.0,2819.0,3094.0,1761.0,559.0,813.0,2290.0,2814.0,2956.0,1567.0,411.0,3916.0,5599.0,4167.0,6410.0,2605.0,513.0,3940.0,5743.0,4006.0,6371.0,2830.0,543.0,3967.0,5581.0,4134.0,6741.0,3010.0,714.0,3946.0,5660.0,4089.0,6166.0,2802.0,638.0,3831.0,5592.0,4210.0,6510.0
79,CHRISTOPHER ST,40.733578400000006,-74.00287279999998,959.0,247.0,1049.0,2171.0,2529.0,2212.0,911.0,213.0,942.0,2096.0,2507.0,1432.0,263.0,982.0,4083.0,3539.0,5869.0,2243.0,368.0,913.0,4263.0,3446.0,6300.0,3090.0,509.0,1070.0,4421.0,3638.0,8822.0,9115.0,1529.0,1044.0,4366.0,3911.0,6450.0,3367.0,592.0,1033.0,4283.0,4192.0,6781.0
80,191 ST,40.855738,-73.9306512,812.0,907.0,1979.0,2448.0,2662.0,1982.0,675.0,683.0,1770.0,2904.0,2883.0,1704.0,439.0,2784.0,3732.0,3485.0,5176.0,1478.0,15.0,2894.0,3873.0,3515.0,5402.0,1475.0,27.0,2692.0,3751.0,3088.0,5052.0,1477.0,22.0,2729.0,3692.0,3557.0,5171.0,1478.0,0.0,2643.0,3589.0,3416.0,4829.0
81,ROOSEVELT ISLND,40.7591362,-73.9533215,288.0,141.0,636.0,1044.0,1086.0,748.0,222.0,300.0,1251.0,1212.0,1431.0,792.0,75.0,1482.0,3854.0,2601.0,4107.0,1605.0,167.0,1536.0,4123.0,2613.0,4263.0,1725.0,147.0,1531.0,3978.0,2640.0,4104.0,2003.0,216.0,1547.0,4048.0,2858.0,4199.0,1812.0,177.0,1417.0,3741.0,2793.0,3893.0
82,BROADWAY JCT,40.6789137,-73.9039,1231.0,2083.0,3206.0,3487.0,3786.0,2737.0,1103.0,1627.0,3044.0,3790.0,3872.0,2512.0,812.0,2957.0,3625.0,3268.0,4320.0,1881.0,898.0,3183.0,3650.0,3410.0,4692.0,2020.0,1025.0,3135.0,3557.0,3591.0,4647.0,2192.0,910.0,3101.0,3677.0,3542.0,4699.0,2272.0,980.0,3066.0,3628.0,3747.0,4745.0
83,HOYT ST,40.688828799999996,-73.98531249999998,291.0,331.0,1477.0,3035.0,2977.0,1455.0,363.0,273.0,2011.0,3164.0,2649.0,918.0,133.0,1162.0,3900.0,3171.0,4843.0,1151.0,96.0,1293.0,3907.0,3200.0,4970.0,1416.0,116.0,1251.0,3857.0,3393.0,4450.0,1215.0,108.0,1265.0,3951.0,3152.0,5008.0,1339.0,103.0,1137.0,3857.0,3527.0,4780.0
84,135 ST,40.817894,-73.947647,614.0,947.0,2637.0,2967.0,2828.0,1585.0,427.0,808.0,2632.0,3311.0,2557.0,1321.0,356.0,3273.0,5650.0,3857.0,5160.0,1870.0,348.0,3383.0,5768.0,3960.0,5472.0,1950.0,404.0,3309.0,5656.0,4210.0,5120.0,2085.0,448.0,3178.0,5968.0,4084.0,5312.0,2090.0,426.0,3190.0,5624.0,4221.0,5050.0
85,ELMHURST AV,40.74244789999999,-73.88198440000001,281.0,1206.0,2850.0,2472.0,1938.0,914.0,246.0,814.0,2699.0,2536.0,1905.0,801.0,147.0,3768.0,5179.0,2674.0,2970.0,1012.0,119.0,3829.0,5236.0,2817.0,3055.0,975.0,117.0,3716.0,5149.0,2784.0,3026.0,1109.0,120.0,3727.0,5260.0,2790.0,2943.0,1006.0,106.0,3669.0,5039.0,2744.0,3182.0
86,RECTOR ST,40.7078954,-74.01363649999998,373.0,435.0,2187.0,2999.0,2680.0,1531.0,349.0,291.0,2193.0,2850.0,2739.0,936.0,122.0,1859.0,7552.0,4940.0,8466.0,1608.0,266.0,1925.0,7830.0,5274.0,9196.0,1888.0,231.0,1959.0,7114.0,4926.0,8489.0,1925.0,313.0,1710.0,7525.0,5153.0,8811.0,1884.0,256.0,1750.0,7052.0,5574.0,8385.0
87,4AV-9 ST,40.6701803,-73.98929150000002,438.0,414.0,1725.0,2262.0,2410.0,1503.0,497.0,395.0,1648.0,2543.0,2186.0,932.0,,2053.0,4712.0,,4475.0,1446.0,181.0,2191.0,5182.0,2883.0,4987.0,1612.0,196.0,2089.0,4950.0,3037.0,4973.0,1849.0,244.0,2150.0,5140.0,3054.0,4875.0,1720.0,200.0,2025.0,4804.0,3188.0,4671.0
88,96 ST,40.7858701,-73.95093469999998,225.0,265.0,1250.0,2184.0,2257.0,1193.0,385.0,193.0,1382.0,2584.0,2288.0,772.0,123.0,2053.0,5117.0,3947.0,6397.0,1439.0,117.0,2012.0,5194.0,4075.0,6623.0,1478.0,131.0,2017.0,5084.0,4498.0,6651.0,1497.0,194.0,2080.0,5077.0,4352.0,6494.0,1488.0,144.0,1917.0,4891.0,4165.0,5832.0
89,JAMAICA 179 ST,40.71264420000001,-73.7838184,745.0,690.0,1077.0,2566.0,2641.0,1367.0,664.0,1336.0,2339.0,2444.0,2360.0,1352.0,498.0,10269.0,8075.0,4618.0,6646.0,2350.0,743.0,10679.0,8133.0,4435.0,6934.0,2440.0,805.0,10429.0,8065.0,4434.0,6976.0,2438.0,930.0,10431.0,8073.0,4704.0,6809.0,2610.0,719.0,9773.0,7581.0,4613.0,6536.0
90,BRIGHTON BEACH,40.5776648,-73.96127690000002,288.0,849.0,1946.0,2336.0,2142.0,1009.0,268.0,653.0,1914.0,2451.0,2452.0,936.0,203.0,3321.0,1988.0,1802.0,5824.0,1934.0,178.0,3378.0,5356.0,5648.0,6010.0,2048.0,265.0,3404.0,5240.0,5351.0,5851.0,2030.0,270.0,3370.0,5172.0,5301.0,5928.0,2030.0,256.0,3192.0,4325.0,4275.0,4890.0
91,CARROLL ST,40.679331299999994,-73.9954833,371.0,312.0,1641.0,2339.0,2652.0,1577.0,403.0,226.0,1689.0,2537.0,2152.0,929.0,105.0,2132.0,5973.0,2926.0,4845.0,1378.0,136.0,2253.0,6269.0,3262.0,5090.0,1562.0,145.0,2241.0,6113.0,3378.0,4958.0,1589.0,234.0,2201.0,6283.0,3260.0,5330.0,1643.0,167.0,2058.0,5965.0,3403.0,4924.0
92,149/GRAND CONC,40.8183248,-73.9274121,,,,,,,,,,,,,,,,,,,,,,,,,,,,,,,,,,,,,,,,,
93,UNION ST,40.6771729,-73.98324670000001,574.0,350.0,1581.0,2216.0,2273.0,2006.0,781.0,262.0,1326.0,2028.0,1889.0,928.0,128.0,1510.0,3668.0,1890.0,3966.0,1280.0,119.0,1535.0,3898.0,2099.0,4231.0,1653.0,105.0,1485.0,3656.0,2072.0,3897.0,1510.0,198.0,1504.0,3804.0,2015.0,3847.0,1572.0,149.0,1378.0,3636.0,2154.0,3903.0
94,111 ST,40.75172999999999,-73.855334,781.0,1811.0,2749.0,2556.0,2708.0,1645.0,663.0,1053.0,2539.0,2614.0,2467.0,1483.0,536.0,5946.0,4955.0,3722.0,5732.0,2287.0,616.0,6184.0,4835.0,3902.0,6022.0,2445.0,634.0,6017.0,4851.0,3873.0,5620.0,2320.0,665.0,6106.0,5011.0,3846.0,5845.0,2371.0,652.0,5883.0,4790.0,3942.0,5598.0
95,MONTROSE AV,40.7077716,-73.93986329999998,4.0,5.0,1.0,3.0,2.0,2.0,2.0,1.0,1.0,0.0,2.0,4.0,2.0,1185.0,3096.0,1841.0,2622.0,1137.0,0.0,1263.0,3288.0,1864.0,2872.0,1295.0,0.0,1213.0,3220.0,1991.0,2687.0,1531.0,249.0,1259.0,3229.0,1988.0,2800.0,1399.0,5.0,1140.0,3093.0,1983.0,2971.0
96,MORGAN AV,40.70607589999999,-73.93370999999998,1.0,20.0,20.0,17.0,18.0,6.0,7.0,7.0,5.0,5.0,3.0,2.0,7.0,1338.0,2923.0,2016.0,2928.0,1239.0,1.0,1409.0,3159.0,2151.0,3083.0,1338.0,7.0,1355.0,3161.0,2212.0,2958.0,1495.0,195.0,1416.0,3042.0,2200.0,3016.0,1339.0,6.0,1284.0,2998.0,2235.0,3170.0
97,90 ST-ELMHURST,40.748436700000006,-73.87652890000001,665.0,2120.0,3965.0,3810.0,3432.0,1845.0,597.0,1362.0,3283.0,3662.0,3058.0,1571.0,486.0,5785.0,5422.0,4285.0,5732.0,2216.0,532.0,5932.0,5466.0,4157.0,5704.0,2344.0,618.0,5847.0,5447.0,4119.0,5946.0,2356.0,631.0,5896.0,5773.0,4354.0,5936.0,2498.0,619.0,5764.0,5495.0,4460.0,5596.0
98,6 AV,40.7373653,-73.99684529999998,182.0,66.0,265.0,831.0,1089.0,584.0,134.0,69.0,191.0,582.0,862.0,438.0,47.0,530.0,1998.0,1649.0,3013.0,1148.0,56.0,613.0,2199.0,1759.0,3459.0,1340.0,95.0,615.0,2139.0,1775.0,3673.0,3128.0,219.0,627.0,2121.0,1662.0,3091.0,1280.0,89.0,599.0,2092.0,1774.0,3084.0
99,BOWERY,40.720166799999994,-73.99353470000001,704.0,300.0,1561.0,2086.0,2037.0,1333.0,595.0,246.0,1304.0,1948.0,2154.0,994.0,207.0,537.0,2055.0,1650.0,2346.0,1084.0,248.0,536.0,1977.0,1650.0,2539.0,1307.0,415.0,552.0,2000.0,1770.0,2406.0,1455.0,487.0,563.0,2026.0,1670.0,2790.0,1353.0,389.0,538.0,1975.0,1787.0,2799.0
100,BURNSIDE AV,40.85345299999999,-73.90768400000002,527.0,1152.0,1884.0,2187.0,1967.0,1161.0,430.0,813.0,1526.0,1986.0,1979.0,1125.0,369.0,3043.0,3781.0,4088.0,4327.0,1769.0,494.0,3161.0,3980.0,3999.0,4391.0,1710.0,407.0,2943.0,3787.0,4016.0,3949.0,1613.0,486.0,3149.0,3105.0,2967.0,4361.0,1830.0,421.0,2898.0,3656.0,3619.0,3869.0
101,45 ST,40.6493588,-74.00959069999998,263.0,692.0,1585.0,1678.0,1538.0,893.0,295.0,478.0,1341.0,1690.0,1559.0,765.0,169.0,2416.0,2948.0,2247.0,3519.0,1113.0,242.0,2546.0,3226.0,2210.0,3493.0,1274.0,235.0,2468.0,3136.0,2318.0,3397.0,1232.0,315.0,2455.0,3196.0,2186.0,3031.0,1171.0,257.0,2320.0,3015.0,2353.0,3181.0
102,170 ST,40.840050399999996,-73.9133477,583.0,987.0,1420.0,1335.0,1819.0,1131.0,472.0,757.0,1487.0,1969.0,2091.0,1118.0,410.0,2898.0,3014.0,2687.0,4100.0,1514.0,479.0,3034.0,3089.0,2557.0,4259.0,1603.0,467.0,2870.0,2900.0,2606.0,3812.0,1511.0,486.0,3003.0,3019.0,2410.0,4179.0,1639.0,483.0,2879.0,3125.0,3221.0,3977.0
103,169 ST,40.7104152,-73.79374600000001,432.0,899.0,1457.0,1882.0,1998.0,1056.0,344.0,718.0,1335.0,1805.0,1715.0,960.0,235.0,2941.0,3486.0,3372.0,4736.0,1556.0,350.0,2964.0,3563.0,3289.0,4977.0,1751.0,357.0,2804.0,3350.0,3389.0,4835.0,1751.0,470.0,2859.0,3566.0,3162.0,4921.0,1715.0,422.0,2688.0,3531.0,3385.0,4698.0
104,74 ST-BROADWAY,40.746941899999996,-73.89146020000001,266.0,266.0,891.0,1354.0,1448.0,824.0,253.0,212.0,821.0,1559.0,1608.0,773.0,161.0,670.0,1269.0,1650.0,2676.0,1166.0,224.0,695.0,1334.0,1495.0,2562.0,1174.0,214.0,699.0,1287.0,1703.0,2588.0,1276.0,260.0,717.0,1323.0,1788.0,2619.0,1201.0,252.0,703.0,1325.0,1739.0,2737.0
105,40 ST LOWERY ST,40.7438729,-73.92423409999998,463.0,644.0,1737.0,2133.0,2025.0,1359.0,373.0,430.0,1518.0,1873.0,1822.0,1153.0,197.0,3091.0,4870.0,3661.0,5702.0,2063.0,324.0,3051.0,5148.0,3690.0,5681.0,2179.0,346.0,2984.0,5117.0,3746.0,5667.0,2438.0,456.0,3036.0,5210.0,3769.0,5739.0,2311.0,416.0,2847.0,4915.0,3904.0,5527.0
106,CASTLE HILL AV,40.83429599999999,-73.85168399999998,591.0,808.0,1381.0,1627.0,1738.0,1043.0,494.0,623.0,1266.0,1568.0,1717.0,1008.0,346.0,3100.0,2615.0,2315.0,4075.0,1542.0,416.0,3198.0,2532.0,2106.0,4095.0,1609.0,538.0,2980.0,2566.0,2471.0,3843.0,1448.0,584.0,3115.0,2675.0,2544.0,3952.0,1607.0,484.0,2885.0,2702.0,2779.0,3767.0
107,HALSEY ST,40.69577750000001,-73.9044092,10.0,19.0,21.0,19.0,18.0,29.0,21.0,18.0,10.0,15.0,13.0,10.0,11.0,2575.0,3268.0,1978.0,3564.0,1399.0,21.0,2719.0,3473.0,2220.0,3779.0,1532.0,6.0,2585.0,3382.0,2038.0,3515.0,1672.0,258.0,2648.0,3283.0,2165.0,3578.0,1672.0,17.0,2633.0,3272.0,2257.0,3555.0
108,CLARK ST,40.6974878,-73.99314090000001,151.0,147.0,939.0,1390.0,1371.0,884.0,191.0,118.0,1257.0,2045.0,1836.0,739.0,56.0,704.0,2580.0,1612.0,2774.0,803.0,41.0,758.0,2796.0,1775.0,2796.0,987.0,56.0,785.0,2627.0,1908.0,2683.0,996.0,93.0,731.0,2516.0,1869.0,2898.0,1215.0,85.0,713.0,2433.0,1732.0,2775.0
109,SUTTER AV-RUTLD,40.664992100000006,-73.92290849999998,462.0,672.0,1387.0,1606.0,1760.0,1119.0,386.0,525.0,1248.0,1597.0,1607.0,1014.0,331.0,2931.0,2919.0,2810.0,4338.0,1482.0,377.0,3039.0,3143.0,2826.0,4448.0,1651.0,381.0,2884.0,3012.0,2998.0,4399.0,1665.0,426.0,2958.0,3166.0,2907.0,4465.0,1678.0,392.0,2847.0,2991.0,3194.0,4218.0
110,EASTN PKWY-MUSM,40.671993799999996,-73.96420649999999,317.0,213.0,1135.0,2426.0,2066.0,879.0,265.0,151.0,949.0,2194.0,1829.0,631.0,105.0,861.0,2263.0,1325.0,2600.0,992.0,107.0,897.0,2536.0,1574.0,2696.0,1207.0,125.0,893.0,2594.0,1808.0,2804.0,1024.0,127.0,872.0,2585.0,1619.0,3036.0,1282.0,145.0,773.0,2406.0,1767.0,2608.0
111,BAY RIDGE AV,40.634968,-74.023376,253.0,610.0,1488.0,1582.0,1594.0,837.0,213.0,417.0,1345.0,1594.0,1423.0,668.0,165.0,2341.0,3355.0,2086.0,2983.0,982.0,147.0,2729.0,3411.0,2207.0,3007.0,1190.0,154.0,2428.0,3210.0,2120.0,3297.0,1245.0,215.0,2520.0,3370.0,2156.0,2843.0,1042.0,178.0,2384.0,3166.0,2075.0,2991.0
112,OZONE PK LEFFRT,40.685956700000006,-73.8257601,442.0,976.0,1346.0,1552.0,1599.0,912.0,336.0,743.0,1213.0,1410.0,1458.0,815.0,324.0,4094.0,2784.0,2133.0,4005.0,1403.0,379.0,4225.0,2906.0,2019.0,4151.0,1536.0,368.0,4211.0,2837.0,2211.0,4061.0,1345.0,462.0,4295.0,2847.0,2311.0,4077.0,1520.0,371.0,3940.0,2689.0,2201.0,3849.0
113,JEFFERSON ST,40.7065868,-73.922872,5.0,4.0,9.0,9.0,1.0,0.0,3.0,1.0,0.0,0.0,1.0,4.0,2.0,1408.0,2813.0,1794.0,2392.0,789.0,1.0,1466.0,2856.0,1922.0,2525.0,935.0,4.0,1396.0,2867.0,1794.0,2508.0,1178.0,400.0,1452.0,2812.0,1832.0,2519.0,1002.0,9.0,1347.0,2709.0,1867.0,2593.0
114,MORISN AV/SNDVW,40.8294898,-73.8746754,578.0,907.0,1315.0,1550.0,1536.0,1019.0,509.0,689.0,1153.0,1480.0,1437.0,899.0,356.0,2889.0,2300.0,2027.0,3141.0,1311.0,481.0,2920.0,2389.0,1839.0,2877.0,1341.0,485.0,2802.0,2342.0,2177.0,2779.0,1315.0,583.0,2890.0,2405.0,2149.0,3043.0,1412.0,484.0,2799.0,2447.0,2364.0,2827.0
115,207 ST,40.8676635,-73.9212009,320.0,554.0,1246.0,1542.0,1522.0,873.0,239.0,497.0,1192.0,1802.0,1604.0,781.0,194.0,1820.0,2148.0,2160.0,2478.0,708.0,64.0,1810.0,2273.0,2157.0,2511.0,758.0,90.0,1750.0,2341.0,2054.0,2572.0,659.0,82.0,1797.0,2276.0,2033.0,2535.0,756.0,71.0,1764.0,2225.0,2116.0,2504.0
116,EUCLID AV,40.6754013,-73.8719033,325.0,1079.0,1901.0,1765.0,1523.0,917.0,303.0,846.0,1668.0,1927.0,1477.0,892.0,295.0,3796.0,3921.0,2810.0,2940.0,1114.0,277.0,3951.0,4061.0,2940.0,3107.0,1208.0,294.0,3743.0,3836.0,2784.0,2861.0,1222.0,332.0,3746.0,3897.0,2797.0,3081.0,1204.0,302.0,3631.0,3853.0,2948.0,2949.0
117,GRAND ARMY PLAZ,40.6752403,-73.97104159999998,221.0,231.0,1614.0,2306.0,2035.0,993.0,206.0,182.0,1513.0,2387.0,1900.0,686.0,72.0,1212.0,3752.0,1902.0,2904.0,784.0,51.0,1245.0,3867.0,1989.0,3069.0,924.0,75.0,1230.0,3722.0,1994.0,3282.0,913.0,91.0,1245.0,3811.0,1978.0,3097.0,1017.0,75.0,1130.0,3540.0,2018.0,2758.0
118,PARSONS BLVD,40.707714,-73.8028238,440.0,773.0,1248.0,1381.0,1324.0,887.0,367.0,579.0,1133.0,1411.0,1208.0,791.0,297.0,2701.0,2944.0,2789.0,3464.0,1203.0,597.0,2864.0,2985.0,2755.0,3639.0,1326.0,593.0,2699.0,2765.0,2671.0,3553.0,1214.0,786.0,2841.0,2891.0,2752.0,3649.0,1365.0,527.0,2699.0,2798.0,2757.0,3468.0
119,231 ST,40.87899229999999,-73.904939,216.0,710.0,1444.0,1781.0,1700.0,825.0,168.0,530.0,1439.0,2067.0,1603.0,597.0,131.0,3402.0,3737.0,2418.0,2973.0,870.0,115.0,3483.0,3894.0,2506.0,3120.0,952.0,136.0,3330.0,3758.0,2583.0,2953.0,850.0,108.0,3407.0,3832.0,2512.0,2956.0,892.0,87.0,3330.0,3760.0,2631.0,2862.0
120,SMITH-9 ST,40.6746048,-73.99703970000002,279.0,543.0,1311.0,1640.0,1500.0,818.0,253.0,261.0,1013.0,1564.0,1437.0,594.0,121.0,1677.0,2732.0,2059.0,3070.0,845.0,151.0,1819.0,2807.0,2132.0,3233.0,966.0,155.0,1682.0,2684.0,2176.0,2912.0,938.0,232.0,1741.0,2668.0,2211.0,3226.0,1028.0,168.0,1706.0,2644.0,2268.0,3140.0
121,4 AV-9 ST,40.6701803,-73.98929150000002,426.0,272.0,857.0,1159.0,1384.0,1056.0,485.0,227.0,805.0,1325.0,1422.0,658.0,,966.0,1836.0,,3102.0,1085.0,133.0,1018.0,1998.0,1488.0,3201.0,1084.0,140.0,934.0,1941.0,1537.0,3228.0,1112.0,246.0,993.0,2037.0,1626.0,3267.0,1162.0,189.0,927.0,1979.0,1582.0,2970.0
122,67 AV,40.7263823,-73.8515929,209066195.0,209066398.0,1366.0,1475.0,1255.0,579.0,79.0,245.0,1210.0,1352.0,1099.0,499.0,92.0,2814.0,4169.0,2164.0,3446.0,889.0,91.0,2907.0,4399.0,2194.0,3653.0,1051.0,103.0,2828.0,4239.0,2220.0,3383.0,947.0,122.0,2793.0,4374.0,2235.0,3492.0,1079.0,114.0,2604.0,4077.0,2188.0,3045.0
123,ROCKAWAY AV,40.6625632,-73.9089054,393.0,500.0,1062.0,1210.0,1244.0,742.0,398.0,412.0,924.0,1206.0,1246.0,775.0,301.0,1983.0,2295.0,2152.0,3004.0,1051.0,321.0,2063.0,2356.0,1977.0,3131.0,1119.0,308.0,1878.0,2241.0,2159.0,2911.0,1189.0,347.0,1971.0,2369.0,2193.0,3153.0,1165.0,290.0,1893.0,1868.0,2226.0,2923.0
124,PELHAM BAY PARK,40.852930799999996,-73.8270555,252.0,679.0,,1216.0,,852.0,284.0,474.0,1071.0,1413.0,1349.0,680.0,242.0,3395.0,2667.0,1929.0,2528.0,911.0,280.0,3443.0,2691.0,2099.0,2707.0,1059.0,299.0,3181.0,2605.0,1956.0,2660.0,1049.0,299.0,3383.0,2599.0,2142.0,2603.0,1059.0,277.0,3161.0,2618.0,2121.0,2376.0
125,CLASSON AV,40.688873,-73.96007,323.0,316.0,1042.0,1468.0,1684.0,1206.0,395.0,247.0,918.0,1515.0,1565.0,846.0,159.0,1387.0,2951.0,1776.0,3464.0,1388.0,135.0,1419.0,3101.0,1820.0,3467.0,1571.0,188.0,1355.0,3047.0,1924.0,2948.0,1722.0,318.0,1430.0,3102.0,1863.0,3462.0,1694.0,214.0,1334.0,2987.0,2048.0,3365.0
126,NEW LOTS AV,40.6663015,-73.88371579999998,433.0,650.0,979.0,1185.0,1281.0,959.0,483.0,539.0,992.0,1194.0,1241.0,841.0,340.0,2520.0,2357.0,2192.0,3504.0,1325.0,404.0,2641.0,2467.0,2096.0,3671.0,1467.0,431.0,2540.0,2352.0,2304.0,3390.0,1513.0,476.0,2615.0,2437.0,2223.0,3449.0,1473.0,452.0,2464.0,2308.0,2287.0,3298.0
127,GRANT AV,40.6768777,-73.86534619999998,462.0,790.0,1291.0,1385.0,1415.0,880.0,441.0,635.0,1115.0,1317.0,1338.0,831.0,305.0,2431.0,2637.0,2067.0,2950.0,1207.0,351.0,2543.0,2678.0,2046.0,3090.0,1442.0,413.0,2448.0,2563.0,2120.0,2968.0,1252.0,501.0,2538.0,2683.0,2111.0,3118.0,1366.0,410.0,2387.0,2561.0,1984.0,3063.0
128,STERLING ST,40.6632908,-73.951044,311.0,356.0,1205.0,1484.0,1432.0,739.0,276.0,297.0,1124.0,1358.0,1167.0,641.0,173.0,1510.0,2855.0,1727.0,2481.0,876.0,152.0,1575.0,2870.0,1713.0,2619.0,1041.0,150.0,1595.0,2772.0,1792.0,2647.0,1034.0,201.0,1547.0,2908.0,1761.0,2579.0,1008.0,170.0,1465.0,2701.0,1869.0,2429.0
129,PROSPECT AV,40.66541369999999,-73.99292590000002,295.0,356.0,1014.0,1397.0,1357.0,837.0,348.0,352.0,904.0,1175.0,1001.0,526.0,116.0,1583.0,3236.0,1736.0,2920.0,849.0,143.0,1588.0,3528.0,1780.0,3212.0,1094.0,138.0,1663.0,3340.0,1846.0,2913.0,1041.0,197.0,1754.0,3350.0,2039.0,2777.0,1038.0,151.0,1485.0,3310.0,2092.0,2842.0
130,18 ST,40.74122390000001,-73.9980319,353.0,237.0,1083.0,2322.0,2251.0,1270.0,328.0,171.0,942.0,2011.0,1948.0,593.0,113.0,834.0,3763.0,3246.0,5257.0,1104.0,133.0,904.0,4313.0,3470.0,5813.0,1566.0,161.0,846.0,3846.0,3275.0,5332.0,3813.0,248.0,927.0,3893.0,3535.0,5585.0,1455.0,162.0,760.0,3686.0,3552.0,5429.0
131,SARATOGA AV,40.669094,-73.91828199999998,387.0,551.0,963.0,1021.0,1176.0,857.0,328.0,422.0,894.0,1012.0,1123.0,783.0,285.0,2497.0,2388.0,2040.0,3258.0,1254.0,252.0,2510.0,2318.0,1753.0,3559.0,1349.0,294.0,2475.0,2291.0,1996.0,3348.0,1404.0,309.0,2520.0,2468.0,1961.0,3484.0,1324.0,317.0,2381.0,2386.0,,
132,WILSON AV,40.6887823,-73.90467240000001,2.0,1.0,0.0,0.0,1.0,0.0,0.0,3.0,0.0,3.0,0.0,0.0,0.0,1338.0,2012.0,1489.0,2445.0,1126.0,6.0,1376.0,2026.0,1566.0,2487.0,1172.0,19.0,1333.0,2096.0,1549.0,2565.0,1403.0,204.0,1387.0,2025.0,1595.0,2548.0,1329.0,4.0,1213.0,2022.0,1662.0,2421.0
133,V.CORTLANDT PK,40.89642429999999,-73.8852842,289.0,752.0,1310.0,1402.0,1443.0,930.0,362.0,601.0,1587.0,2192.0,1581.0,715.0,168.0,3407.0,2963.0,1833.0,3017.0,848.0,181.0,3437.0,3086.0,2076.0,3378.0,891.0,212.0,3357.0,3075.0,1912.0,3220.0,1047.0,254.0,3300.0,3184.0,1974.0,3488.0,955.0,172.0,3177.0,3107.0,2285.0,2986.0
134,WESTCHESTER SQ,40.840124700000004,-73.84282579999999,347.0,643.0,952.0,1207.0,1229.0,776.0,283.0,445.0,963.0,1273.0,1126.0,681.0,186.0,2504.0,2795.0,2573.0,3545.0,1140.0,249.0,2601.0,2839.0,2448.0,3682.0,1195.0,280.0,2407.0,2610.0,2655.0,3433.0,1151.0,311.0,2467.0,2817.0,2630.0,3607.0,1274.0,304.0,2419.0,2690.0,2749.0,3227.0
135,FAR ROCKAWAY,40.6077527,-73.7517548,382.0,659.0,928.0,1138.0,1029.0,650.0,384.0,571.0,901.0,1173.0,1082.0,719.0,284.0,2261.0,1655.0,1727.0,2778.0,965.0,307.0,2211.0,1772.0,1675.0,2786.0,964.0,374.0,2190.0,1679.0,1832.0,2914.0,1016.0,383.0,2264.0,1751.0,1837.0,2884.0,1128.0,370.0,2097.0,1733.0,1820.0,2872.0
136,WOODLAWN,40.88603699999999,-73.878751,287.0,666.0,848.0,832.0,890.0,638.0,265.0,332.0,714.0,1062.0,1104.0,628.0,167.0,2586.0,1921.0,1388.0,1891.0,658.0,237.0,2768.0,1851.0,1514.0,1931.0,832.0,234.0,2540.0,1793.0,1564.0,1988.0,766.0,252.0,2578.0,2022.0,1577.0,2007.0,790.0,263.0,2500.0,1745.0,1570.0,1903.0
137,CORTELYOU RD,40.6412697,-73.9639694,121.0,294.0,757.0,869.0,728.0,367.0,111.0,246.0,727.0,920.0,712.0,320.0,95.0,1997.0,2710.0,1602.0,1617.0,573.0,119.0,2015.0,2832.0,1627.0,1745.0,618.0,120.0,2032.0,2808.0,1700.0,1839.0,712.0,149.0,1931.0,2918.0,1674.0,1740.0,686.0,155.0,1844.0,2793.0,1692.0,1625.0
138,BERGEN ST,40.686083200000006,-73.9909074,270.0,146.0,886.0,1474.0,1682.0,1053.0,291.0,138.0,901.0,1658.0,1759.0,698.0,121.0,679.0,2414.0,1177.0,2245.0,645.0,40.0,760.0,2452.0,1278.0,2846.0,734.0,60.0,753.0,2307.0,1226.0,2384.0,772.0,83.0,732.0,2450.0,1091.0,2321.0,836.0,86.0,652.0,2285.0,1247.0,2282.0
139,BEDFORD PK BLVD,40.8732636,-73.8871965,289.0,558.0,989.0,1133.0,952.0,668.0,228.0,393.0,843.0,1069.0,1104.0,538.0,180.0,1981.0,1996.0,2614.0,2648.0,1064.0,228.0,2016.0,2185.0,2546.0,2985.0,1190.0,268.0,2008.0,2085.0,2792.0,2414.0,1104.0,282.0,2009.0,2056.0,2668.0,3082.0,1267.0,246.0,1991.0,2634.0,2500.0,1998.0
140,HARLEM 148 ST,40.8240504,-73.9369385,358.0,375.0,1023.0,937.0,1031.0,775.0,211.0,302.0,1022.0,1331.0,1318.0,749.0,180.0,1715.0,2295.0,1878.0,2955.0,1058.0,156.0,1832.0,2531.0,1890.0,3151.0,1043.0,184.0,1774.0,2457.0,2159.0,2716.0,1249.0,228.0,1806.0,2583.0,1548.0,2983.0,1163.0,189.0,1645.0,2513.0,1981.0,2724.0
141,BAY RIDGE-95 ST,40.6167174,-74.0308527,270.0,384.0,1047.0,1083.0,1054.0,555.0,202.0,295.0,942.0,1001.0,959.0,485.0,126.0,2265.0,2494.0,1593.0,2682.0,824.0,159.0,2426.0,2596.0,1585.0,2693.0,969.0,159.0,2236.0,2649.0,1639.0,2645.0,866.0,195.0,2289.0,2640.0,1669.0,2536.0,888.0,179.0,2077.0,2517.0,1630.0,2500.0
142,CLINTON-WASH AV,40.683498900000004,-73.9668944,487.0,315.0,1562.0,1957.0,2064.0,1275.0,511.0,264.0,1392.0,2113.0,1881.0,934.0,169.0,1685.0,4392.0,2096.0,3509.0,1274.0,180.0,1710.0,4657.0,2174.0,3611.0,1471.0,210.0,1728.0,4457.0,2220.0,4420.0,1610.0,306.0,1728.0,4573.0,2113.0,3557.0,1550.0,219.0,1454.0,4444.0,2377.0,3484.0
143,KINGSTON-THROOP,40.679826500000004,-73.94112940000001,780.0,512.0,1789.0,2108.0,2136.0,1515.0,846.0,458.0,1653.0,2054.0,1863.0,1143.0,352.0,1682.0,3542.0,2188.0,3301.0,1769.0,375.0,1770.0,3725.0,2244.0,3420.0,1723.0,514.0,1754.0,3561.0,2299.0,3281.0,1756.0,797.0,1671.0,3736.0,2211.0,3237.0,1671.0,451.0,1627.0,3538.0,2423.0,3124.0
144,ST LAWRENCE AV,40.8315326,-73.8672593,429.0,603.0,861.0,1006.0,1105.0,801.0,343.0,477.0,789.0,1095.0,1130.0,662.0,281.0,1814.0,1596.0,1422.0,2170.0,980.0,319.0,1848.0,1509.0,1328.0,2230.0,988.0,352.0,1792.0,1508.0,1543.0,2107.0,1031.0,407.0,1811.0,1573.0,1557.0,2082.0,1043.0,357.0,1747.0,1562.0,1586.0,2037.0
145,176 ST,40.8484597,-73.9117411,333.0,708.0,1136.0,1229.0,1167.0,744.0,254.0,537.0,1013.0,1231.0,1134.0,696.0,217.0,2214.0,2017.0,1658.0,2418.0,908.0,306.0,2232.0,2223.0,1662.0,2478.0,945.0,289.0,2091.0,2162.0,1804.0,2280.0,979.0,315.0,2172.0,2212.0,1728.0,2438.0,1025.0,269.0,2036.0,2209.0,1975.0,2451.0
146,FULTON ST,40.709893,-74.0079818,341.0,271.0,1026.0,1924.0,2153.0,1310.0,318.0,206.0,1075.0,2240.0,2409.0,793.0,108.0,1319.0,2070.0,2725.0,3444.0,1119.0,111.0,1227.0,2391.0,2679.0,3705.0,1380.0,197.0,1224.0,2278.0,2849.0,2266.0,1538.0,205.0,1283.0,2209.0,2693.0,3718.0,1786.0,204.0,1240.0,2146.0,2727.0,3716.0
147,AVENUE J,40.6252684,-73.9607296,107.0,317.0,754.0,892.0,781.0,395.0,92.0,280.0,933.0,1169.0,913.0,403.0,86.0,1726.0,2610.0,1889.0,2668.0,903.0,99.0,1774.0,2720.0,2011.0,2775.0,978.0,99.0,1760.0,2614.0,1940.0,2555.0,904.0,99.0,1772.0,2750.0,2077.0,2764.0,904.0,137.0,1730.0,2394.0,2114.0,1982.0
148,183 ST,40.8583924,-73.90397810000002,327.0,843.0,1137.0,1221.0,1188.0,759.0,315.0,580.0,1057.0,1235.0,1131.0,689.0,251.0,2266.0,2049.0,1764.0,2029.0,864.0,294.0,2305.0,2097.0,1877.0,2207.0,884.0,256.0,2163.0,1981.0,1792.0,1989.0,869.0,315.0,2227.0,2094.0,1853.0,2017.0,1006.0,294.0,2164.0,2038.0,1827.0,2010.0
149,18 AV,40.6201053,-73.9894661,304.0,995.0,2050.0,1928.0,1825.0,832.0,342.0,806.0,2187.0,2306.0,2027.0,792.0,179.0,3338.0,3929.0,2519.0,3632.0,937.0,171.0,3458.0,3946.0,2550.0,2906.0,867.0,150.0,2720.0,2028.0,1553.0,3642.0,1052.0,239.0,3389.0,4083.0,2656.0,3885.0,1054.0,200.0,3188.0,3871.0,2916.0,3347.0
150,KINGSTON AV,40.669284499999996,-73.9422927,226.0,254.0,810.0,992.0,1104.0,746.0,271.0,266.0,1128.0,1468.0,1263.0,647.0,147.0,1167.0,2304.0,1559.0,2415.0,1055.0,196.0,1257.0,2393.0,1627.0,2439.0,1095.0,209.0,1181.0,2356.0,1571.0,2294.0,1233.0,258.0,1164.0,2461.0,1774.0,2590.0,1204.0,237.0,1148.0,2454.0,2530.0,2165.0
151,BEVERLEY ROAD,40.644229100000004,-73.96449799999998,143.0,162.0,371.0,411.0,450.0,409.0,133.0,150.0,377.0,419.0,411.0,259.0,83.0,1051.0,1532.0,951.0,1890.0,911.0,180.0,1113.0,1624.0,1004.0,2216.0,1309.0,157.0,1124.0,1508.0,1071.0,2229.0,963.0,230.0,1070.0,1622.0,1038.0,1963.0,1163.0,174.0,1050.0,1522.0,949.0,1699.0
152,71 ST,40.619621200000005,-73.99877699999998,155.0,760.0,1552.0,1147.0,966.0,516.0,141.0,577.0,1668.0,1222.0,855.0,483.0,99.0,2224.0,2503.0,1158.0,1697.0,591.0,90.0,2276.0,2471.0,1180.0,1826.0,601.0,127.0,2213.0,2507.0,1186.0,1857.0,642.0,113.0,2195.0,2527.0,1175.0,1837.0,640.0,115.0,2070.0,2323.0,1141.0,1710.0
153,ST. GEORGE,40.64400390000001,-74.07332480000001,317.0,481.0,575.0,709.0,767.0,531.0,274.0,335.0,614.0,749.0,772.0,453.0,180.0,4128.0,2790.0,2178.0,5611.0,851.0,248.0,4229.0,2995.0,,5742.0,,210.0,3802.0,2584.0,1902.0,5044.0,1128.0,353.0,4012.0,2964.0,1891.0,5706.0,1079.0,254.0,3411.0,2759.0,1712.0,5124.0
154,MT EDEN AV,40.844528499999996,-73.9146157,343.0,648.0,1069.0,1259.0,1210.0,756.0,343.0,531.0,956.0,1170.0,1334.0,774.0,249.0,2125.0,2209.0,1647.0,2465.0,1008.0,325.0,2177.0,2172.0,1717.0,2543.0,1151.0,346.0,2125.0,2201.0,1811.0,2338.0,1086.0,353.0,2225.0,2297.0,1668.0,2581.0,1048.0,320.0,2088.0,2318.0,1970.0,2460.0
155,MARBLE HILL-225,40.8743487,-73.91043309999998,137.0,474.0,795.0,926.0,1011.0,579.0,104.0,301.0,738.0,1084.0,1086.0,458.0,79.0,1656.0,1695.0,1496.0,1810.0,503.0,60.0,,,1489.0,1911.0,582.0,61.0,1574.0,1726.0,1586.0,1874.0,574.0,59.0,1531.0,1635.0,1504.0,2078.0,606.0,62.0,1570.0,1768.0,1631.0,2070.0
156,174-175 STS,40.846524,-73.90972690000001,,,,,,,,,,,,,,,,,,,,,,,,,,,,,,,,,,,,,,,,,
157,33 ST-RAWSON ST,40.744587,-73.93099699999998,158.0,501.0,1404.0,1526.0,969.0,265.0,96.0,355.0,628.0,853.0,670.0,228.0,110.0,2837.0,5981.0,6332.0,7138.0,1750.0,162.0,2776.0,6311.0,6562.0,7578.0,1982.0,171.0,2935.0,5996.0,6452.0,6229.0,1738.0,167.0,2784.0,6070.0,6281.0,7210.0,1851.0,183.0,2582.0,5112.0,5273.0,5033.0
158,CITY HALL,40.7135245,-74.00671009999998,135.0,118.0,485.0,848.0,901.0,379.0,90.0,85.0,680.0,1081.0,1032.0,378.0,63.0,753.0,2632.0,2674.0,4354.0,773.0,71.0,792.0,2749.0,2685.0,4311.0,903.0,68.0,819.0,2630.0,2626.0,4015.0,789.0,78.0,792.0,2730.0,2685.0,4127.0,843.0,92.0,698.0,2509.0,2436.0,3673.0
159,182-183 STS,40.8560934,-73.90102949999998,104.0,497.0,805.0,785.0,648.0,388.0,133.0,350.0,627.0,677.0,599.0,321.0,90.0,1455.0,1526.0,1200.0,1237.0,561.0,180.0,1679.0,1541.0,1265.0,1324.0,566.0,170.0,1594.0,1537.0,1295.0,1301.0,531.0,196.0,1644.0,1592.0,1314.0,1214.0,573.0,191.0,1554.0,1587.0,1326.0,1266.0
160,PRESIDENT ST,40.668158500000004,-73.95065859999998,374.0,247.0,787.0,1046.0,964.0,740.0,314.0,214.0,645.0,967.0,946.0,552.0,133.0,1266.0,2515.0,1884.0,2946.0,902.0,132.0,1366.0,2525.0,1814.0,3072.0,984.0,137.0,1325.0,2561.0,1990.0,2787.0,913.0,214.0,1329.0,2600.0,1829.0,2811.0,947.0,175.0,1250.0,2507.0,2047.0,2474.0
161,77 ST,40.7736346,-73.95982939999998,136.0,321.0,850.0,925.0,882.0,430.0,103.0,251.0,775.0,877.0,725.0,327.0,75.0,1975.0,2425.0,1204.0,1814.0,560.0,87.0,2105.0,2384.0,1300.0,1858.0,664.0,96.0,1971.0,2301.0,1318.0,1897.0,615.0,135.0,1886.0,2579.0,1320.0,1851.0,609.0,98.0,1813.0,2333.0,1255.0,1792.0
162,GUN HILL RD,40.87773920000001,-73.86630459999998,127.0,390.0,573.0,599.0,487.0,313.0,116.0,269.0,516.0,532.0,428.0,286.0,114.0,2641.0,1799.0,1186.0,1322.0,365.0,94.0,2660.0,1782.0,1196.0,1238.0,448.0,116.0,2537.0,1864.0,1231.0,1220.0,390.0,136.0,2565.0,1899.0,1259.0,1225.0,430.0,120.0,2475.0,1710.0,1233.0,1127.0
163,79 ST,40.783934,-73.979917,98.0,673.0,1341.0,941.0,815.0,380.0,98.0,456.0,1341.0,969.0,745.0,371.0,89.0,2444.0,2797.0,1322.0,1596.0,503.0,90.0,2466.0,2846.0,1332.0,1668.0,490.0,102.0,2395.0,2840.0,1309.0,1571.0,481.0,97.0,2475.0,2844.0,1442.0,1563.0,488.0,104.0,2362.0,2672.0,1314.0,1495.0
164,190 ST,40.858887700000004,-73.93422159999999,80.0,179.0,841.0,1056.0,820.0,377.0,73.0,170.0,853.0,1346.0,894.0,230.0,53.0,1307.0,2109.0,1237.0,1281.0,396.0,87.0,1389.0,2169.0,1190.0,1425.0,445.0,91.0,1303.0,2178.0,1281.0,1324.0,461.0,99.0,1327.0,2153.0,1422.0,1312.0,385.0,70.0,1257.0,1979.0,1213.0,1359.0
165,20 AV,40.617271,-73.9847709,83.0,517.0,1000.0,884.0,808.0,345.0,64.0,376.0,989.0,978.0,870.0,309.0,51.0,1838.0,1837.0,1019.0,1449.0,435.0,58.0,1839.0,1869.0,976.0,1481.0,477.0,82.0,1849.0,1791.0,957.0,1417.0,458.0,79.0,1869.0,1654.0,1030.0,1367.0,302.0,50.0,1760.0,1838.0,983.0,1509.0
166,25 ST,40.6604039,-73.99810550000001,306.0,304.0,919.0,1034.0,998.0,620.0,269.0,227.0,746.0,1124.0,1033.0,351.0,148.0,1120.0,472.0,1229.0,1874.0,720.0,145.0,1140.0,2026.0,1242.0,2107.0,759.0,155.0,1051.0,1981.0,1355.0,1952.0,745.0,186.0,1113.0,2025.0,1296.0,2031.0,714.0,168.0,1026.0,2027.0,1357.0,1934.0
167,BRIARWOOD,40.7093666,-73.81988539999998,206.0,371.0,852.0,860.0,798.0,457.0,152.0,273.0,813.0,919.0,752.0,385.0,105.0,1948.0,2027.0,1506.0,1916.0,675.0,156.0,2035.0,2109.0,1496.0,1939.0,678.0,155.0,2006.0,2032.0,1716.0,2027.0,702.0,225.0,1790.0,2037.0,1207.0,1883.0,705.0,173.0,1815.0,1939.0,1751.0,1729.0
168,AQUEDUCT RACETR,40.6721498,-73.8356843,197.0,160.0,155.0,462.0,600.0,398.0,175.0,139.0,135.0,468.0,814.0,330.0,113.0,212.0,184.0,443.0,,,96.0,214.0,185.0,426.0,499.0,297.0,104.0,188.0,217.0,442.0,562.0,321.0,96.0,206.0,220.0,501.0,688.0,,150.0,237.0,,582.0,959.0
169,PENNSYLVANIA AV,40.6646911,-73.8941747,169.0,364.0,709.0,738.0,737.0,462.0,162.0,256.0,646.0,763.0,669.0,426.0,108.0,1705.0,1619.0,1440.0,1841.0,616.0,116.0,1742.0,1805.0,1382.0,1951.0,601.0,136.0,1671.0,1648.0,1469.0,1820.0,748.0,157.0,1675.0,1842.0,1431.0,1897.0,629.0,149.0,1555.0,1687.0,1708.0,1729.0
170,AVENUE M,40.6180725,-73.9593745,67.0,252.0,659.0,664.0,588.0,310.0,69.0,229.0,850.0,935.0,842.0,313.0,53.0,1775.0,2707.0,2016.0,2196.0,529.0,51.0,1492.0,3021.0,2012.0,2224.0,482.0,62.0,1685.0,2751.0,2025.0,2245.0,535.0,71.0,1543.0,3045.0,2027.0,2607.0,744.0,74.0,1651.0,2556.0,2235.0,1699.0
171,OCEAN PKWY,40.5762935,-73.9684997,98.0,183.0,535.0,621.0,585.0,254.0,76.0,152.0,493.0,673.0,658.0,240.0,43.0,923.0,1171.0,1328.0,1226.0,362.0,48.0,950.0,1216.0,1277.0,1290.0,432.0,75.0,909.0,1163.0,1291.0,1430.0,408.0,63.0,939.0,1223.0,1297.0,1296.0,364.0,78.0,929.0,1146.0,1309.0,1188.0
172,AVENUE H,40.6297445,-73.96166170000001,94.0,160.0,491.0,536.0,453.0,236.0,72.0,125.0,380.0,504.0,522.0,266.0,67.0,903.0,2057.0,1702.0,2156.0,742.0,119.0,973.0,2068.0,1776.0,2171.0,898.0,101.0,923.0,2001.0,1799.0,2137.0,818.0,135.0,980.0,2031.0,1705.0,2000.0,814.0,216.0,858.0,1514.0,1317.0,1399.0
173,JUNIUS ST,40.67504,-73.904496,148.0,185.0,464.0,493.0,556.0,324.0,130.0,167.0,470.0,579.0,561.0,357.0,103.0,897.0,1035.0,1091.0,1593.0,483.0,127.0,926.0,1040.0,982.0,1660.0,499.0,131.0,910.0,1036.0,999.0,1526.0,519.0,125.0,899.0,1090.0,1044.0,,,,859.0,1118.0,1132.0,1483.0
174,NECK RD,40.595153100000005,-73.9550266,89.0,329.0,680.0,530.0,641.0,270.0,64.0,260.0,745.0,642.0,542.0,253.0,53.0,1609.0,1790.0,828.0,1466.0,419.0,54.0,1657.0,1912.0,886.0,1484.0,450.0,68.0,1616.0,1773.0,872.0,1544.0,456.0,83.0,1638.0,1921.0,907.0,1605.0,464.0,81.0,1626.0,1790.0,911.0,1442.0
175,VAN SICLEN AV,40.67274219999999,-73.8903155,235.0,290.0,569.0,636.0,672.0,468.0,189.0,234.0,516.0,654.0,664.0,469.0,135.0,1263.0,1304.0,1127.0,1797.0,741.0,159.0,1393.0,1290.0,1061.0,1891.0,743.0,184.0,1330.0,1272.0,1225.0,1723.0,794.0,208.0,1330.0,1347.0,1096.0,1912.0,714.0,207.0,1253.0,1246.0,1190.0,1722.0
176,138/GRAND CONC,40.8132249,-73.9298111,199.0,406.0,527.0,558.0,631.0,286.0,203.0,267.0,408.0,481.0,562.0,371.0,169.0,1171.0,1472.0,1396.0,1604.0,513.0,174.0,1280.0,1420.0,1399.0,1680.0,509.0,211.0,1185.0,1358.0,1399.0,1619.0,533.0,190.0,1207.0,1464.0,1453.0,1711.0,564.0,212.0,1119.0,1511.0,1415.0,1608.0
177,BEVERLY RD,40.8322067,-73.3848891,108.0,414.0,743.0,793.0,729.0,838.0,127.0,323.0,684.0,807.0,622.0,260.0,97.0,1622.0,1614.0,876.0,901.0,332.0,80.0,1674.0,1650.0,928.0,897.0,421.0,86.0,1605.0,1659.0,946.0,948.0,404.0,104.0,1615.0,1705.0,912.0,976.0,404.0,89.0,1488.0,1631.0,985.0,883.0
178,75 AV,40.718331,-73.837324,72.0,150.0,635.0,648.0,575.0,321.0,61.0,108.0,589.0,693.0,492.0,224.0,37.0,866.0,1604.0,765.0,996.0,300.0,51.0,956.0,1686.0,723.0,949.0,390.0,39.0,880.0,1700.0,753.0,990.0,343.0,83.0,880.0,1677.0,746.0,893.0,340.0,50.0,780.0,1557.0,759.0,932.0
179,BUSHWICK AV,40.7002958,-73.94116439999998,11.0,5.0,0.0,1.0,1.0,1.0,0.0,0.0,0.0,0.0,0.0,1.0,0.0,632.0,847.0,595.0,984.0,421.0,0.0,675.0,866.0,565.0,1041.0,446.0,0.0,448.0,946.0,643.0,1014.0,533.0,71.0,615.0,896.0,617.0,1033.0,515.0,0.0,604.0,815.0,678.0,977.0
180,BEACH 67 ST,40.5909714,-73.79631690000001,160.0,280.0,480.0,465.0,412.0,259.0,162.0,225.0,422.0,,,340.0,134.0,1021.0,733.0,665.0,966.0,396.0,145.0,1068.0,771.0,670.0,1023.0,425.0,156.0,1015.0,235.0,242.0,945.0,451.0,170.0,1052.0,743.0,780.0,949.0,451.0,180.0,972.0,817.0,693.0,1010.0
181,WHITLOCK AV,40.82674420000001,-73.88634559999998,173.0,264.0,415.0,453.0,488.0,330.0,140.0,201.0,345.0,501.0,488.0,293.0,114.0,911.0,844.0,782.0,1116.0,446.0,137.0,957.0,785.0,607.0,1108.0,502.0,155.0,861.0,840.0,799.0,1072.0,492.0,194.0,947.0,859.0,746.0,1117.0,474.0,154.0,877.0,925.0,838.0,1047.0
182,W 8 ST-AQUARIUM,40.57612779999999,-73.97596539999998,26.0,112.0,376.0,448.0,372.0,138.0,33.0,107.0,555.0,983.0,782.0,177.0,23.0,593.0,965.0,912.0,764.0,189.0,18.0,598.0,1035.0,961.0,801.0,206.0,23.0,615.0,965.0,1025.0,789.0,225.0,24.0,601.0,1041.0,1012.0,877.0,221.0,26.0,568.0,995.0,948.0,662.0
183,PARK PLACE,40.7132422,-74.0092559,84.0,93.0,343.0,505.0,420.0,231.0,79.0,67.0,374.0,627.0,672.0,236.0,34.0,460.0,2013.0,1272.0,2367.0,375.0,46.0,499.0,2164.0,1437.0,2518.0,432.0,34.0,503.0,1961.0,1463.0,2235.0,358.0,40.0,498.0,1978.0,1331.0,2444.0,453.0,45.0,472.0,1751.0,1320.0,2134.0
184,215 ST,40.8695946,-73.9153019,47.0,99.0,224.0,425.0,472.0,203.0,46.0,73.0,213.0,298.0,303.0,112.0,32.0,363.0,504.0,480.0,499.0,192.0,42.0,351.0,569.0,530.0,680.0,299.0,48.0,365.0,621.0,549.0,624.0,274.0,58.0,370.0,621.0,612.0,702.0,269.0,45.0,364.0,599.0,575.0,588.0
185,HOWARD BCH JFK,40.660476,-73.83030099999998,194.0,192.0,344.0,497.0,588.0,447.0,229.0,279.0,289.0,570.0,581.0,464.0,151.0,661.0,588.0,609.0,713.0,428.0,138.0,698.0,452.0,593.0,816.0,538.0,141.0,568.0,557.0,608.0,674.0,388.0,167.0,652.0,551.0,592.0,680.0,435.0,124.0,600.0,467.0,563.0,648.0
186,BEACH 25 ST,40.59946790000001,-73.7618536,185.0,236.0,336.0,362.0,369.0,258.0,126.0,203.0,315.0,374.0,428.0,334.0,138.0,1076.0,667.0,712.0,1160.0,478.0,166.0,1073.0,707.0,747.0,1062.0,496.0,173.0,1064.0,640.0,727.0,1104.0,495.0,223.0,1119.0,695.0,736.0,1085.0,524.0,147.0,986.0,697.0,717.0,1072.0
187,BEACH 60 ST,40.59244,-73.78928300000003,165.0,292.0,328.0,429.0,387.0,275.0,138.0,251.0,337.0,425.0,445.0,264.0,113.0,995.0,695.0,724.0,934.0,339.0,147.0,1054.0,718.0,738.0,923.0,407.0,150.0,958.0,695.0,751.0,884.0,433.0,179.0,1002.0,765.0,722.0,974.0,394.0,165.0,947.0,702.0,722.0,920.0
188,ATLANTIC AV,40.675554,-73.90305759999998,52.0,78.0,152.0,208.0,156.0,138.0,38.0,43.0,165.0,167.0,146.0,100.0,46.0,736.0,632.0,476.0,781.0,232.0,40.0,733.0,630.0,483.0,792.0,193.0,36.0,699.0,611.0,466.0,797.0,233.0,32.0,718.0,622.0,475.0,805.0,187.0,23.0,667.0,643.0,599.0,693.0
189,BEACH 36 ST,40.595532,-73.7681238,90.0,122.0,192.0,174.0,231.0,149.0,87.0,105.0,165.0,254.0,214.0,179.0,72.0,510.0,340.0,328.0,533.0,235.0,75.0,496.0,341.0,355.0,504.0,231.0,83.0,475.0,358.0,388.0,576.0,276.0,103.0,487.0,364.0,315.0,597.0,233.0,77.0,471.0,320.0,338.0,526.0
190,55 ST,40.6315514,-73.9956328,47.0,133.0,319.0,296.0,316.0,178.0,50.0,110.0,486.0,583.0,488.0,170.0,55.0,432.0,984.0,827.0,1109.0,251.0,33.0,454.0,938.0,816.0,1111.0,236.0,45.0,452.0,936.0,794.0,1014.0,240.0,46.0,433.0,941.0,888.0,1155.0,284.0,48.0,452.0,848.0,905.0,730.0
191,104 ST,40.695145600000004,-73.8443046,67.0,209.0,274.0,219.0,242.0,127.0,35.0,118.0,227.0,217.0,174.0,118.0,44.0,1414.0,1080.0,632.0,685.0,234.0,57.0,1540.0,1098.0,714.0,709.0,250.0,59.0,1525.0,1056.0,678.0,806.0,238.0,69.0,1466.0,1051.0,717.0,683.0,241.0,70.0,1402.0,1000.0,639.0,687.0
192,BEACH 44 ST,40.592920899999996,-73.77594839999998,78.0,105.0,144.0,162.0,138.0,120.0,52.0,104.0,139.0,197.0,175.0,162.0,44.0,376.0,79.0,101.0,449.0,192.0,64.0,411.0,267.0,269.0,430.0,222.0,55.0,399.0,270.0,316.0,442.0,210.0,71.0,423.0,305.0,296.0,454.0,192.0,67.0,385.0,296.0,307.0,413.0
193,WORLD TRADE CTR,40.712645200000004,-74.00989799999998,875.0,1084.0,4353.0,6322.0,6275.0,3057.0,967.0,707.0,4013.0,6058.0,6209.0,2525.0,417.0,3101.0,10193.0,6260.0,12738.0,2560.0,296.0,3015.0,10247.0,6122.0,14028.0,2642.0,319.0,2968.0,8857.0,6076.0,12086.0,2818.0,511.0,3037.0,9381.0,6757.0,13138.0,2953.0,426.0,2789.0,10072.0,7591.0,12485.0
194,NASSAU AV,40.7238944,-73.9506777,751.0,562.0,1949.0,3185.0,3184.0,2275.0,859.0,403.0,1795.0,3275.0,3201.0,1475.0,251.0,1978.0,4265.0,2395.0,4882.0,1551.0,275.0,2179.0,4713.0,2545.0,5459.0,2119.0,308.0,2210.0,4680.0,2714.0,3941.0,1990.0,478.0,2289.0,4634.0,2675.0,5072.0,1898.0,409.0,2059.0,4638.0,2686.0,5106.0
195,39 AV,40.752689700000005,-73.9328056,,,,,,,,,,,,,,,,,,,,,,,,,,,,,,,,,,,,,,,,,
196,36 AV,40.7668516,-73.921313,958.0,637.0,1832.0,2302.0,2740.0,1669.0,707.0,535.0,1826.0,2474.0,2661.0,1358.0,317.0,2776.0,5616.0,3318.0,6681.0,2466.0,474.0,2983.0,5615.0,3155.0,6917.0,2737.0,448.0,2800.0,5430.0,3294.0,6449.0,2804.0,652.0,2860.0,5501.0,2892.0,6659.0,2606.0,546.0,2580.0,5078.0,3177.0,6582.0
197,BROADWAY,40.7623472,-73.9256595,,,,,,,,,,,,,,,,,,,,,,,,,,,,,,,,,,,,,,,,,
198,COURT SQ-23 ST,40.748050799999994,-73.94704779999998,191.0,469.0,1430.0,1856.0,1726.0,910.0,332.0,323.0,1509.0,1911.0,1558.0,662.0,123.0,1237.0,2507.0,1841.0,2614.0,608.0,115.0,1431.0,2410.0,1816.0,2703.0,681.0,104.0,1429.0,2374.0,1769.0,2649.0,621.0,145.0,1380.0,2324.0,1807.0,2695.0,718.0,130.0,1257.0,2384.0,1891.0,2553.0
199,ASTORIA DITMARS,40.7750119,-73.91211,886.0,906.0,2622.0,3238.0,3445.0,2398.0,906.0,702.0,2424.0,3388.0,3226.0,1823.0,360.0,4157.0,7691.0,3955.0,7269.0,3043.0,515.0,4259.0,8015.0,4092.0,7247.0,3191.0,621.0,4092.0,7930.0,4071.0,6961.0,3260.0,789.0,4139.0,8147.0,4050.0,6986.0,3243.0,746.0,3919.0,7625.0,4289.0,6982.0
200,CYPRESS HILLS,40.68994860000001,-73.87257310000003,36.0,11.0,2.0,4.0,5.0,6.0,1.0,1.0,3.0,8.0,5.0,43.0,48.0,672.0,541.0,432.0,612.0,173.0,43.0,690.0,,480.0,,203.0,41.0,668.0,552.0,475.0,608.0,163.0,64.0,670.0,604.0,497.0,664.0,201.0,52.0,653.0,562.0,484.0,586.0
201,30 AV,40.7668516,-73.921313,1175.0,837.0,2839.0,3888.0,4335.0,2737.0,1216.0,735.0,2684.0,4104.0,4244.0,2078.0,486.0,4173.0,9010.0,4549.0,9668.0,3833.0,673.0,4417.0,9123.0,3909.0,8947.0,4503.0,674.0,4311.0,8811.0,4336.0,9615.0,4288.0,936.0,4278.0,8769.0,3690.0,9790.0,4290.0,833.0,4016.0,8526.0,4534.0,9203.0
202,121 ST,40.7006094,-73.8281286,59.0,0.0,1.0,2.0,0.0,0.0,0.0,2.0,1.0,0.0,1.0,45.0,34.0,459.0,452.0,375.0,550.0,159.0,38.0,,,380.0,620.0,187.0,43.0,481.0,380.0,380.0,466.0,152.0,48.0,429.0,366.0,349.0,466.0,165.0,46.0,455.0,386.0,367.0,468.0
203,75 ST-ELDERTS,40.69143649999999,-73.8665512,126.0,0.0,0.0,0.0,0.0,0.0,0.0,0.0,0.0,0.0,0.0,107.0,113.0,1715.0,1398.0,1176.0,1601.0,535.0,139.0,1716.0,1448.0,1151.0,1541.0,560.0,141.0,1758.0,1457.0,1132.0,1665.0,464.0,134.0,1728.0,1405.0,1112.0,1622.0,578.0,97.0,1631.0,1440.0,1162.0,1378.0
204,AVENUE X,40.589682200000006,-73.9742509,174.0,390.0,636.0,582.0,647.0,400.0,144.0,273.0,643.0,632.0,724.0,356.0,87.0,1145.0,1182.0,910.0,1413.0,475.0,84.0,1171.0,1149.0,911.0,1364.0,483.0,74.0,1124.0,1157.0,947.0,1340.0,468.0,102.0,1166.0,1276.0,932.0,1541.0,525.0,87.0,1083.0,1069.0,991.0,1250.0
205,AVENUE P,40.6087814,-73.97290840000001,93.0,325.0,557.0,462.0,535.0,202.0,71.0,229.0,657.0,584.0,553.0,219.0,56.0,887.0,1081.0,538.0,845.0,252.0,45.0,936.0,1054.0,566.0,893.0,240.0,47.0,890.0,1065.0,609.0,847.0,247.0,70.0,890.0,1110.0,530.0,818.0,231.0,44.0,823.0,1042.0,620.0,688.0
206,85 ST-FOREST PK,40.6924861,-73.8590708,117.0,2.0,0.0,0.0,9.0,0.0,0.0,0.0,3.0,0.0,1.0,86.0,115.0,1698.0,1314.0,1092.0,1415.0,482.0,108.0,1752.0,1329.0,1042.0,1381.0,556.0,130.0,1699.0,1284.0,981.0,1334.0,525.0,141.0,1732.0,1395.0,1022.0,1355.0,546.0,135.0,1687.0,1300.0,1034.0,1426.0
207,WOODHAVEN BLVD,40.6939097,-73.85139269999998,188.0,3.0,5.0,17.0,13.0,6.0,3.0,3.0,5.0,18.0,2.0,130.0,111.0,1999.0,1775.0,1362.0,1888.0,582.0,134.0,1982.0,1797.0,1405.0,1879.0,597.0,131.0,1953.0,1764.0,1360.0,1788.0,594.0,148.0,1976.0,1789.0,1347.0,1795.0,622.0,113.0,1598.0,1798.0,1402.0,1796.0
208,METROPOLITAN AV,40.712132700000005,-73.889276,130.0,298.0,601.0,884.0,883.0,379.0,120.0,210.0,596.0,1023.0,950.0,360.0,96.0,1704.0,1528.0,1394.0,2441.0,546.0,87.0,1885.0,1412.0,1442.0,1482.0,608.0,98.0,1693.0,1391.0,1571.0,2405.0,497.0,127.0,1643.0,1381.0,1283.0,2333.0,529.0,115.0,1653.0,1368.0,1506.0,2282.0
209,GREENPOINT AV,40.7301618,-73.9540458,562.0,540.0,1786.0,2554.0,2827.0,1716.0,593.0,381.0,1539.0,2535.0,2516.0,1041.0,159.0,2117.0,4903.0,2885.0,5596.0,1795.0,184.0,2280.0,5095.0,3086.0,5839.0,2001.0,259.0,2239.0,5049.0,3043.0,5126.0,2228.0,432.0,2182.0,5229.0,3018.0,5566.0,1994.0,280.0,2046.0,4970.0,3384.0,6023.0
